{"province": "广西省", "city": "梧州市", "county": "岑溪市", "name": "岑溪城东路分理处", "adress": "岑溪市工农路81号", "class1": "生活服务", "class2": "银行", "longitude": "111.00150853759", "latitude": "22.9150868577731"}
{"province": "广西省", "city": "梧州市", "county": "岑溪市", "name": "岑溪解放路分理处", "adress": "岑溪市解放路51号", "class1": "生活服务", "class2": "银行", "longitude": "111.001426368333", "latitude": "22.9225026304929"}
{"province": "广西省", "city": "梧州市", "county": "岑溪市", "name": "岑溪支行营业部", "adress": "岑溪市义洲大道70号", "class1": "生活服务", "class2": "银行", "longitude": "110.992819142291", "latitude": "22.9157031271984"}
{"province": "内蒙古", "city": "呼和浩特市", "county": "新城区", "name": "呼和浩特铁路支行", "adress": "内蒙古呼和浩特市车站东街127号", "class1": "生活服务", "class2": "银行", "longitude": "111.670360000015", "latitude": "40.8293789999418"}
{"province": "内蒙古", "city": "呼和浩特市", "county": "新城区", "name": "呼和浩特海东路丽苑支行", "adress": "内蒙古呼和浩特市新城区海拉尔东街丽苑阳光城尚都综合楼临街商铺", "class1": "生活服务", "class2": "银行", "longitude": "111.701194999251", "latitude": "40.842275000192"}
{"province": "内蒙古", "city": "呼和浩特市", "county": "新城区", "name": "呼和浩特团结小区支行", "adress": "内蒙古呼和浩特市机场路18号", "class1": "生活服务", "class2": "银行", "longitude": "111.726049000562", "latitude": "40.8350360000123"}
{"province": "内蒙古", "city": "呼和浩特市", "county": "新城区", "name": "呼和浩特大学东街支行", "adress": "内蒙古呼和浩特市大学东路1号社科院科技文化综合楼1段12号", "class1": "生活服务", "class2": "银行", "longitude": "111.704025869", "latitude": "40.8140331628011"}
{"province": "内蒙古", "city": "呼和浩特市", "county": "新城区", "name": "呼和浩特大学路支行", "adress": "内蒙古呼和浩特市新城区昭乌达路81号", "class1": "生活服务", "class2": "银行", "longitude": "111.69292500009", "latitude": "40.8154810002489"}
{"province": "内蒙古", "city": "呼和浩特市", "county": "新城区", "name": "呼和浩特东影北路支行", "adress": "内蒙古呼和浩特市新城区东影北路", "class1": "生活服务", "class2": "银行", "longitude": "111.708219999454", "latitude": "40.8315460000488"}
{"province": "内蒙古", "city": "呼和浩特市", "county": "新城区", "name": "呼和浩特成吉思汗大街财富港支行", "adress": "内蒙古呼和浩特市新城区成吉思罕大街财富港临街商铺", "class1": "生活服务", "class2": "银行", "longitude": "111.680377999746", "latitude": "40.8445439996068"}
{"province": "内蒙古", "city": "呼和浩特市", "county": "新城区", "name": "呼和浩特海拉尔大街支行", "adress": "内蒙古呼和浩特市呼伦北路富恒大厦商业临街综合楼1楼1号", "class1": "生活服务", "class2": "银行", "longitude": "111.670913408628", "latitude": "40.8429367276487"}
{"province": "内蒙古", "city": "呼和浩特市", "county": "新城区", "name": "呼和浩特丰州南路中海支行", "adress": "内蒙古呼和浩特市赛罕区丰州南路鹏欣金游城临街商铺", "class1": "生活服务", "class2": "银行", "longitude": "111.687581000064", "latitude": "40.8303289996845"}
{"province": "内蒙古", "city": "呼和浩特市", "county": "新城区", "name": "呼和浩特新城西街支行", "adress": "内蒙古呼和浩特市新城西街125号", "class1": "生活服务", "class2": "银行", "longitude": "111.684385000169", "latitude": "40.8253489993577"}
{"province": "内蒙古", "city": "呼和浩特市", "county": "新城区", "name": "呼和浩特新城南街支行", "adress": "内蒙古呼和浩特市新城南街45号", "class1": "生活服务", "class2": "银行", "longitude": "111.689080999989", "latitude": "40.8237780006551"}
{"province": "内蒙古", "city": "呼和浩特市", "county": "新城区", "name": "呼和浩特成吉思汗东街房地产大厦支行", "adress": "呼和浩特市新城区成吉思汗东街与东二环交汇处呼和浩特市房产局新办公大楼", "class1": "生活服务", "class2": "银行", "longitude": "111.733233434377", "latitude": "40.8553238959819"}
{"province": "内蒙古", "city": "呼和浩特市", "county": "新城区", "name": "呼和浩特乌兰察布西街支行", "adress": "内蒙古呼和浩特市新城区乌兰察布西街兴泰御都一楼", "class1": "生活服务", "class2": "银行", "longitude": "111.682889195581", "latitude": "40.8166300019739"}
{"province": "内蒙古", "city": "呼和浩特市", "county": "新城区", "name": "呼和浩特展东路支行", "adress": "内蒙古呼和浩特市新城区海拉尔东路人和小区商业B区东西21号", "class1": "生活服务", "class2": "银行", "longitude": "111.716006539271", "latitude": "40.8453893092701"}
{"province": "内蒙古", "city": "呼和浩特市", "county": "新城区", "name": "呼和浩特公主府支行", "adress": "内蒙古呼和浩特市回民区通道北路58号呼和浩特市职业学院办公楼一楼", "class1": "生活服务", "class2": "银行", "longitude": "111.652867303085", "latitude": "40.8414096068688"}
{"province": "内蒙古", "city": "呼和浩特市", "county": "新城区", "name": "呼和浩特新城东街支行", "adress": "内蒙古呼和浩特市兴安北路综合楼1号", "class1": "生活服务", "class2": "银行", "longitude": "111.699630739168", "latitude": "40.8296395973904"}
{"province": "内蒙古", "city": "呼和浩特市", "county": "新城区", "name": "呼和浩特呼和佳地支行", "adress": "内蒙古呼和浩特市哲里木路呼和佳地东门北侧底商1号", "class1": "生活服务", "class2": "银行", "longitude": "111.677868844473", "latitude": "40.852417580308"}
{"province": "内蒙古", "city": "呼和浩特市", "county": "新城区", "name": "呼和浩特车站西街支行", "adress": "内蒙古呼和浩特市车站西街58号", "class1": "生活服务", "class2": "银行", "longitude": "111.662398999815", "latitude": "40.8292219998963"}
{"province": "内蒙古", "city": "呼和浩特市", "county": "新城区", "name": "呼和浩特新城北街支行", "adress": "内蒙古呼和浩特市新城区劳动大厦一楼", "class1": "生活服务", "class2": "银行", "longitude": "111.687908999901", "latitude": "40.8280509998547"}
{"province": "内蒙古", "city": "呼和浩特市", "county": "新城区", "name": "呼和浩特呼伦北路支行", "adress": "内蒙古呼和浩特市新城区呼伦北路农业大厦一楼124号", "class1": "生活服务", "class2": "银行", "longitude": "111.674960999951", "latitude": "40.8282649998308"}
{"province": "广西省", "city": "北海市", "county": "海城区", "name": "北海北部湾东路支行", "adress": "广西壮族自治区北海市海城区北部湾东路19号", "class1": "生活服务", "class2": "银行", "longitude": "109.134559787605", "latitude": "21.4868021974643"}
{"province": "广西省", "city": "北海市", "county": "海城区", "name": "北海工业园区支行", "adress": "广西壮族自治区北海市海城区北海大道东延线北海工业园区26号", "class1": "生活服务", "class2": "银行", "longitude": "109.120393000338", "latitude": "21.4723080003149"}
{"province": "广西省", "city": "北海市", "county": "海城区", "name": "北海重庆路支行", "adress": "广西壮族自治区北海市海城区云南南路99号", "class1": "生活服务", "class2": "银行", "longitude": "109.111373999911", "latitude": "21.4718069996941"}
{"province": "广西省", "city": "北海市", "county": "海城区", "name": "北海海城支行", "adress": "广西壮族自治区北海市海城区四川路59号", "class1": "生活服务", "class2": "银行", "longitude": "109.11368599951", "latitude": "21.4683860002146"}
{"province": "广西省", "city": "北海市", "county": "海城区", "name": "北海北海大道支行", "adress": "广西壮族自治区北海市海城区北京路城市购物广场一楼", "class1": "生活服务", "class2": "银行", "longitude": "109.122648913717", "latitude": "21.4684747183344"}
{"province": "广西省", "city": "北海市", "county": "海城区", "name": "北海解放路支行", "adress": "广西壮族自治区北海市海城区解放路9号", "class1": "生活服务", "class2": "银行", "longitude": "109.117158000442", "latitude": "21.4818870004855"}
{"province": "广西省", "city": "北海市", "county": "海城区", "name": "北海分行营业部", "adress": "广西壮族自治区北海市海城区北海大道中段26号", "class1": "生活服务", "class2": "银行", "longitude": "109.108203000269", "latitude": "21.4653460003185"}
{"province": "广西省", "city": "北海市", "county": "海城区", "name": "北海广东路支行", "adress": "广西壮族自治区北海市海城区广东路恒昌商业广场", "class1": "生活服务", "class2": "银行", "longitude": "109.130723059423", "latitude": "21.4712616013427"}
{"province": "广西省", "city": "北海市", "county": "海城区", "name": "北海四川南路支行", "adress": "广西壮族自治区北海市海城区四川南路九州城3号", "class1": "生活服务", "class2": "银行", "longitude": "109.115145000243", "latitude": "21.4639560000702"}
{"province": "广西省", "city": "北海市", "county": "海城区", "name": "北海云南路支行", "adress": "广西壮族自治区北海市海城区云南路正虹广场104号", "class1": "生活服务", "class2": "银行", "longitude": "109.099424999265", "latitude": "21.4689019997284"}
{"province": "内蒙古", "city": "呼和浩特市", "county": "新城区", "name": "呼和浩特成吉思汗大街集通佳苑支行", "adress": "内蒙古呼和浩特市新城区成吉思汗大街东段集通佳苑", "class1": "生活服务", "class2": "银行", "longitude": "111.703847461492", "latitude": "40.8618560488185"}
{"province": "内蒙古", "city": "呼和浩特市", "county": "新城区", "name": "呼和浩特大学东街金宇钻石支行", "adress": "内蒙古呼和浩特市赛罕区大学东街金宇钻石临街商铺", "class1": "生活服务", "class2": "银行", "longitude": "111.709011495485", "latitude": "40.8148822424225"}
{"province": "内蒙古", "city": "呼和浩特市", "county": "新城区", "name": "呼和浩特水岸小镇支行", "adress": "内蒙古呼和浩特市新城区东站西路水岸小镇临街商铺", "class1": "生活服务", "class2": "银行", "longitude": "111.758068984297", "latitude": "40.8426650262708"}
{"province": "内蒙古", "city": "呼和浩特市", "county": "新城区", "name": "呼和浩特兴安北路北环盛世支行", "adress": "内蒙古呼和浩特市新城区兴安北路与北二环十字路口北环盛世商住小区临街商铺一、二层", "class1": "生活服务", "class2": "银行", "longitude": "111.690812992627", "latitude": "40.8666863515948"}
{"province": "广西省", "city": "北海市", "county": "海城区", "name": "北海北京路支行", "adress": "广西壮族自治区北海市海城区北京路“华杰*春秋源”4号楼", "class1": "生活服务", "class2": "银行", "longitude": "109.44892385855", "latitude": "21.5944241728382"}
{"province": "广西省", "city": "北海市", "county": "海城区", "name": "北海湖南路支行", "adress": "广西壮族自治区北海市海城区北海大道东旭华庭8号", "class1": "生活服务", "class2": "银行", "longitude": "109.130786000275", "latitude": "21.4798190004474"}
{"province": "广西省", "city": "北海市", "county": "海城区", "name": "北海北海深圳路支行", "adress": "广西壮族自治区北海市海城区深圳路46号", "class1": "生活服务", "class2": "银行", "longitude": "109.13334654191", "latitude": "21.4791043604787"}
{"province": "广西省", "city": "北海市", "county": "银海区", "name": "北海高新区支行", "adress": "广西壮族自治区北海市银海区四川南路888号", "class1": "生活服务", "class2": "银行", "longitude": "109.125662000502", "latitude": "21.4254460003335"}
{"province": "广西省", "city": "北海市", "county": "铁山港区", "name": "北海铁山港支行", "adress": "广西壮族自治区北海市铁山港区4号路中石化生活区1号", "class1": "生活服务", "class2": "银行", "longitude": "109.524851785183", "latitude": "21.500261599594"}
{"province": "广西省", "city": "北海市", "county": "合浦县", "name": "合浦还珠路支行", "adress": "广西壮族自治区北海市合浦县廉州镇还珠中路40号", "class1": "生活服务", "class2": "银行", "longitude": "109.197091739493", "latitude": "21.6709246411601"}
{"province": "广西省", "city": "北海市", "county": "合浦县", "name": "合浦廉东路支行", "adress": "广西壮族自治区北海市合浦县廉州镇廉东大道105号", "class1": "生活服务", "class2": "银行", "longitude": "109.203553359401", "latitude": "21.6667604860085"}
{"province": "广西省", "city": "北海市", "county": "合浦县", "name": "合浦支行营业部", "adress": "广西壮族自治区北海市合浦县廉州镇还珠大道28号", "class1": "生活服务", "class2": "银行", "longitude": "109.203725668606", "latitude": "21.6571398526229"}
{"province": "内蒙古", "city": "呼和浩特市", "county": "回民区", "name": "呼和浩特光明西路支行", "adress": "内蒙古呼和浩特市回民区光明路景泰花园临街商铺", "class1": "生活服务", "class2": "银行", "longitude": "111.644898000344", "latitude": "40.8244569995917"}
{"province": "内蒙古", "city": "呼和浩特市", "county": "回民区", "name": "呼和浩特钢铁路支行", "adress": "内蒙古呼和浩特市回民区新华西街金泉小区5号综合楼一楼", "class1": "生活服务", "class2": "银行", "longitude": "111.630934766527", "latitude": "40.8112183252664"}
{"province": "内蒙古", "city": "呼和浩特市", "county": "回民区", "name": "呼和浩特金川开发区支行", "adress": "内蒙古呼和浩特市金川开发区金海路1号", "class1": "生活服务", "class2": "银行", "longitude": "111.560795999837", "latitude": "40.796278999677"}
{"province": "内蒙古", "city": "呼和浩特市", "county": "回民区", "name": "呼和浩特贝尔路支行", "adress": "内蒙古呼和浩特市贝尔路南巷宝马商城一楼", "class1": "生活服务", "class2": "银行", "longitude": "111.666096000331", "latitude": "40.814308000115"}
{"province": "内蒙古", "city": "呼和浩特市", "county": "回民区", "name": "呼和浩特中山西路支行", "adress": "内蒙古呼和浩特市中山西路南顺城街", "class1": "生活服务", "class2": "银行", "longitude": "111.657866999464", "latitude": "40.808796000436"}
{"province": "内蒙古", "city": "呼和浩特市", "county": "回民区", "name": "呼和浩特成吉思汗大街橄榄城支行", "adress": "内蒙古呼和浩特市新城区成吉思汗大街维多利金色华府商业楼1至2层103、104", "class1": "生活服务", "class2": "银行", "longitude": "111.655362843521", "latitude": "40.8235311124718"}
{"province": "内蒙古", "city": "呼和浩特市", "county": "回民区", "name": "呼和浩特锡林南路都市支行", "adress": "内蒙古呼和浩特市锡林南路都市华庭北少年宫南银都大厦一层", "class1": "生活服务", "class2": "银行", "longitude": "111.674749835538", "latitude": "40.8071052462111"}
{"province": "内蒙古", "city": "呼和浩特市", "county": "回民区", "name": "呼和浩特琦琳北辰支行", "adress": "内蒙古呼和浩特市新城区成吉思汗大街南侧琦琳北辰C座写字楼", "class1": "生活服务", "class2": "银行", "longitude": "111.666485806076", "latitude": "40.8558575770664"}
{"province": "内蒙古", "city": "呼和浩特市", "county": "回民区", "name": "呼和浩特锡林南路维多利支行", "adress": "内蒙古呼和浩特市锡林南路维多利时代城E栋一层", "class1": "生活服务", "class2": "银行", "longitude": "111.670656195328", "latitude": "40.815023724666"}
{"province": "广西省", "city": "防城港市", "county": "港口区", "name": "防城港迎宾路支行", "adress": "广西防城港市迎宾路三生官邸楼盘一楼临街商铺", "class1": "生活服务", "class2": "银行", "longitude": "108.364924439412", "latitude": "21.6859759530287"}
{"province": "广西省", "city": "防城港市", "county": "港口区", "name": "防城港企沙支行", "adress": "广西防城港市企沙镇新港路德城宾馆一楼", "class1": "生活服务", "class2": "银行", "longitude": "108.49271730536", "latitude": "21.6549911177468"}
{"province": "广西省", "city": "防城港市", "county": "港口区", "name": "防城港分行营业部", "adress": "广西防城港市渔万路39号建行大厦", "class1": "生活服务", "class2": "银行", "longitude": "108.349084000327", "latitude": "21.6155070002487"}
{"province": "广西省", "city": "防城港市", "county": "港口区", "name": "防城港东兴大道支行", "adress": "广西防城港市东兴大道斯壮大厦一楼", "class1": "生活服务", "class2": "银行", "longitude": "108.357609834128", "latitude": "21.6239804431438"}
{"province": "广西省", "city": "防城港市", "county": "港口区", "name": "防城港港口区支行", "adress": "港口友谊大道17号", "class1": "生活服务", "class2": "银行", "longitude": "108.340148000131", "latitude": "21.6088390003205"}
{"province": "广西省", "city": "防城港市", "county": "港口区", "name": "防城港桃花湾广场支行", "adress": "广西防城港市桃花湾广场海悦华府1楼", "class1": "生活服务", "class2": "银行", "longitude": "108.349131888327", "latitude": "21.6326820125657"}
{"province": "内蒙古", "city": "呼和浩特市", "county": "玉泉区", "name": "呼和浩特南茶坊支行", "adress": "内蒙古呼和浩特市南茶坊北街2号", "class1": "生活服务", "class2": "银行", "longitude": "111.656967999375", "latitude": "40.7955130003256"}
{"province": "内蒙古", "city": "呼和浩特市", "county": "玉泉区", "name": "呼和浩特石羊桥支行", "adress": "内蒙古呼和浩特市石羊桥路丽日花园综合楼一楼", "class1": "生活服务", "class2": "银行", "longitude": "111.668763143106", "latitude": "40.794106137789"}
{"province": "内蒙古", "city": "呼和浩特市", "county": "玉泉区", "name": "呼和浩特西顺城街支行", "adress": "呼和浩特市玉泉区鄂尔多斯大街与西顺城街交汇处印象江南门脸房一、二层", "class1": "生活服务", "class2": "银行", "longitude": "111.646426521368", "latitude": "40.7948822194398"}
{"province": "内蒙古", "city": "呼和浩特市", "county": "玉泉区", "name": "中国建设银行股份有限公司呼和浩特锡林南路万锦支行", "adress": "内蒙古呼和浩特市玉泉区锡林南路万锦丰泽湾底商", "class1": "生活服务", "class2": "银行", "longitude": "111.679784960708", "latitude": "40.795039190707"}
{"province": "内蒙古", "city": "呼和浩特市", "county": "赛罕区", "name": "呼和浩特石羊桥路蒙西支行", "adress": "内蒙古呼和浩特市玉泉区石羊桥路蒙西文化广场临街商铺", "class1": "生活服务", "class2": "银行", "longitude": "111.715013694028", "latitude": "40.8151878158659"}
{"province": "内蒙古", "city": "呼和浩特市", "county": "赛罕区", "name": "呼和浩特炼油厂支行", "adress": "内蒙古呼和浩特市金桥开发区景观花园住宅区正门北侧底商一、二层", "class1": "生活服务", "class2": "银行", "longitude": "111.73974300074", "latitude": "40.7557209999251"}
{"province": "内蒙古", "city": "呼和浩特市", "county": "赛罕区", "name": "呼和浩特乌兰察布东街支行", "adress": "内蒙古呼和浩特市乌兰察布东路", "class1": "生活服务", "class2": "银行", "longitude": "111.718591000176", "latitude": "40.8249719999587"}
{"province": "内蒙古", "city": "呼和浩特市", "county": "赛罕区", "name": "呼和浩特东影南路巨华支行", "adress": "内蒙古呼和浩特市东影南路中国农业科学院草原研究所2号楼", "class1": "生活服务", "class2": "银行", "longitude": "111.712164309037", "latitude": "40.8233448781645"}
{"province": "内蒙古", "city": "呼和浩特市", "county": "赛罕区", "name": "呼和浩特如意开发区支行", "adress": "内蒙古呼和浩特市如意开发区腾飞路", "class1": "生活服务", "class2": "银行", "longitude": "111.751765999402", "latitude": "40.8401260000158"}
{"province": "内蒙古", "city": "呼和浩特市", "county": "赛罕区", "name": "呼和浩特大学西街支行", "adress": "内蒙古呼和浩特市大学西街36号学府康都1楼", "class1": "生活服务", "class2": "银行", "longitude": "111.679070471826", "latitude": "40.8069935054468"}
{"province": "内蒙古", "city": "呼和浩特市", "county": "赛罕区", "name": "呼和浩特昭乌达南路支行", "adress": "内蒙古呼和浩特市昭乌达路中华联合财产保险大厦1楼", "class1": "生活服务", "class2": "银行", "longitude": "111.69968660955", "latitude": "40.7997676137853"}
{"province": "内蒙古", "city": "呼和浩特市", "county": "赛罕区", "name": "呼和浩特呼伦南路支行", "adress": "内蒙古呼和浩特市赛罕区呼伦南路208号", "class1": "生活服务", "class2": "银行", "longitude": "111.68431700063", "latitude": "40.8077930000478"}
{"province": "内蒙古", "city": "呼和浩特市", "county": "赛罕区", "name": "呼和浩特呼伦南路第二支行", "adress": "内蒙古呼和浩特市新城区呼伦南路156号", "class1": "生活服务", "class2": "银行", "longitude": "111.682883000151", "latitude": "40.8107400001518"}
{"province": "内蒙古", "city": "呼和浩特市", "county": "赛罕区", "name": "呼和浩特长安金座支行", "adress": "内蒙古呼和浩特市东风路长安金座一楼", "class1": "生活服务", "class2": "银行", "longitude": "111.7050687813", "latitude": "40.8298258316977"}
{"province": "内蒙古", "city": "呼和浩特市", "county": "赛罕区", "name": "呼和浩特东达支行", "adress": "内蒙古呼和浩特市呼伦南路119号东达城市广场一楼", "class1": "生活服务", "class2": "银行", "longitude": "111.68083821791", "latitude": "40.8141326395106"}
{"province": "内蒙古", "city": "呼和浩特市", "county": "赛罕区", "name": "呼和浩特金桥开发区支行", "adress": "内蒙古呼和浩特市金桥开发区昭乌达路南段世纪六路鸿都大厦一楼", "class1": "生活服务", "class2": "银行", "longitude": "111.708816629485", "latitude": "40.7823842968987"}
{"province": "内蒙古", "city": "呼和浩特市", "county": "赛罕区", "name": "呼和浩特日信支行", "adress": "内蒙古呼和浩特市如意开发区四纬路日信大厦一楼", "class1": "生活服务", "class2": "银行", "longitude": "111.746698854769", "latitude": "40.8285945518979"}
{"province": "内蒙古", "city": "呼和浩特市", "county": "赛罕区", "name": "呼和浩特锡林南路电力支行", "adress": "内蒙古呼和浩特市锡林南路山丹大厦A座", "class1": "生活服务", "class2": "银行", "longitude": "111.679077000005", "latitude": "40.7999899999394"}
{"province": "内蒙古", "city": "呼和浩特市", "county": "赛罕区", "name": "呼和浩特机场路支行", "adress": "内蒙古呼和浩特市机场路飞机场入口处", "class1": "生活服务", "class2": "银行", "longitude": "111.823598442215", "latitude": "40.8611158123458"}
{"province": "内蒙古", "city": "呼和浩特市", "county": "赛罕区", "name": "呼和浩特新希望家园支行", "adress": "内蒙古呼和浩特市赛罕区新希望家园西A2区一栋10号", "class1": "生活服务", "class2": "银行", "longitude": "111.693968552708", "latitude": "40.7946470206444"}
{"province": "内蒙古", "city": "呼和浩特市", "county": "赛罕区", "name": "呼和浩特鄂尔多斯大街支行", "adress": "内蒙古呼和浩特市赛罕区鄂尔多斯大街电力家园G1底商一、二层", "class1": "生活服务", "class2": "银行", "longitude": "111.683665442707", "latitude": "40.7989519799508"}
{"province": "内蒙古", "city": "呼和浩特市", "county": "赛罕区", "name": "呼和浩特腾飞路支行", "adress": "内蒙古呼和浩特市如意开发区富恒花园一层商铺", "class1": "生活服务", "class2": "银行", "longitude": "111.761237050351", "latitude": "40.8184282926325"}
{"province": "内蒙古", "city": "呼和浩特市", "county": "赛罕区", "name": "呼和浩特兴安南路支行", "adress": "内蒙古呼和浩特市赛汉区新建东街215号", "class1": "生活服务", "class2": "银行", "longitude": "111.707857999848", "latitude": "40.8098779999706"}
{"province": "内蒙古", "city": "呼和浩特市", "county": "赛罕区", "name": "呼和浩特巨海城支行", "adress": "内蒙古呼和浩特市赛罕区丰州路巨海城九区东侧", "class1": "生活服务", "class2": "银行", "longitude": "111.734890804868", "latitude": "40.8153672863721"}
{"province": "内蒙古", "city": "呼和浩特市", "county": "赛罕区", "name": "呼和浩特新华东街支行", "adress": "内蒙古呼和浩特市新华东街26号", "class1": "生活服务", "class2": "银行", "longitude": "111.736466989061", "latitude": "40.8361318859787"}
{"province": "内蒙古", "city": "呼和浩特市", "county": "赛罕区", "name": "呼和浩特金隅时代支行", "adress": "内蒙古呼内蒙古呼和浩特市如意开发区腾飞路蓝色理想楼盘一层商铺", "class1": "生活服务", "class2": "银行", "longitude": "111.761119449604", "latitude": "40.8118650277497"}
{"province": "内蒙古", "city": "呼和浩特市", "county": "赛罕区", "name": "呼和浩特乌兰察布东街汇雅风尚支行", "adress": "呼和浩特赛罕区乌兰察布东街汇雅风尚一层", "class1": "生活服务", "class2": "银行", "longitude": "111.708124496849", "latitude": "40.8226535783009"}
{"province": "内蒙古", "city": "呼和浩特市", "county": "赛罕区", "name": "呼和浩特乌兰察布东街园艺御景支行", "adress": "内蒙古呼和浩特市赛罕区乌兰察布东街园艺御景一层", "class1": "生活服务", "class2": "银行", "longitude": "111.726698557493", "latitude": "40.8268004934489"}
{"province": "内蒙古", "city": "呼和浩特市", "county": "赛罕区", "name": "呼和浩特建银大厦支行", "adress": "内蒙古呼和浩特市大学东路6号", "class1": "生活服务", "class2": "银行", "longitude": "111.747858065598", "latitude": "40.8230168972129"}
{"province": "内蒙古", "city": "呼和浩特市", "county": "赛罕区", "name": "呼和浩特如意开发区四纬路西蒙奈伦支行", "adress": "内蒙古呼和浩特市如意开发区四纬路西蒙奈伦广场", "class1": "生活服务", "class2": "银行", "longitude": "111.777521187054", "latitude": "40.8346051501085"}
{"province": "广西省", "city": "防城港市", "county": "防城区", "name": "防城港防城支行", "adress": "广西防城港市防东路76号一楼", "class1": "生活服务", "class2": "银行", "longitude": "108.355047555002", "latitude": "21.7656443713915"}
{"province": "广西省", "city": "防城港市", "county": "防城区", "name": "防城港防港路支行", "adress": "广西防城港市防港路165号", "class1": "生活服务", "class2": "银行", "longitude": "108.363677459248", "latitude": "21.7596573102375"}
{"province": "内蒙古", "city": "包头市", "county": "东河区", "name": "包头太平洋支行", "adress": "包头市东河区太平洋商厦东400米", "class1": "生活服务", "class2": "银行", "longitude": "110.036534342687", "latitude": "40.5817226220023"}
{"province": "内蒙古", "city": "包头市", "county": "东河区", "name": "包头铁西支行", "adress": "包头市东河区铁西豪德贸易广场西北区20号底店", "class1": "生活服务", "class2": "银行", "longitude": "109.986271999754", "latitude": "40.5922759998384"}
{"province": "内蒙古", "city": "包头市", "county": "东河区", "name": "包头贵发支行", "adress": "包头市东河区西脑包前街贵发山庄小区门前", "class1": "生活服务", "class2": "银行", "longitude": "110.001894760636", "latitude": "40.5882035755355"}
{"province": "内蒙古", "city": "包头市", "county": "东河区", "name": "包头和平支行", "adress": "包头市东河区中山东路", "class1": "生活服务", "class2": "银行", "longitude": "110.030029558019", "latitude": "40.5863804303135"}
{"province": "内蒙古", "city": "包头市", "county": "东河区", "name": "包头和平支行", "adress": "包头市东河区中山东路", "class1": "生活服务", "class2": "银行", "longitude": "110.030029558019", "latitude": "40.5863804303135"}
{"province": "内蒙古", "city": "包头市", "county": "东河区", "name": "包头站北路支行", "adress": "包头市东河区公一街15-1-2", "class1": "生活服务", "class2": "银行", "longitude": "110.016160999432", "latitude": "40.5753060005724"}
{"province": "内蒙古", "city": "包头市", "county": "东河区", "name": "包头宏源支行", "adress": "包头市东河区巴彦塔拉西大街", "class1": "生活服务", "class2": "银行", "longitude": "110.007056576001", "latitude": "40.5837742076145"}
{"province": "内蒙古", "city": "包头市", "county": "东河区", "name": "包头东河支行", "adress": "包头东河区巴彦塔拉西大街144号", "class1": "生活服务", "class2": "银行", "longitude": "110.027603000079", "latitude": "40.5782420001691"}
{"province": "广西省", "city": "防城港市", "county": "东兴市", "name": "东兴北仑大道支行", "adress": "广西防城港东兴市北仑大道533号百业东兴1栋", "class1": "生活服务", "class2": "银行", "longitude": "107.992571840119", "latitude": "21.5569935825886"}
{"province": "广西省", "city": "防城港市", "county": "东兴市", "name": "东兴新华路支行", "adress": "广西防城港东兴北仑大道168号", "class1": "生活服务", "class2": "银行", "longitude": "107.969645854873", "latitude": "21.5429360008966"}
{"province": "广西省", "city": "防城港市", "county": "东兴市", "name": "东兴支行营业部", "adress": "广西东兴市新华大道262号", "class1": "生活服务", "class2": "银行", "longitude": "107.969318688708", "latitude": "21.5504616249049"}
{"province": "内蒙古", "city": "包头市", "county": "昆都仑区", "name": "包头市府东路支行", "adress": "包头市昆区香港花园12-14号底店", "class1": "生活服务", "class2": "银行", "longitude": "109.843665921046", "latitude": "40.6488694027017"}
{"province": "内蒙古", "city": "包头市", "county": "昆都仑区", "name": "包头友谊大街支行", "adress": "包头市昆区友谊大街21号街坊林荫路建材商城一层101-104号底店", "class1": "生活服务", "class2": "银行", "longitude": "109.820781890073", "latitude": "40.6500706145681"}
{"province": "内蒙古", "city": "包头市", "county": "昆都仑区", "name": "包头科大支行", "adress": "包头昆区阿尔丁大街内蒙古科技大学南墙底店", "class1": "生活服务", "class2": "银行", "longitude": "109.836616999776", "latitude": "40.6182460004534"}
{"province": "内蒙古", "city": "包头市", "county": "昆都仑区", "name": "包头白云路支行", "adress": "包头市昆区白云路昆仑商场南侧", "class1": "生活服务", "class2": "银行", "longitude": "109.812382723085", "latitude": "40.6629207826689"}
{"province": "内蒙古", "city": "包头市", "county": "昆都仑区", "name": "包头少先路支行", "adress": "包头市昆区钢23号街坊医学院31号底店", "class1": "生活服务", "class2": "银行", "longitude": "109.826895000205", "latitude": "40.6533420001341"}
{"province": "内蒙古", "city": "包头市", "county": "昆都仑区", "name": "包头鹿城支行", "adress": "包头市昆区市府东路南街神华公寓东门边", "class1": "生活服务", "class2": "银行", "longitude": "109.804359000568", "latitude": "40.6584750003219"}
{"province": "内蒙古", "city": "包头市", "county": "昆都仑区", "name": "包头昆都仑支行", "adress": "包头市昆区团结大街19#1号商店底店", "class1": "生活服务", "class2": "银行", "longitude": "109.8081552044", "latitude": "40.6712268329529"}
{"province": "内蒙古", "city": "包头市", "county": "昆都仑区", "name": "包头白云中路支行", "adress": "包头市昆区少先路27号", "class1": "生活服务", "class2": "银行", "longitude": "109.81172383299", "latitude": "40.6541553353014"}
{"province": "内蒙古", "city": "包头市", "county": "昆都仑区", "name": "包头民族东路支行", "adress": "包头市昆区钢铁大街12号街坊锡华世纪花园百合苑RS12-1", "class1": "生活服务", "class2": "银行", "longitude": "109.84864254352", "latitude": "40.6510762796475"}
{"province": "内蒙古", "city": "包头市", "county": "昆都仑区", "name": "包头白云南路支行", "adress": "包头市昆区白云南路友谊十九三区商业街", "class1": "生活服务", "class2": "银行", "longitude": "109.810482000545", "latitude": "40.6398050000017"}
{"province": "内蒙古", "city": "包头市", "county": "昆都仑区", "name": "包头乌兰道支行", "adress": "包头市昆区钢铁大街19号街坊中源大厦105号", "class1": "生活服务", "class2": "银行", "longitude": "109.831755999541", "latitude": "40.6597260004555"}
{"province": "内蒙古", "city": "包头市", "county": "昆都仑区", "name": "包头恩和小区支行", "adress": "包头市昆区恩和小区4栋1号", "class1": "生活服务", "class2": "银行", "longitude": "109.839988999694", "latitude": "40.6500909995009"}
{"province": "内蒙古", "city": "包头市", "county": "昆都仑区", "name": "包头包百大楼支行", "adress": "包头市昆区包百大楼东附楼1楼", "class1": "生活服务", "class2": "银行", "longitude": "109.81555129186", "latitude": "40.6585666448357"}
{"province": "内蒙古", "city": "包头市", "county": "昆都仑区", "name": "包头西友谊大街支行", "adress": "包头市昆区友谊大街广汇建材城底店正面11号", "class1": "生活服务", "class2": "银行", "longitude": "109.805317999827", "latitude": "40.6474140001569"}
{"province": "内蒙古", "city": "包头市", "county": "昆都仑区", "name": "包头市府西路支行", "adress": "包头市昆区市府西路1-2号", "class1": "生活服务", "class2": "银行", "longitude": "109.836392000192", "latitude": "40.6622600003996"}
{"province": "内蒙古", "city": "包头市", "county": "昆都仑区", "name": "包头乐园支行", "adress": "包头市昆区校园南路246号松石名第小区售楼部", "class1": "生活服务", "class2": "银行", "longitude": "109.830717724145", "latitude": "40.6181819687238"}
{"province": "内蒙古", "city": "包头市", "county": "昆都仑区", "name": "包头居然新城支行", "adress": "包头市昆都仑区阿尔丁北大街西侧莫尼路北侧居然新城19-112号", "class1": "生活服务", "class2": "银行", "longitude": "109.841959452967", "latitude": "40.6802946117079"}
{"province": "内蒙古", "city": "包头市", "county": "昆都仑区", "name": "包头团结支行", "adress": "包头市昆都仑区团结大街与阿尔丁北大街交叉口西北角", "class1": "生活服务", "class2": "银行", "longitude": "109.840911035017", "latitude": "40.6698475445294"}
{"province": "内蒙古", "city": "包头市", "county": "昆都仑区", "name": "包头包钢厂区支行", "adress": "包头市昆区包钢新办公大楼一楼", "class1": "生活服务", "class2": "银行", "longitude": "109.780816006654", "latitude": "40.6587863806878"}
{"province": "内蒙古", "city": "包头市", "county": "昆都仑区", "name": "包头包钢支行", "adress": "包头昆区钢铁大街49号", "class1": "生活服务", "class2": "银行", "longitude": "109.822179999508", "latitude": "40.6580969999775"}
{"province": "内蒙古", "city": "包头市", "county": "昆都仑区", "name": "包头建业支行", "adress": "包头市昆区民族西路188号", "class1": "生活服务", "class2": "银行", "longitude": "109.825928274871", "latitude": "40.6337593201374"}
{"province": "广西省", "city": "钦州市", "county": "钦南区", "name": "钦州金海湾西大街支行", "adress": "钦州市金海湾西大街丽景天下第3幢6、7号商铺", "class1": "生活服务", "class2": "银行", "longitude": "108.611388101381", "latitude": "21.9417219351201"}
{"province": "广西省", "city": "钦州市", "county": "钦南区", "name": "钦州新兴街支行", "adress": "钦州市新兴街锦锈家园铺面", "class1": "生活服务", "class2": "银行", "longitude": "108.62208599937", "latitude": "21.9601650005152"}
{"province": "广西省", "city": "钦州市", "county": "钦南区", "name": "钦州分行营业部", "adress": "钦州市南珠西大街118号", "class1": "生活服务", "class2": "银行", "longitude": "108.617418999988", "latitude": "21.9664580002374"}
{"province": "广西省", "city": "钦州市", "county": "钦南区", "name": "钦州钦州湾大道南支行", "adress": "钦州市钦州湾大道36号年年丰广场A区113-116号商铺", "class1": "生活服务", "class2": "银行", "longitude": "108.624794000144", "latitude": "21.9659740004006"}
{"province": "广西省", "city": "钦州市", "county": "钦南区", "name": "钦州新兴街西支行", "adress": "钦州市人民路翰林福第小区1号楼126、128、133、135号商铺", "class1": "生活服务", "class2": "银行", "longitude": "108.624886999936", "latitude": "21.9565580005521"}
{"province": "广西省", "city": "钦州市", "county": "钦南区", "name": "钦州港区支行", "adress": "钦州港逸仙路", "class1": "生活服务", "class2": "银行", "longitude": "108.756191418101", "latitude": "21.6244340989554"}
{"province": "广西省", "city": "钦州市", "county": "钦南区", "name": "钦州二马路支行", "adress": "钦州市二马路119号", "class1": "生活服务", "class2": "银行", "longitude": "108.618253999823", "latitude": "21.9513549998342"}
{"province": "广西省", "city": "钦州市", "county": "钦南区", "name": "钦州建设街支行", "adress": "钦州市建设街10-1号", "class1": "生活服务", "class2": "银行", "longitude": "108.633331999973", "latitude": "21.9575470002947"}
{"province": "广西省", "city": "钦州市", "county": "钦北区", "name": "钦州永福东大街支行", "adress": "钦州市永福东大街“中地滨江国际”临街商铺", "class1": "生活服务", "class2": "银行", "longitude": "108.649257922316", "latitude": "21.9752663929306"}
{"province": "广西省", "city": "钦州市", "county": "钦北区", "name": "钦州永福西大街支行", "adress": "钦州市永福西大街金色海岸铺面", "class1": "生活服务", "class2": "银行", "longitude": "108.628271999554", "latitude": "21.9765669996682"}
{"province": "广西省", "city": "钦州市", "county": "钦北区", "name": "钦州兴桂路支行", "adress": "钦州市兴桂路与鸿亭路交汇处皇庭御珑湾临街133、135号商铺", "class1": "生活服务", "class2": "银行", "longitude": "108.655284410648", "latitude": "21.9655408491317"}
{"province": "广西省", "city": "钦州市", "county": "钦北区", "name": "中国建设银行股份有限公司钦州子材东大街支行", "adress": "钦州市子材东大街盛天华府A区2号楼1至6号商铺", "class1": "生活服务", "class2": "银行", "longitude": "108.642146764363", "latitude": "21.9646407932389"}
{"province": "内蒙古", "city": "包头市", "county": "青山区", "name": "包头邻圃路支行", "adress": "包头市青山区邻圃路锦林花园底店", "class1": "生活服务", "class2": "银行", "longitude": "109.860946000259", "latitude": "40.6639079999551"}
{"province": "内蒙古", "city": "包头市", "county": "青山区", "name": "包头科学西路支行", "adress": "包头市青山区富强路8号街坊（九星电子大楼底店）", "class1": "生活服务", "class2": "银行", "longitude": "109.864949856652", "latitude": "40.6679349572334"}
{"province": "内蒙古", "city": "包头市", "county": "青山区", "name": "包头富强支行", "adress": "包头市青山区富强路9号街坊9-13号底店", "class1": "生活服务", "class2": "银行", "longitude": "109.816844999898", "latitude": "40.658770000436"}
{"province": "内蒙古", "city": "包头市", "county": "青山区", "name": "包头民主路支行", "adress": "包头市青山区民主路（2号街坊9栋底店）", "class1": "生活服务", "class2": "银行", "longitude": "109.903936000647", "latitude": "40.6596590000637"}
{"province": "内蒙古", "city": "包头市", "county": "青山区", "name": "包头开发区支行", "adress": "包头市稀土高新开发区青工南路7号", "class1": "生活服务", "class2": "银行", "longitude": "109.880876000228", "latitude": "40.6367609999211"}
{"province": "内蒙古", "city": "包头市", "county": "青山区", "name": "包头呼得木林大街支行", "adress": "包头市青山区劳动大街10号街坊8号底店", "class1": "生活服务", "class2": "银行", "longitude": "109.887049999859", "latitude": "40.663693999979"}
{"province": "内蒙古", "city": "包头市", "county": "青山区", "name": "包头欧鹿支行", "adress": "包头市青山区文化路东段市消防支队特勤大队底店", "class1": "生活服务", "class2": "银行", "longitude": "109.875611999395", "latitude": "40.6648530003666"}
{"province": "内蒙古", "city": "包头市", "county": "青山区", "name": "包头祥和苑小区分理处", "adress": "包头稀土高新区阿尔丁大街2号街坊祥和苑小区商店A段1、2号", "class1": "生活服务", "class2": "银行", "longitude": "109.84482474067", "latitude": "40.6365127564595"}
{"province": "内蒙古", "city": "包头市", "county": "青山区", "name": "包头分行营业室", "adress": "包头市钢铁大街46号金融大厦一楼", "class1": "生活服务", "class2": "银行", "longitude": "109.843185000488", "latitude": "40.656389000353"}
{"province": "内蒙古", "city": "包头市", "county": "青山区", "name": "包头青山支行", "adress": "包头市青山区文化路108号", "class1": "生活服务", "class2": "银行", "longitude": "109.872100999363", "latitude": "40.6724000003607"}
{"province": "广西省", "city": "钦州市", "county": "灵山县", "name": "灵山支行营业部", "adress": "灵城镇六峰路21号", "class1": "生活服务", "class2": "银行", "longitude": "109.290343049493", "latitude": "22.4172256426502"}
{"province": "广西省", "city": "钦州市", "county": "灵山县", "name": "灵山丰江路分理处", "adress": "灵城镇丰江路和燕山路交汇处", "class1": "生活服务", "class2": "银行", "longitude": "109.296677267843", "latitude": "22.4182676349442"}
{"province": "内蒙古", "city": "包头市", "county": "青山区", "name": "包头临园道支行", "adress": "包头市青山区文化路24号底店", "class1": "生活服务", "class2": "银行", "longitude": "109.897456000395", "latitude": "40.6648130003206"}
{"province": "内蒙古", "city": "包头市", "county": "青山区", "name": "包头文化路支行", "adress": "包头市青山区文化路中段与幸福路交叉口时代财富城一层底店", "class1": "生活服务", "class2": "银行", "longitude": "109.881733000179", "latitude": "40.667188000127"}
{"province": "内蒙古", "city": "包头市", "county": "青山区", "name": "包头上都支行", "adress": "包头市青山区友谊大街27号金地豪庭3-102", "class1": "生活服务", "class2": "银行", "longitude": "109.873134303306", "latitude": "40.6443014546493"}
{"province": "内蒙古", "city": "包头市", "county": "青山区", "name": "包头三江支行", "adress": "包头市高新区沼潭东路三江尊园凯旋苑S12-101-104", "class1": "生活服务", "class2": "银行", "longitude": "109.843829433083", "latitude": "40.6282646449983"}
{"province": "内蒙古", "city": "包头市", "county": "青山区", "name": "包头恒源支行", "adress": "包头市青山区民族东路29号", "class1": "生活服务", "class2": "银行", "longitude": "109.849903213164", "latitude": "40.6667037781577"}
{"province": "内蒙古", "city": "包头市", "county": "青山区", "name": "包头鹿港支行", "adress": "包头市高新区恒为路5号鹿港小镇花园一层2-5号底店", "class1": "生活服务", "class2": "银行", "longitude": "109.881144544986", "latitude": "40.6699056056601"}
{"province": "内蒙古", "city": "包头市", "county": "青山区", "name": "包头都市花园支行", "adress": "包头市青山区民主路6号街坊科学路5号宝林苑1-117", "class1": "生活服务", "class2": "银行", "longitude": "109.894637965771", "latitude": "40.6524425728674"}
{"province": "内蒙古", "city": "包头市", "county": "青山区", "name": "包头银河支行", "adress": "包头市青山区建设路193号包头市财政局东府楼一层", "class1": "生活服务", "class2": "银行", "longitude": "109.899262992894", "latitude": "40.6453537396843"}
{"province": "内蒙古", "city": "包头市", "county": "青山区", "name": "包头兴达支行", "adress": "包头市青山区新型居住区（翠溪园）-3-4-1", "class1": "生活服务", "class2": "银行", "longitude": "109.876482369567", "latitude": "40.6508649839328"}
{"province": "内蒙古", "city": "包头市", "county": "青山区", "name": "包头锦绣支行", "adress": "包头市高新区友谊大街56号信得惠商业广场B-105-106", "class1": "生活服务", "class2": "银行", "longitude": "109.862787906238", "latitude": "40.6431713467811"}
{"province": "广西省", "city": "钦州市", "county": "浦北县", "name": "浦北支行", "adress": "浦北县“泰禾财富广场”临街商铺第139、140、141、142号", "class1": "生活服务", "class2": "银行", "longitude": "109.555200650491", "latitude": "22.2640057111955"}
{"province": "广西省", "city": "钦州市", "county": "浦北县", "name": "浦北支行", "adress": "浦北县“泰禾财富广场”临街商铺第139、140、141、142号", "class1": "生活服务", "class2": "银行", "longitude": "109.555200650491", "latitude": "22.2640057111955"}
{"province": "广西省", "city": "贵港市", "county": "港北区", "name": "贵港分行", "adress": "解放路98号", "class1": "生活服务", "class2": "银行", "longitude": "109.608294999915", "latitude": "23.0911749993276"}
{"province": "广西省", "city": "贵港市", "county": "港北区", "name": "贵港石羊塘支行", "adress": "江北大道西段九龙新城第2栋1-2号临街商铺", "class1": "生活服务", "class2": "银行", "longitude": "109.594441447416", "latitude": "23.0949070392293"}
{"province": "广西省", "city": "贵港市", "county": "港北区", "name": "贵港城北支行", "adress": "贵港市中山北路与桂林路交叉路口东方巴黎小区5号楼一楼103商铺", "class1": "生活服务", "class2": "银行", "longitude": "109.595441253412", "latitude": "23.1205135050951"}
{"province": "广西省", "city": "贵港市", "county": "港北区", "name": "贵港荷城路支行", "adress": "荷城路897号龙凤嘉苑小区临街36号至39号一楼铺面", "class1": "生活服务", "class2": "银行", "longitude": "109.592300966517", "latitude": "23.1102951957675"}
{"province": "广西省", "city": "贵港市", "county": "港北区", "name": "贵港金港大道支行", "adress": "民主路69号宏桂城市广场电影院5-7号、11-13号一楼铺面", "class1": "生活服务", "class2": "银行", "longitude": "109.61416385328", "latitude": "23.1059435319693"}
{"province": "广西省", "city": "贵港市", "county": "港北区", "name": "贵港城中支行", "adress": "中山路23号", "class1": "生活服务", "class2": "银行", "longitude": "109.595840201665", "latitude": "23.11105680283"}
{"province": "广西省", "city": "贵港市", "county": "港北区", "name": "贵港新城支行", "adress": "贵港市仙衣路1398号阳光城楼盘一楼A16-A20号临街铺面", "class1": "生活服务", "class2": "银行", "longitude": "109.582959099584", "latitude": "23.112114846224"}
{"province": "广西省", "city": "贵港市", "county": "港北区", "name": "贵港港北支行", "adress": "广西贵港市港北区迎宾大道西面凯旋国际小区17幢17-13到17-17号铺面", "class1": "生活服务", "class2": "银行", "longitude": "109.567191223197", "latitude": "23.1004879179839"}
{"province": "内蒙古", "city": "包头市", "county": "九原区", "name": "包头沙河支行", "adress": "包头市九原金创总部经济园区（九原区金创物流大厦）附楼", "class1": "生活服务", "class2": "银行", "longitude": "109.967021645334", "latitude": "40.615647891438"}
{"province": "内蒙古", "city": "包头市", "county": "九原区", "name": "包头铝业园区支行", "adress": "包头市铝业生态园区商住B区公建楼5号底店", "class1": "生活服务", "class2": "银行", "longitude": "110.149429583709", "latitude": "40.5656692243561"}
{"province": "内蒙古", "city": "包头市", "county": "九原区", "name": "包头新都支行", "adress": "包头市九原区建华南路新都市区的政务区内中心大楼一层", "class1": "生活服务", "class2": "银行", "longitude": "110.031156380663", "latitude": "40.5766147605636"}
{"province": "内蒙古", "city": "包头市", "county": "九原区", "name": "包头九原支行", "adress": "包头市九原区沙河镇沙河街7号", "class1": "生活服务", "class2": "银行", "longitude": "109.96903399982", "latitude": "40.6033760000033"}
{"province": "广西省", "city": "贵港市", "county": "港南区", "name": "贵港江南支行", "adress": "江一路130号临街商铺（25-9、25-10、25-11号一、二层）", "class1": "生活服务", "class2": "银行", "longitude": "109.602523954118", "latitude": "23.0725438596123"}
{"province": "内蒙古", "city": "包头市", "county": "土默特右旗", "name": "土默特右旗中心岛支行", "adress": "土默特右旗萨拉旗镇大西街1号", "class1": "生活服务", "class2": "银行", "longitude": "110.552761241939", "latitude": "40.5834205294348"}
{"province": "内蒙古", "city": "包头市", "county": "土默特右旗", "name": "土默特右旗支行", "adress": "包头市土默特右旗萨拉旗镇振华大街南侧", "class1": "生活服务", "class2": "银行", "longitude": "110.550486993181", "latitude": "40.5824370713147"}
{"province": "广西省", "city": "贵港市", "county": "覃塘区", "name": "贵港覃塘支行", "adress": "贵港市覃塘区行政中心景观湖东南角", "class1": "生活服务", "class2": "银行", "longitude": "109.451677624923", "latitude": "23.1269361339963"}
{"province": "广西省", "city": "贵港市", "county": "覃塘区", "name": "贵港覃塘振兴支行", "adress": "贵港覃塘区覃塘镇南环路132号", "class1": "生活服务", "class2": "银行", "longitude": "109.419646178429", "latitude": "23.1327226148576"}
{"province": "广西省", "city": "贵港市", "county": "平南县", "name": "平南朝阳路支行", "adress": "平南镇朝阳北路杏花大夏一楼", "class1": "生活服务", "class2": "银行", "longitude": "110.392185956917", "latitude": "23.5473161988843"}
{"province": "广西省", "city": "贵港市", "county": "平南县", "name": "平南支行", "adress": "平南县平南镇朝阳街668号", "class1": "生活服务", "class2": "银行", "longitude": "110.399723039188", "latitude": "23.5389509759077"}
{"province": "内蒙古", "city": "乌海市", "county": "海勃湾区", "name": "乌斯太支行", "adress": "内蒙古阿拉善左旗经济开发区", "class1": "生活服务", "class2": "银行", "longitude": "106.72638258439", "latitude": "39.4880101182732"}
{"province": "内蒙古", "city": "乌海市", "county": "海勃湾区", "name": "乌海滨河区支行", "adress": "内蒙古乌海市海勃湾区滨河新区和谐路西 、神华西街北兴泰滨河领域19号楼1号商铺", "class1": "生活服务", "class2": "银行", "longitude": "106.790203680257", "latitude": "39.665238555216"}
{"province": "内蒙古", "city": "乌海市", "county": "海勃湾区", "name": "乌海建设北路支行", "adress": "内蒙古乌海市海勃湾区长青西街北二街坊卧龙酒店1、2号商铺", "class1": "生活服务", "class2": "银行", "longitude": "106.812396815162", "latitude": "39.6809949823335"}
{"province": "内蒙古", "city": "乌海市", "county": "海勃湾区", "name": "乌海千里山西街支行", "adress": "内蒙古乌海市海勃湾区千里山西街", "class1": "生活服务", "class2": "银行", "longitude": "106.814942758103", "latitude": "39.6727092459358"}
{"province": "内蒙古", "city": "乌海市", "county": "海勃湾区", "name": "乌海公园北路支行", "adress": "内蒙古乌海市海勃湾区和平东街万禾嘉园A区6号", "class1": "生活服务", "class2": "银行", "longitude": "106.824772936223", "latitude": "39.6719669131434"}
{"province": "内蒙古", "city": "乌海市", "county": "海勃湾区", "name": "乌海狮城东街支行", "adress": "内蒙古乌海市海勃湾区狮城东街7号", "class1": "生活服务", "class2": "银行", "longitude": "106.824422000076", "latitude": "39.6842110002383"}
{"province": "内蒙古", "city": "乌海市", "county": "海勃湾区", "name": "乌海海拉路支行", "adress": "内蒙古乌海市海勃湾区海拉北路", "class1": "生活服务", "class2": "银行", "longitude": "106.828760999621", "latitude": "39.675610999349"}
{"province": "内蒙古", "city": "乌海市", "county": "海勃湾区", "name": "乌海新华东街支行", "adress": "内蒙古乌海市海勃湾区新华东街45号", "class1": "生活服务", "class2": "银行", "longitude": "106.831018999428", "latitude": "39.6696970000174"}
{"province": "内蒙古", "city": "乌海市", "county": "海勃湾区", "name": "乌海人民路支行", "adress": "内蒙古乌海市海勃湾区人民路", "class1": "生活服务", "class2": "银行", "longitude": "106.819632000418", "latitude": "39.6672120005343"}
{"province": "内蒙古", "city": "乌海市", "county": "海勃湾区", "name": "乌海新华西街支行", "adress": "内蒙古乌海市海勃湾区新华西街", "class1": "生活服务", "class2": "银行", "longitude": "106.813907999955", "latitude": "39.6698219994866"}
{"province": "广西省", "city": "贵港市", "county": "桂平市", "name": "桂平郁江路支行", "adress": "广西壮族自治区桂平市郁江路锦兴大酒店底层3-4号商铺", "class1": "生活服务", "class2": "银行", "longitude": "110.076720682315", "latitude": "23.3694481200356"}
{"province": "广西省", "city": "贵港市", "county": "桂平市", "name": "桂平支行", "adress": "广西桂平市西山镇大成中路72号", "class1": "生活服务", "class2": "银行", "longitude": "110.07544453264", "latitude": "23.3815453199614"}
{"province": "广西省", "city": "贵港市", "county": "桂平市", "name": "桂平广场支行", "adress": "机关招待所一楼", "class1": "生活服务", "class2": "银行", "longitude": "110.079327771061", "latitude": "23.39378422876"}
{"province": "内蒙古", "city": "乌海市", "county": "海勃湾区", "name": "阿拉善支行", "adress": "内蒙古巴彦浩特镇土尔扈特南路", "class1": "生活服务", "class2": "银行", "longitude": "105.708915613666", "latitude": "38.8393878557658"}
{"province": "内蒙古", "city": "乌海市", "county": "海勃湾区", "name": "乌海东环路支行", "adress": "内蒙古乌海市海勃湾区双拥东街与青年路交汇处", "class1": "生活服务", "class2": "银行", "longitude": "106.851820392098", "latitude": "39.6918288191456"}
{"province": "内蒙古", "city": "乌海市", "county": "海南区", "name": "乌海巴彦乌素大街支行", "adress": "内蒙古乌海市海南区巴彦乌素大街", "class1": "生活服务", "class2": "银行", "longitude": "106.889338177916", "latitude": "39.441860332789"}
{"province": "广西省", "city": "玉林市", "county": "玉州区", "name": "玉林分行营业部", "adress": "玉林市人民东路267号", "class1": "生活服务", "class2": "银行", "longitude": "110.169200999927", "latitude": "22.6381530002616"}
{"province": "广西省", "city": "玉林市", "county": "玉州区", "name": "玉林教育东路支行", "adress": "玉林市教育东路358号", "class1": "生活服务", "class2": "银行", "longitude": "110.169933999556", "latitude": "22.6474310000415"}
{"province": "广西省", "city": "玉林市", "county": "玉州区", "name": "玉林民主中路支行", "adress": "玉林市民主中路96号", "class1": "生活服务", "class2": "银行", "longitude": "110.16381179368", "latitude": "22.6272094083884"}
{"province": "广西省", "city": "玉林市", "county": "玉州区", "name": "玉林玉州支行", "adress": "玉林市人民中路玉华阁106-1号", "class1": "生活服务", "class2": "银行", "longitude": "110.149584000003", "latitude": "22.626722000121"}
{"province": "广西省", "city": "玉林市", "county": "玉州区", "name": "玉林一环北路支行", "adress": "玉林市大北路562号", "class1": "生活服务", "class2": "银行", "longitude": "110.137169058806", "latitude": "22.6325311358041"}
{"province": "广西省", "city": "玉林市", "county": "玉州区", "name": "玉林工业品市场支行", "adress": "玉林市人民中路399号", "class1": "生活服务", "class2": "银行", "longitude": "110.14030316466", "latitude": "22.6193668965659"}
{"province": "广西省", "city": "玉林市", "county": "玉州区", "name": "玉林铁路支行", "adress": "玉林市苗园路393-6号", "class1": "生活服务", "class2": "银行", "longitude": "110.157668035552", "latitude": "22.6025978274287"}
{"province": "广西省", "city": "玉林市", "county": "玉州区", "name": "玉林玉柴路支行", "adress": "玉林市玉柴路6号", "class1": "生活服务", "class2": "银行", "longitude": "110.148514000122", "latitude": "22.5952239999885"}
{"province": "广西省", "city": "玉林市", "county": "玉州区", "name": "玉林教育中路支行", "adress": "玉林市教育中路299号", "class1": "生活服务", "class2": "银行", "longitude": "110.163314000042", "latitude": "22.6405180005062"}
{"province": "广西省", "city": "玉林市", "county": "玉州区", "name": "玉林大府园支行", "adress": "玉林市人民中路51号", "class1": "生活服务", "class2": "银行", "longitude": "110.152821000889", "latitude": "22.628706999929"}
{"province": "内蒙古", "city": "乌海市", "county": "乌达区", "name": "乌海温馨路支行", "adress": "内蒙古乌海市乌达区神华大街与温馨路口东北角", "class1": "生活服务", "class2": "银行", "longitude": "106.731298289485", "latitude": "39.5040760821464"}
{"province": "内蒙古", "city": "乌海市", "county": "乌达区", "name": "乌海解放路支行", "adress": "内蒙古乌海市乌达区巴音赛解放北路", "class1": "生活服务", "class2": "银行", "longitude": "106.717644730921", "latitude": "39.4981937065752"}
{"province": "内蒙古", "city": "乌海市", "county": "乌达区", "name": "乌海巴音赛大街支行", "adress": "内蒙古乌海市乌达区巴音赛东街22号", "class1": "生活服务", "class2": "银行", "longitude": "106.726317215368", "latitude": "39.5000193249328"}
{"province": "广西省", "city": "玉林市", "county": "玉州区", "name": "玉林江南路支行", "adress": "玉林市新民路39号华商国际·B区4幢商铺11-18号", "class1": "生活服务", "class2": "银行", "longitude": "110.166172989793", "latitude": "22.6145061886106"}
{"province": "广西省", "city": "玉林市", "county": "玉州区", "name": "玉林金都支行", "adress": "玉林市金玉路377号万昌•东方巴黎商住小区18栋-19栋07、08号商铺", "class1": "生活服务", "class2": "银行", "longitude": "110.178777231985", "latitude": "22.6343336919472"}
{"province": "广西省", "city": "玉林市", "county": "玉州区", "name": "中国建设银行股份有限公司玉林玉东支行", "adress": "玉林城区教育东路东南侧富林•金桂丽湾L-1#楼1039号房、1050号房", "class1": "生活服务", "class2": "银行", "longitude": "110.18732023744", "latitude": "22.6581761439148"}
{"province": "内蒙古", "city": "赤峰市", "county": "红山区", "name": "赤峰昭乌达南路支行", "adress": "内蒙古赤峰市红山区昭乌达路南段路东新泰和宾馆一楼", "class1": "生活服务", "class2": "银行", "longitude": "118.95802100007", "latitude": "42.2621260000158"}
{"province": "内蒙古", "city": "赤峰市", "county": "红山区", "name": "赤峰站前支行", "adress": "内蒙古赤峰市红山区园林路南段路西金百合小区东区2号楼一楼", "class1": "生活服务", "class2": "银行", "longitude": "118.953428791007", "latitude": "42.257084602973"}
{"province": "内蒙古", "city": "赤峰市", "county": "红山区", "name": "赤峰哈达街支行", "adress": "内蒙古赤峰市红山区哈达街办事处西城小区华越房产1号", "class1": "生活服务", "class2": "银行", "longitude": "118.942114968032", "latitude": "42.2677767587913"}
{"province": "内蒙古", "city": "赤峰市", "county": "红山区", "name": "赤峰红山支行", "adress": "内蒙古赤峰市红山区桥北镇北大桥路以东、清河路以西、昭苏河街以南金宇国际小区C区商业楼-2-2015", "class1": "生活服务", "class2": "银行", "longitude": "118.952295162293", "latitude": "42.2994745190347"}
{"province": "内蒙古", "city": "赤峰市", "county": "红山区", "name": "赤峰新华路支行", "adress": "内蒙古赤峰红山区新华小区（新华路中段）", "class1": "生活服务", "class2": "银行", "longitude": "118.960315801034", "latitude": "42.2692744006939"}
{"province": "内蒙古", "city": "赤峰市", "county": "红山区", "name": "赤峰三西街支行", "adress": "内蒙古赤峰市红山区西屯办事处民族小区建银小区", "class1": "生活服务", "class2": "银行", "longitude": "118.954742001743", "latitude": "42.2764620019208"}
{"province": "内蒙古", "city": "赤峰市", "county": "红山区", "name": "赤峰长青街支行", "adress": "内蒙古赤峰市红山区南新街办事处长青街大栅栏路口", "class1": "生活服务", "class2": "银行", "longitude": "118.964782799288", "latitude": "42.2710230011115"}
{"province": "内蒙古", "city": "赤峰市", "county": "红山区", "name": "赤峰步行街支行", "adress": "内蒙古赤峰市红山区西屯办事处购物城（步行街中段）", "class1": "生活服务", "class2": "银行", "longitude": "118.958651000345", "latitude": "42.2765619993377"}
{"province": "内蒙古", "city": "赤峰市", "county": "红山区", "name": "赤峰火花路支行", "adress": "内蒙古赤峰市红山区长青街办事处长青小区松海大厦", "class1": "生活服务", "class2": "银行", "longitude": "118.97002080162", "latitude": "42.272269594567"}
{"province": "内蒙古", "city": "赤峰市", "county": "红山区", "name": "赤峰宁澜路支行", "adress": "内蒙古赤峰市红山区钢铁西街", "class1": "生活服务", "class2": "银行", "longitude": "118.94231039431", "latitude": "42.2624928064988"}
{"province": "内蒙古", "city": "赤峰市", "county": "红山区", "name": "赤峰分行营业部", "adress": "内蒙古赤峰市红山区昭乌达路中段", "class1": "生活服务", "class2": "银行", "longitude": "118.953560203542", "latitude": "42.2730851987238"}
{"province": "内蒙古", "city": "赤峰市", "county": "红山区", "name": "赤峰园林路支行", "adress": "内蒙古赤峰市红山区园林路中段", "class1": "生活服务", "class2": "银行", "longitude": "118.949524193688", "latitude": "42.2661514050642"}
{"province": "广西省", "city": "玉林市", "county": "容县", "name": "容县新南街支行", "adress": "容县新南街89号", "class1": "生活服务", "class2": "银行", "longitude": "110.552455285384", "latitude": "22.8542643794984"}
{"province": "广西省", "city": "玉林市", "county": "容县", "name": "容县支行营业部", "adress": "容县容城镇新北街222号", "class1": "生活服务", "class2": "银行", "longitude": "110.55494099713", "latitude": "22.8578760982043"}
{"province": "内蒙古", "city": "赤峰市", "county": "元宝山区", "name": "赤峰元宝山支行", "adress": "内蒙古赤峰市元宝山区云杉路办事处白杨街南侧", "class1": "生活服务", "class2": "银行", "longitude": "118.986554528969", "latitude": "42.2535894759744"}
{"province": "内蒙古", "city": "赤峰市", "county": "元宝山区", "name": "平庄支行", "adress": "内蒙古赤峰市元宝山区平庄镇银河街中段元宝山区政府大楼对过", "class1": "生活服务", "class2": "银行", "longitude": "118.99065762555", "latitude": "42.2592971807212"}
{"province": "内蒙古", "city": "赤峰市", "county": "元宝山区", "name": "赤峰平庄黄河街支行", "adress": "内蒙古赤峰市元宝山区平庄镇宝山路中段东侧", "class1": "生活服务", "class2": "银行", "longitude": "118.990546134797", "latitude": "42.2571274898427"}
{"province": "内蒙古", "city": "赤峰市", "county": "元宝山区", "name": "平庄哈河街支行", "adress": "内蒙古赤峰市元宝山区平庄天山路中段东侧", "class1": "生活服务", "class2": "银行", "longitude": "118.990727571222", "latitude": "42.2589418558828"}
{"province": "广西省", "city": "玉林市", "county": "陆川县", "name": "陆川九洲市场支行", "adress": "陆川县陆城镇新洲中路223号", "class1": "生活服务", "class2": "银行", "longitude": "110.260731186496", "latitude": "22.3137335645532"}
{"province": "广西省", "city": "玉林市", "county": "陆川县", "name": "陆川支行营业部", "adress": "陆川县陆城镇新洲中路95号", "class1": "生活服务", "class2": "银行", "longitude": "110.263950064245", "latitude": "22.3190217211763"}
{"province": "内蒙古", "city": "赤峰市", "county": "松山区", "name": "赤峰永业广场支行", "adress": "赤峰市松山区永业广场1号楼一层", "class1": "生活服务", "class2": "银行", "longitude": "118.934877715235", "latitude": "42.2848643174352"}
{"province": "内蒙古", "city": "赤峰市", "county": "松山区", "name": "赤峰天义路支行", "adress": "内蒙古赤峰市八家组团玉龙广场南，天义路东金钰大都会二期上海城一楼", "class1": "生活服务", "class2": "银行", "longitude": "118.890392282579", "latitude": "42.2512758953672"}
{"province": "内蒙古", "city": "赤峰市", "county": "松山区", "name": "赤峰新惠路支行", "adress": "内蒙古赤峰市新城区新惠路与大明街交界东南角财富大厦一楼", "class1": "生活服务", "class2": "银行", "longitude": "118.881387138906", "latitude": "42.253525000879"}
{"province": "内蒙古", "city": "赤峰市", "county": "松山区", "name": "赤峰玉龙支行", "adress": "内蒙古赤峰市新城区大明街", "class1": "生活服务", "class2": "银行", "longitude": "118.892030000185", "latitude": "42.2597996013714"}
{"province": "内蒙古", "city": "赤峰市", "county": "松山区", "name": "赤峰桥西大街支行", "adress": "内蒙古赤峰市桥西大街南鹏飞房产水利商住楼1号1-01012-1", "class1": "生活服务", "class2": "银行", "longitude": "118.934038999401", "latitude": "42.2728149992137"}
{"province": "内蒙古", "city": "赤峰市", "county": "松山区", "name": "赤峰松山支行", "adress": "内蒙古赤峰市松山区木兰街东段南侧", "class1": "生活服务", "class2": "银行", "longitude": "118.933948999748", "latitude": "42.278699999906"}
{"province": "广西省", "city": "玉林市", "county": "博白县", "name": "博白南州路支行", "adress": "博白县博白镇南州北路51号荣华苑一层临街铺面", "class1": "生活服务", "class2": "银行", "longitude": "109.978672487446", "latitude": "22.2729511317902"}
{"province": "广西省", "city": "玉林市", "county": "博白县", "name": "博白支行营业部", "adress": "博白县锦绣西路001号", "class1": "生活服务", "class2": "银行", "longitude": "109.981197127247", "latitude": "22.2609923743995"}
{"province": "广西省", "city": "玉林市", "county": "兴业县", "name": "玉林兴业支行", "adress": "兴业县环南路1栋1-7号", "class1": "生活服务", "class2": "银行", "longitude": "109.883137619806", "latitude": "22.742818504771"}
{"province": "内蒙古", "city": "赤峰市", "county": "阿鲁科尔沁旗", "name": "阿鲁科尔沁旗支行", "adress": "内蒙古赤峰市阿鲁科尔沁旗天山镇和平路北红星街东", "class1": "生活服务", "class2": "银行", "longitude": "120.066107573107", "latitude": "43.8717882463314"}
{"province": "内蒙古", "city": "赤峰市", "county": "巴林右旗", "name": "巴林右旗支行", "adress": "内蒙古赤峰市巴林右旗大板镇四区巴林路东（珠峰商业广场）", "class1": "生活服务", "class2": "银行", "longitude": "118.664752808396", "latitude": "43.5334710897199"}
{"province": "内蒙古", "city": "赤峰市", "county": "巴林右旗", "name": "巴林右旗民族街支行", "adress": "内蒙古自治区巴林右旗大板镇查干沐伦街", "class1": "生活服务", "class2": "银行", "longitude": "118.664433719941", "latitude": "43.5336222369776"}
{"province": "广西省", "city": "玉林市", "county": "北流市", "name": "北流南园支行", "adress": "北流市北流镇南园一路南园新苑1幢6单元10至12号商铺", "class1": "生活服务", "class2": "银行", "longitude": "110.355376112918", "latitude": "22.6944471672039"}
{"province": "广西省", "city": "玉林市", "county": "北流市", "name": "北流支行营业部", "adress": "北流市新松路0017号", "class1": "生活服务", "class2": "银行", "longitude": "110.346735974387", "latitude": "22.7030331611523"}
{"province": "广西省", "city": "玉林市", "county": "北流市", "name": "北流一环西路支行", "adress": "北流市一环西路0201-1号", "class1": "生活服务", "class2": "银行", "longitude": "110.343600092371", "latitude": "22.6993630161911"}
{"province": "内蒙古", "city": "赤峰市", "county": "林西县", "name": "赤峰林西支行", "adress": "内蒙古赤峰市林西县林西镇北街", "class1": "生活服务", "class2": "银行", "longitude": "118.058486041299", "latitude": "43.6163734908449"}
{"province": "内蒙古", "city": "赤峰市", "county": "克什克腾旗", "name": "克什克腾旗支行", "adress": "内蒙古赤峰市克什克腾旗经棚镇经棚路", "class1": "生活服务", "class2": "银行", "longitude": "117.538597471397", "latitude": "43.2457609466113"}
{"province": "广西省", "city": "百色市", "county": "右江区", "name": "百色中山支行", "adress": "百色市右江区中山一路47号", "class1": "生活服务", "class2": "银行", "longitude": "106.622125999816", "latitude": "23.9005670000679"}
{"province": "广西省", "city": "百色市", "county": "右江区", "name": "百色向阳支行", "adress": "百色市右江区向阳路百色军分区出租房一层从北向南数第4、5间", "class1": "生活服务", "class2": "银行", "longitude": "106.619219999804", "latitude": "23.9009140007814"}
{"province": "广西省", "city": "百色市", "county": "右江区", "name": "百色城乡路支行", "adress": "百色市右江区城乡路100号百色市农业学校临街商铺", "class1": "生活服务", "class2": "银行", "longitude": "106.625667000333", "latitude": "23.9031609991816"}
{"province": "广西省", "city": "百色市", "county": "右江区", "name": "百色东风支行", "adress": "百色市右江区新兴路35号（川惠大酒店一层）", "class1": "生活服务", "class2": "银行", "longitude": "106.619937000493", "latitude": "23.8946450003673"}
{"province": "广西省", "city": "百色市", "county": "右江区", "name": "百色铁道支行", "adress": "百色市右江区城东路福源苑1栋3单元1号商铺", "class1": "生活服务", "class2": "银行", "longitude": "106.666135000431", "latitude": "23.88324699995"}
{"province": "广西省", "city": "百色市", "county": "右江区", "name": "百色分行营业部", "adress": "百色市右江区中山二路16号", "class1": "生活服务", "class2": "银行", "longitude": "106.61238200013", "latitude": "23.8942170004151"}
{"province": "内蒙古", "city": "赤峰市", "county": "宁城县", "name": "宁城支行", "adress": "内蒙古赤峰市宁城县天义镇大宁路B段", "class1": "生活服务", "class2": "银行", "longitude": "119.343371203219", "latitude": "41.594354201586"}
{"province": "内蒙古", "city": "赤峰市", "county": "敖汉旗", "name": "赤峰敖汉支行", "adress": "内蒙古赤峰市敖汉旗新惠镇新中街与新化路相交处西北角", "class1": "生活服务", "class2": "银行", "longitude": "119.905853243533", "latitude": "42.2823339165779"}
{"province": "广西省", "city": "百色市", "county": "田阳县", "name": "田阳支行营业部", "adress": "百色市田阳县田州镇隆平大道C1区烁城中央公园（临江棉路6单元一楼商铺））", "class1": "生活服务", "class2": "银行", "longitude": "106.615260999796", "latitude": "23.9008490004819"}
{"province": "广西省", "city": "百色市", "county": "田东县", "name": "田东支行营业部", "adress": "百色市田东县平马镇油城路207号", "class1": "生活服务", "class2": "银行", "longitude": "107.125579568144", "latitude": "23.6014411147165"}
{"province": "广西省", "city": "百色市", "county": "田东县", "name": "田东朝阳分理处", "adress": "百色市田东县平马镇朝阳路3号", "class1": "生活服务", "class2": "银行", "longitude": "107.130935541743", "latitude": "23.5978417625881"}
{"province": "内蒙古", "city": "通辽市", "county": "科尔沁区", "name": "通辽小清河大街支行", "adress": "内蒙通辽市新城区水域蓝湾南门", "class1": "生活服务", "class2": "银行", "longitude": "122.252907155142", "latitude": "43.6575654523846"}
{"province": "内蒙古", "city": "通辽市", "county": "科尔沁区", "name": "通辽河西支行", "adress": "内蒙古通辽市创业大道宇东商业街1#-111", "class1": "生活服务", "class2": "银行", "longitude": "122.210170490177", "latitude": "43.6248982805321"}
{"province": "内蒙古", "city": "通辽市", "county": "科尔沁区", "name": "通辽西城支行", "adress": "通辽市科尔沁区明仁办事处西苑二区A#楼一层1-1、1-4", "class1": "生活服务", "class2": "银行", "longitude": "122.252619000667", "latitude": "43.6136990006093"}
{"province": "内蒙古", "city": "通辽市", "county": "科尔沁区", "name": "通辽建国路支行", "adress": "内蒙古通辽市科尔沁区建国路472号", "class1": "生活服务", "class2": "银行", "longitude": "122.27258999983", "latitude": "43.6137800007473"}
{"province": "内蒙古", "city": "通辽市", "county": "科尔沁区", "name": "通辽铁路支行", "adress": "内蒙古通辽市科尔沁区昆都伦大街1169号", "class1": "生活服务", "class2": "银行", "longitude": "122.276535000091", "latitude": "43.6029169998206"}
{"province": "内蒙古", "city": "通辽市", "county": "科尔沁区", "name": "通辽电业支行", "adress": "内蒙古通辽市科尔沁区新建大街电业局西侧", "class1": "生活服务", "class2": "银行", "longitude": "122.266241000223", "latitude": "43.6068060001977"}
{"province": "内蒙古", "city": "通辽市", "county": "科尔沁区", "name": "通辽裕景小区支行", "adress": "内蒙古通辽市科尔沁区建国路裕景小区", "class1": "生活服务", "class2": "银行", "longitude": "122.270818990105", "latitude": "43.629624851007"}
{"province": "内蒙古", "city": "通辽市", "county": "科尔沁区", "name": "通辽民族大学支行", "adress": "内蒙古通辽市科尔沁区霍林河大街西371号", "class1": "生活服务", "class2": "银行", "longitude": "122.261958999709", "latitude": "43.6221969994928"}
{"province": "内蒙古", "city": "通辽市", "county": "科尔沁区", "name": "通辽和平路支行", "adress": "内蒙古通辽市科尔沁区和平路北210号", "class1": "生活服务", "class2": "银行", "longitude": "122.266915999875", "latitude": "43.6165090006907"}
{"province": "内蒙古", "city": "通辽市", "county": "科尔沁区", "name": "通辽科尔沁大街支行", "adress": "内蒙古通辽市科尔沁区科尔沁大街西376号", "class1": "生活服务", "class2": "银行", "longitude": "122.263022999313", "latitude": "43.6109840004122"}
{"province": "广西省", "city": "百色市", "county": "平果县", "name": "平果支行", "adress": "百色市平果县马头镇新兴街201号", "class1": "生活服务", "class2": "银行", "longitude": "107.585319493001", "latitude": "23.3181985921921"}
{"province": "广西省", "city": "百色市", "county": "平果县", "name": "平果铝分行营业部", "adress": "百色市平果县平果铝业公司含笑区文化宫旁", "class1": "生活服务", "class2": "银行", "longitude": "107.524382287314", "latitude": "23.3384751144358"}
{"province": "广西省", "city": "百色市", "county": "平果县", "name": "平果广场支行", "adress": "百色市平果县马头镇盘龙苑56-60号商铺", "class1": "生活服务", "class2": "银行", "longitude": "107.457933123316", "latitude": "23.3596567584535"}
{"province": "内蒙古", "city": "通辽市", "county": "科尔沁区", "name": "通辽华泰支行", "adress": "内蒙古通辽市科尔沁区平安路北段华泰小区16号楼", "class1": "生活服务", "class2": "银行", "longitude": "122.28017726517", "latitude": "43.6272312307376"}
{"province": "内蒙古", "city": "通辽市", "county": "科尔沁区", "name": "通辽分行营业室", "adress": "内蒙古通辽市科区明仁大街922号", "class1": "生活服务", "class2": "银行", "longitude": "122.278442262501", "latitude": "43.6154583812003"}
{"province": "内蒙古", "city": "通辽市", "county": "科尔沁区", "name": "通辽平安路支行", "adress": "内蒙古通辽市科尔沁区明仁大街东2578号", "class1": "生活服务", "class2": "银行", "longitude": "122.281193034132", "latitude": "43.6206274882689"}
{"province": "内蒙古", "city": "通辽市", "county": "科尔沁区", "name": "通辽霍林河大街支行", "adress": "内蒙古通辽市科尔沁区霍林河大街1464号", "class1": "生活服务", "class2": "银行", "longitude": "122.294211826016", "latitude": "43.6271696541571"}
{"province": "内蒙古", "city": "通辽市", "county": "科尔沁区", "name": "通辽胜利路支行", "adress": "内蒙古通辽市科尔沁区胜利北路与阿古拉大街交汇处", "class1": "生活服务", "class2": "银行", "longitude": "122.23630406668", "latitude": "43.6509881077159"}
{"province": "内蒙古", "city": "通辽市", "county": "科尔沁区", "name": "通辽万达支行", "adress": "内蒙古通辽市科尔沁区东顺路北段", "class1": "生活服务", "class2": "银行", "longitude": "122.284640509653", "latitude": "43.6330160883227"}
{"province": "内蒙古", "city": "通辽市", "county": "科尔沁区", "name": "通辽瀚博支行", "adress": "内蒙古通辽市和平路中段", "class1": "生活服务", "class2": "银行", "longitude": "122.267035312031", "latitude": "43.625313827572"}
{"province": "内蒙古", "city": "通辽市", "county": "科尔沁区", "name": "通辽新兴支行", "adress": "内蒙古通辽市新兴大街中段", "class1": "生活服务", "class2": "银行", "longitude": "122.257621618944", "latitude": "43.6197977737492"}
{"province": "广西省", "city": "百色市", "county": "德保县", "name": "德保桂西华银铝支行营业部", "adress": "百色市德保县城关镇南隆清水街114号", "class1": "生活服务", "class2": "银行", "longitude": "106.615953770951", "latitude": "23.322763316175"}
{"province": "广西省", "city": "百色市", "county": "靖西县", "name": "靖西支行营业部", "adress": "百色市靖西县新靖镇城东路971号", "class1": "生活服务", "class2": "银行", "longitude": "106.608404444411", "latitude": "23.8952201617819"}
{"province": "内蒙古", "city": "通辽市", "county": "霍林郭勒市", "name": "霍林郭勒创业路支行", "adress": "内蒙古霍林郭勒市珠斯花区中心街", "class1": "生活服务", "class2": "银行", "longitude": "119.656242992221", "latitude": "45.5259440533763"}
{"province": "内蒙古", "city": "通辽市", "county": "霍林郭勒市", "name": "霍林郭勒支行", "adress": "内蒙古霍林郭勒市珠斯花区中心街", "class1": "生活服务", "class2": "银行", "longitude": "119.659659714525", "latitude": "45.5318882420497"}
{"province": "广西省", "city": "贺州市", "county": "八步区", "name": "贺州临江支行", "adress": "贺州市八步区灵峰南路8号江滨华府一楼商铺", "class1": "生活服务", "class2": "银行", "longitude": "111.553900725039", "latitude": "24.408230269712"}
{"province": "广西省", "city": "贺州市", "county": "八步区", "name": "贺州城东支行", "adress": "贺州市八步区平安西路266号贺州广场购物中心1#楼一层东面临街商铺", "class1": "生活服务", "class2": "银行", "longitude": "111.565545639721", "latitude": "24.4020016056904"}
{"province": "广西省", "city": "贺州市", "county": "八步区", "name": "贺州分行", "adress": "贺州市八步区建设中路1号", "class1": "生活服务", "class2": "银行", "longitude": "111.559080999889", "latitude": "24.413370000426"}
{"province": "广西省", "city": "贺州市", "county": "八步区", "name": "贺州城西支行", "adress": "贺州市八步区八达西路1号八达西路日月恒八达广场一楼商铺", "class1": "生活服务", "class2": "银行", "longitude": "111.525280858526", "latitude": "24.4171186777856"}
{"province": "内蒙古", "city": "鄂尔多斯市", "county": "东胜区", "name": "鄂尔多斯鄂托克西街支行", "adress": "内蒙古鄂尔多斯市东胜区鄂托克西街", "class1": "生活服务", "class2": "银行", "longitude": "109.993030000235", "latitude": "39.822414000007"}
{"province": "内蒙古", "city": "鄂尔多斯市", "county": "东胜区", "name": "鄂尔多斯鄂尔多斯东街支行", "adress": "内蒙古鄂尔多斯市东胜区鄂东街北5号", "class1": "生活服务", "class2": "银行", "longitude": "110.015122000081", "latitude": "39.8124689991459"}
{"province": "内蒙古", "city": "鄂尔多斯市", "county": "东胜区", "name": "鄂尔多斯达拉特南路支行", "adress": "内蒙古鄂尔多斯市达拉特南路34号", "class1": "生活服务", "class2": "银行", "longitude": "110.003587322498", "latitude": "39.8095413731368"}
{"province": "内蒙古", "city": "鄂尔多斯市", "county": "东胜区", "name": "鄂尔多斯杭锦北路支行", "adress": "内蒙古鄂尔多斯市东胜区杭锦北路1号", "class1": "生活服务", "class2": "银行", "longitude": "110.00034300023", "latitude": "39.817097999474"}
{"province": "内蒙古", "city": "鄂尔多斯市", "county": "东胜区", "name": "鄂尔多斯伊金霍洛西街第二支行", "adress": "内蒙古鄂尔多斯市东胜区伊金霍洛西街17号", "class1": "生活服务", "class2": "银行", "longitude": "109.986800999867", "latitude": "39.8165119994301"}
{"province": "内蒙古", "city": "鄂尔多斯市", "county": "东胜区", "name": "鄂尔多斯那日松路支行", "adress": "内蒙古鄂尔多斯市东胜区那日松路", "class1": "生活服务", "class2": "银行", "longitude": "110.011349999704", "latitude": "39.8171009996124"}
{"province": "内蒙古", "city": "鄂尔多斯市", "county": "东胜区", "name": "鄂尔多斯团结路支行", "adress": "内蒙古鄂尔多斯市东胜区鄂尔多斯西街", "class1": "生活服务", "class2": "银行", "longitude": "109.965632769238", "latitude": "39.8101373223804"}
{"province": "内蒙古", "city": "鄂尔多斯市", "county": "东胜区", "name": "鄂尔多斯乌审西街支行", "adress": "内蒙古鄂尔多斯市东胜区乌审西街", "class1": "生活服务", "class2": "银行", "longitude": "110.000444000391", "latitude": "39.8067780002054"}
{"province": "内蒙古", "city": "鄂尔多斯市", "county": "东胜区", "name": "鄂尔多斯鄂尔多斯西街支行", "adress": "内蒙古鄂尔多斯市东胜区鄂尔多斯西街", "class1": "生活服务", "class2": "银行", "longitude": "109.986950000443", "latitude": "39.8109260008352"}
{"province": "内蒙古", "city": "鄂尔多斯市", "county": "东胜区", "name": "鄂尔多斯分行营业部", "adress": "内蒙古鄂尔多斯市鄂尔多斯东街3号", "class1": "生活服务", "class2": "银行", "longitude": "110.008354920045", "latitude": "39.8121858988611"}
{"province": "内蒙古", "city": "鄂尔多斯市", "county": "东胜区", "name": "鄂尔多斯康巴什乌兰木伦街支行", "adress": "内蒙古鄂尔多斯市康巴什新区乌兰木伦街与呼和塔拉路交汇处鄂尔多斯市泰华房地产开发有限公司办公楼一楼", "class1": "生活服务", "class2": "银行", "longitude": "109.809439089144", "latitude": "39.5982179871713"}
{"province": "内蒙古", "city": "鄂尔多斯市", "county": "东胜区", "name": "鄂尔多斯伊金霍洛西街支行", "adress": "内蒙古鄂尔多斯市东胜区伊金霍洛西街17号", "class1": "生活服务", "class2": "银行", "longitude": "109.991067000543", "latitude": "39.816144999593"}
{"province": "内蒙古", "city": "鄂尔多斯市", "county": "东胜区", "name": "鄂尔多斯天骄路支行", "adress": "内蒙古鄂尔多斯市东胜区天骄路创业大厦一楼", "class1": "生活服务", "class2": "银行", "longitude": "109.978656000175", "latitude": "39.8270149999432"}
{"province": "内蒙古", "city": "鄂尔多斯市", "county": "东胜区", "name": "鄂尔多斯纺织西街支行", "adress": "内蒙古鄂尔多斯市东胜区纺织西街", "class1": "生活服务", "class2": "银行", "longitude": "109.985893376179", "latitude": "39.7996358552115"}
{"province": "内蒙古", "city": "鄂尔多斯市", "county": "东胜区", "name": "鄂尔多斯分文明路支行", "adress": "内蒙古鄂尔多斯市东胜区体育街8号楼煤炭信息大厦2号楼1层1011", "class1": "生活服务", "class2": "银行", "longitude": "109.948696375838", "latitude": "39.824220571623"}
{"province": "内蒙古", "city": "鄂尔多斯市", "county": "东胜区", "name": "鄂尔多斯东环路支行", "adress": "内蒙古鄂尔多斯市东胜区东环路汇能煤电集团办公商务中心一楼", "class1": "生活服务", "class2": "银行", "longitude": "109.970636721209", "latitude": "39.8109988423236"}
{"province": "广西省", "city": "贺州市", "county": "昭平县", "name": "中国建设银行股份有限公司昭平支行", "adress": "昭平县昭平镇东宁中路19号盛世地王大厦临街商铺", "class1": "生活服务", "class2": "银行", "longitude": "110.812158292572", "latitude": "24.1743368627569"}
{"province": "内蒙古", "city": "鄂尔多斯市", "county": "达拉特旗", "name": "达拉特旗教育路支行", "adress": "内蒙古达拉特旗树林召镇", "class1": "生活服务", "class2": "银行", "longitude": "110.016827825145", "latitude": "40.3952122444504"}
{"province": "内蒙古", "city": "鄂尔多斯市", "county": "达拉特旗", "name": "达拉特旗锡尼路支行", "adress": "内蒙古达拉特旗锡尼街64号", "class1": "生活服务", "class2": "银行", "longitude": "110.057940346871", "latitude": "40.4018981076125"}
{"province": "内蒙古", "city": "鄂尔多斯市", "county": "达拉特旗", "name": "达拉特旗德胜街支行", "adress": "内蒙古树林召镇德胜大街万通家和综合写字楼", "class1": "生活服务", "class2": "银行", "longitude": "110.022553288804", "latitude": "40.3964681521844"}
{"province": "内蒙古", "city": "鄂尔多斯市", "county": "达拉特旗", "name": "达拉特旗支行", "adress": "内蒙古鄂尔多斯市达拉特旗树林召镇树林召大街黄河大酒店旁", "class1": "生活服务", "class2": "银行", "longitude": "110.046674113321", "latitude": "40.4034310551"}
{"province": "广西省", "city": "贺州市", "county": "钟山县", "name": "钟山支行营业部", "adress": "贺州市钟山县城书香西路南侧", "class1": "生活服务", "class2": "银行", "longitude": "111.30159986854", "latitude": "24.5299064777026"}
{"province": "广西省", "city": "贺州市", "county": "富川瑶族自治县", "name": "富川支行", "adress": "贺州市富川县富阳镇凤凰路汇龙华府第13号楼", "class1": "生活服务", "class2": "银行", "longitude": "111.289417337341", "latitude": "24.8128247091938"}
{"province": "内蒙古", "city": "鄂尔多斯市", "county": "准格尔旗", "name": "准格尔大路支行", "adress": "内蒙古鄂尔多斯市准格尔旗大路新区管委会建业大厦7号楼", "class1": "生活服务", "class2": "银行", "longitude": "111.276097961453", "latitude": "39.8736098913843"}
{"province": "内蒙古", "city": "鄂尔多斯市", "county": "准格尔旗", "name": "准格尔银泽支行", "adress": "内蒙古鄂尔多斯市准格尔旗薛家湾镇银泽街", "class1": "生活服务", "class2": "银行", "longitude": "111.251592206416", "latitude": "39.8620839848889"}
{"province": "内蒙古", "city": "鄂尔多斯市", "county": "准格尔旗", "name": "准格尔乌兰支行", "adress": "内蒙古鄂尔多斯市薛家湾镇乌兰小区正华商贸公司一楼营业大厅", "class1": "生活服务", "class2": "银行", "longitude": "111.22617752997", "latitude": "39.866045808768"}
{"province": "内蒙古", "city": "鄂尔多斯市", "county": "准格尔旗", "name": "准格尔白云支行", "adress": "内蒙古鄂尔多斯市准格尔旗薛家湾镇蓝天路北", "class1": "生活服务", "class2": "银行", "longitude": "111.232035970984", "latitude": "39.8677738380931"}
{"province": "内蒙古", "city": "鄂尔多斯市", "county": "准格尔旗", "name": "准格尔分行", "adress": "内蒙古鄂尔多斯市准格尔旗薛家湾镇水晶路北", "class1": "生活服务", "class2": "银行", "longitude": "111.236503559193", "latitude": "39.8657507789762"}
{"province": "内蒙古", "city": "鄂尔多斯市", "county": "准格尔旗", "name": "准格尔电厂支行", "adress": "内蒙古鄂尔多斯市准格尔旗薛家湾镇国华电厂南侧", "class1": "生活服务", "class2": "银行", "longitude": "111.228959235581", "latitude": "39.8688696620062"}
{"province": "内蒙古", "city": "鄂尔多斯市", "county": "准格尔旗", "name": "准格尔兴隆东街支行", "adress": "内蒙古鄂尔多斯市准格尔旗薛家湾镇准格尔大街北水晶路东兴源步行街", "class1": "生活服务", "class2": "银行", "longitude": "111.240423235445", "latitude": "39.8642334850882"}
{"province": "内蒙古", "city": "鄂尔多斯市", "county": "准格尔旗", "name": "准格尔经济开发区支行", "adress": "内蒙古鄂尔多斯市准格尔旗沙圪堵镇公园街", "class1": "生活服务", "class2": "银行", "longitude": "111.234107615975", "latitude": "39.8712321072769"}
{"province": "内蒙古", "city": "鄂尔多斯市", "county": "准格尔旗", "name": "准格尔南苑支行", "adress": "内蒙古自治区鄂尔多斯市准格尔旗薛家湾镇南外环路万通综合楼1号楼104-109号", "class1": "生活服务", "class2": "银行", "longitude": "111.222189456679", "latitude": "39.8608454520569"}
{"province": "广西省", "city": "河池市", "county": "金城江区", "name": "河池惠文支行", "adress": "河池市新建西路25号", "class1": "生活服务", "class2": "银行", "longitude": "108.036643999222", "latitude": "24.6895379997798"}
{"province": "广西省", "city": "河池市", "county": "金城江区", "name": "河池江北支行", "adress": "河池市民族路７２号", "class1": "生活服务", "class2": "银行", "longitude": "108.067097000627", "latitude": "24.6973900003491"}
{"province": "广西省", "city": "河池市", "county": "金城江区", "name": "河池名都支行", "adress": "河池市新建路鑫亮.名都广场一楼", "class1": "生活服务", "class2": "银行", "longitude": "108.049968999471", "latitude": "24.6962999995462"}
{"province": "广西省", "city": "河池市", "county": "金城江区", "name": "河池金城江支行", "adress": "河池市新建路41号", "class1": "生活服务", "class2": "银行", "longitude": "108.059925999986", "latitude": "24.6955809996643"}
{"province": "广西省", "city": "河池市", "county": "金城江区", "name": "河池分行营业部", "adress": "河池市西环路３９７号", "class1": "生活服务", "class2": "银行", "longitude": "108.042914610322", "latitude": "24.6957099507545"}
{"province": "内蒙古", "city": "鄂尔多斯市", "county": "鄂托克旗", "name": "鄂托克旗棋盘井工业园区支行", "adress": "内蒙古鄂尔多斯市鄂托克旗棋盘井工业园区", "class1": "生活服务", "class2": "银行", "longitude": "107.891897931545", "latitude": "39.2512442865955"}
{"province": "内蒙古", "city": "鄂尔多斯市", "county": "鄂托克旗", "name": "鄂托克旗棋盘井支行", "adress": "内蒙古鄂尔多斯市鄂托克旗棋盘井镇", "class1": "生活服务", "class2": "银行", "longitude": "107.887144506415", "latitude": "39.250757715597"}
{"province": "内蒙古", "city": "鄂尔多斯市", "county": "鄂托克旗", "name": "鄂托克旗支行", "adress": "内蒙古鄂尔多斯市鄂托克旗乌兰镇", "class1": "生活服务", "class2": "银行", "longitude": "107.977347825143", "latitude": "39.0935421925191"}
{"province": "广西省", "city": "河池市", "county": "南丹县", "name": "南丹大厂支行营业部", "adress": "大厂镇巴里下区", "class1": "生活服务", "class2": "银行", "longitude": "107.576006641794", "latitude": "25.0442237493274"}
{"province": "广西省", "city": "河池市", "county": "南丹县", "name": "南丹支行营业部", "adress": "城关镇民行大道中路建行大厦", "class1": "生活服务", "class2": "银行", "longitude": "107.551034084656", "latitude": "24.989930842835"}
{"province": "广西省", "city": "河池市", "county": "南丹县", "name": "南丹广场支行", "adress": "城关镇民治街35号", "class1": "生活服务", "class2": "银行", "longitude": "107.542698265913", "latitude": "24.9770593563051"}
{"province": "广西省", "city": "河池市", "county": "南丹县", "name": "南丹河西路支行", "adress": "城关镇河西路49号", "class1": "生活服务", "class2": "银行", "longitude": "107.547662982262", "latitude": "24.989164682505"}
{"province": "内蒙古", "city": "鄂尔多斯市", "county": "杭锦旗", "name": "杭锦旗支行", "adress": "内蒙古鄂尔多斯市杭锦旗锡尼镇锡尼北路与光明路交汇处东100米海昌名仕华庭B座", "class1": "生活服务", "class2": "银行", "longitude": "108.739361205856", "latitude": "39.8344725884401"}
{"province": "内蒙古", "city": "鄂尔多斯市", "county": "乌审旗", "name": "乌审旗支行", "adress": "内蒙古鄂尔多斯市乌审旗嘎鲁图镇人民路", "class1": "生活服务", "class2": "银行", "longitude": "109.030363015142", "latitude": "38.8952091510824"}
{"province": "内蒙古", "city": "鄂尔多斯市", "county": "伊金霍洛旗", "name": "伊金霍洛旗可汗街支行", "adress": "内蒙古鄂尔多斯市伊金霍洛旗可汗街", "class1": "生活服务", "class2": "银行", "longitude": "109.753410657477", "latitude": "39.5627635815749"}
{"province": "内蒙古", "city": "鄂尔多斯市", "county": "伊金霍洛旗", "name": "伊金霍洛旗阿勒腾席热路支行", "adress": "内蒙古鄂尔多斯市伊金霍洛旗阿镇阿勒腾席热路盛邦大厦一楼", "class1": "生活服务", "class2": "银行", "longitude": "109.746377000399", "latitude": "39.5758999993864"}
{"province": "内蒙古", "city": "鄂尔多斯市", "county": "伊金霍洛旗", "name": "伊金霍洛旗支行", "adress": "内蒙古鄂尔多斯市伊旗阿镇扎萨克路", "class1": "生活服务", "class2": "银行", "longitude": "109.741759999725", "latitude": "39.5792339993505"}
{"province": "内蒙古", "city": "鄂尔多斯市", "county": "伊金霍洛旗", "name": "东胜煤田补连塔支行", "adress": "内蒙古伊旗乌兰木伦镇补连塔小区", "class1": "生活服务", "class2": "银行", "longitude": "109.870775891495", "latitude": "39.253577842944"}
{"province": "内蒙古", "city": "鄂尔多斯市", "county": "伊金霍洛旗", "name": "东胜煤田支行", "adress": "内蒙古鄂尔多斯市伊旗乌兰木伦镇", "class1": "生活服务", "class2": "银行", "longitude": "109.877539375143", "latitude": "39.251932670857"}
{"province": "内蒙古", "city": "鄂尔多斯市", "county": "伊金霍洛旗", "name": "东胜煤田札萨克支行", "adress": "内蒙古鄂尔多斯伊旗札萨克镇神华新街能源股份公司办公楼1楼", "class1": "生活服务", "class2": "银行", "longitude": "109.65703159893", "latitude": "39.224985205204"}
{"province": "广西省", "city": "河池市", "county": "天峨县", "name": "龙滩支行营业部", "adress": "县城东路132号", "class1": "生活服务", "class2": "银行", "longitude": "107.175545577268", "latitude": "24.995144352131"}
{"province": "广西省", "city": "河池市", "county": "罗城仫佬族自治县", "name": "罗城支行", "adress": "罗城县一平路58号", "class1": "生活服务", "class2": "银行", "longitude": "108.902636579416", "latitude": "24.7771221968328"}
{"province": "内蒙古", "city": "呼伦贝尔市", "county": "海拉尔区", "name": "呼伦贝尔分行营业部", "adress": "内蒙古呼伦贝尔市海拉尔区阿里河路18号", "class1": "生活服务", "class2": "银行", "longitude": "119.767585598697", "latitude": "49.2154639988654"}
{"province": "内蒙古", "city": "呼伦贝尔市", "county": "海拉尔区", "name": "呼伦贝尔海拉尔千百合支行", "adress": "内蒙古呼伦贝尔市海拉尔区东四道街邮政综合楼5-6号", "class1": "生活服务", "class2": "银行", "longitude": "119.749725057467", "latitude": "49.2213228670576"}
{"province": "内蒙古", "city": "呼伦贝尔市", "county": "海拉尔区", "name": "呼伦贝尔海拉尔学府支行", "adress": "内蒙古呼伦贝尔市海拉尔区学府路呼大科技楼一楼", "class1": "生活服务", "class2": "银行", "longitude": "119.776863071475", "latitude": "49.2027662469657"}
{"province": "内蒙古", "city": "呼伦贝尔市", "county": "海拉尔区", "name": "呼伦贝尔中学街支行", "adress": "内蒙古呼伦贝尔市海拉尔区阿荣路富华楼", "class1": "生活服务", "class2": "银行", "longitude": "119.762252000231", "latitude": "49.2178769995248"}
{"province": "内蒙古", "city": "呼伦贝尔市", "county": "海拉尔区", "name": "呼伦贝尔海拉尔河西支行", "adress": "内蒙古海拉尔区兴安西路3-16号", "class1": "生活服务", "class2": "银行", "longitude": "119.742067000193", "latitude": "49.2158269994174"}
{"province": "内蒙古", "city": "呼伦贝尔市", "county": "海拉尔区", "name": "呼伦贝尔海拉尔华联支行", "adress": "内蒙古呼伦贝尔市海拉尔区诺敏路华联商厦一楼", "class1": "生活服务", "class2": "银行", "longitude": "119.767813224302", "latitude": "49.2104790028047"}
{"province": "内蒙古", "city": "呼伦贝尔市", "county": "海拉尔区", "name": "呼伦贝尔满洲里路支行", "adress": "内蒙古呼伦贝尔市海拉尔区满洲里路统建小区3号楼", "class1": "生活服务", "class2": "银行", "longitude": "119.764088999509", "latitude": "49.2067530000518"}
{"province": "内蒙古", "city": "呼伦贝尔市", "county": "海拉尔区", "name": "呼伦贝尔加格达奇路支行", "adress": "内蒙古呼伦贝尔市海拉尔区加格达奇路电器设备公司综合楼", "class1": "生活服务", "class2": "银行", "longitude": "119.777869197007", "latitude": "49.2167511706309"}
{"province": "内蒙古", "city": "呼伦贝尔市", "county": "海拉尔区", "name": "呼伦贝尔海拉尔呼伦支行", "adress": "内蒙古呼伦贝尔市海拉尔区中央街12号", "class1": "生活服务", "class2": "银行", "longitude": "119.741249000242", "latitude": "49.2186119992453"}
{"province": "内蒙古", "city": "呼伦贝尔市", "county": "海拉尔区", "name": "呼伦贝尔海拉尔河东支行", "adress": "内蒙古呼伦贝尔市海拉尔区伊敏大街44号", "class1": "生活服务", "class2": "银行", "longitude": "119.765804781866", "latitude": "49.2235616789293"}
{"province": "内蒙古", "city": "呼伦贝尔市", "county": "海拉尔区", "name": "呼伦贝尔龙运支行", "adress": "内蒙古呼伦贝尔市海拉尔区正阳办龙运盛都2号楼108室", "class1": "生活服务", "class2": "银行", "longitude": "119.741551544769", "latitude": "49.2121222008798"}
{"province": "内蒙古", "city": "呼伦贝尔市", "county": "海拉尔区", "name": "呼伦贝尔海晨嘉园支行", "adress": "内蒙古呼伦贝尔市海拉尔区健康办海晨嘉园20号楼4、5、6号", "class1": "生活服务", "class2": "银行", "longitude": "119.744420792187", "latitude": "49.2048071953967"}
{"province": "内蒙古", "city": "呼伦贝尔市", "county": "海拉尔区", "name": "呼伦贝尔海拉尔甘珠尔支行", "adress": "内蒙古呼伦贝尔市海拉尔区海拉尔大街万豪大酒店A座", "class1": "生活服务", "class2": "银行", "longitude": "119.740696368644", "latitude": "49.2008294094506"}
{"province": "内蒙古", "city": "呼伦贝尔市", "county": "海拉尔区", "name": "呼伦贝尔海拉尔贝尔支行", "adress": "内蒙古呼伦贝尔市海拉尔区桥头街贝尔综合楼", "class1": "生活服务", "class2": "银行", "longitude": "119.748233999501", "latitude": "49.2141619999773"}
{"province": "内蒙古", "city": "呼伦贝尔市", "county": "海拉尔区", "name": "呼伦贝尔海拉尔铁路支行", "adress": "内蒙古呼伦贝尔市海拉尔区靠山街4付1号", "class1": "生活服务", "class2": "银行", "longitude": "119.739271999904", "latitude": "49.2317639996098"}
{"province": "内蒙古", "city": "呼伦贝尔市", "county": "海拉尔区", "name": "海拉尔天润支行", "adress": "海拉尔区天润瑞景丽苑10号楼5号门市一、二层", "class1": "生活服务", "class2": "银行", "longitude": "119.744725659663", "latitude": "49.2073359567899"}
{"province": "广西省", "city": "河池市", "county": "环江毛南族自治县", "name": "环江支行营业部", "adress": "环江县桥东路西三巷“中兴●商城”一楼", "class1": "生活服务", "class2": "银行", "longitude": "108.256910815583", "latitude": "24.8303616563662"}
{"province": "广西省", "city": "河池市", "county": "巴马瑶族自治县", "name": "中国建设银行股份有限公司巴马支行", "adress": "广西壮族自治区巴马瑶族自治县巴马镇南环路118号", "class1": "生活服务", "class2": "银行", "longitude": "107.254396205222", "latitude": "24.1332601025725"}
{"province": "内蒙古", "city": "呼伦贝尔市", "county": "莫力达瓦达斡尔族自治旗", "name": "莫力达瓦达斡尔族自治旗支行", "adress": "内蒙古呼伦贝尔市莫力达瓦达斡尔族自治旗尼尔基镇纳文东大街", "class1": "生活服务", "class2": "银行", "longitude": "124.51186730933", "latitude": "48.4784789566394"}
{"province": "广西省", "city": "河池市", "county": "都安瑶族自治县", "name": "都安支行营业部", "adress": "屏山南路137号", "class1": "生活服务", "class2": "银行", "longitude": "108.101504964084", "latitude": "23.9373287618138"}
{"province": "内蒙古", "city": "呼伦贝尔市", "county": "鄂伦春自治旗", "name": "鄂伦春自治旗支行", "adress": "内蒙古呼伦贝尔市鄂伦春旗阿里河中央路252号", "class1": "生活服务", "class2": "银行", "longitude": "123.728555696489", "latitude": "50.5846202050594"}
{"province": "内蒙古", "city": "呼伦贝尔市", "county": "鄂温克族自治旗", "name": "呼伦贝尔伊敏滨河支行", "adress": "内蒙古呼伦贝尔市伊敏河镇兴华大街9号楼", "class1": "生活服务", "class2": "银行", "longitude": "119.786564017916", "latitude": "48.5826696820611"}
{"province": "内蒙古", "city": "呼伦贝尔市", "county": "鄂温克族自治旗", "name": "伊敏支行", "adress": "内蒙古呼伦贝尔市伊敏河镇新源2小区建行办公楼", "class1": "生活服务", "class2": "银行", "longitude": "119.751941521185", "latitude": "48.536696870565"}
{"province": "内蒙古", "city": "呼伦贝尔市", "county": "鄂温克族自治旗", "name": "大雁雁中支行", "adress": "内蒙古呼伦贝尔市大雁矿区雁中区三十二栋", "class1": "生活服务", "class2": "银行", "longitude": "120.581055820771", "latitude": "49.2579400744758"}
{"province": "内蒙古", "city": "呼伦贝尔市", "county": "鄂温克族自治旗", "name": "大雁支行", "adress": "内蒙古呼伦贝尔市大雁矿区雁北雁煤新村", "class1": "生活服务", "class2": "银行", "longitude": "120.578690506663", "latitude": "49.2721214640353"}
{"province": "内蒙古", "city": "呼伦贝尔市", "county": "鄂温克族自治旗", "name": "鄂温克族自治旗支行", "adress": "内蒙古呼伦贝尔市鄂温克旗索伦大街", "class1": "生活服务", "class2": "银行", "longitude": "119.754630784584", "latitude": "49.1399460542679"}
{"province": "广西省", "city": "河池市", "county": "宜州市", "name": "宜州中山路支行", "adress": "宜州市城南开发区中山大道", "class1": "生活服务", "class2": "银行", "longitude": "108.660193242225", "latitude": "24.5020365936148"}
{"province": "广西省", "city": "河池市", "county": "宜州市", "name": "宜州支行营业部", "adress": "城中中路10号", "class1": "生活服务", "class2": "银行", "longitude": "108.660871495624", "latitude": "24.4933646397672"}
{"province": "广西省", "city": "河池市", "county": "宜州市", "name": "宜州城中西路支行", "adress": "龙江路98号", "class1": "生活服务", "class2": "银行", "longitude": "108.649898326847", "latitude": "24.4926379398899"}
{"province": "广西省", "city": "来宾市", "county": "兴宾区", "name": "来宾城北支行", "adress": "来宾市盘古大道51-59号", "class1": "生活服务", "class2": "银行", "longitude": "109.223412579128", "latitude": "23.7517409133134"}
{"province": "广西省", "city": "来宾市", "county": "兴宾区", "name": "来宾河西支行", "adress": "来宾市兴宾区大桥路144号", "class1": "生活服务", "class2": "银行", "longitude": "109.219680999679", "latitude": "23.7268239999285"}
{"province": "广西省", "city": "来宾市", "county": "兴宾区", "name": "来宾分行营业部", "adress": "兴宾区北二路280号", "class1": "生活服务", "class2": "银行", "longitude": "109.230200000031", "latitude": "23.7301309995469"}
{"province": "内蒙古", "city": "呼伦贝尔市", "county": "满洲里市", "name": "满洲里国贸支行", "adress": "内蒙古满洲里市北区一道街17号", "class1": "生活服务", "class2": "银行", "longitude": "117.452161222064", "latitude": "49.5884865948814"}
{"province": "内蒙古", "city": "呼伦贝尔市", "county": "满洲里市", "name": "满洲里中央大街支行", "adress": "内蒙古满洲里市扎赉诺尔区中央大街中央商城", "class1": "生活服务", "class2": "银行", "longitude": "117.691541916228", "latitude": "49.4658692148932"}
{"province": "内蒙古", "city": "呼伦贝尔市", "county": "满洲里市", "name": "满洲里扎赉诺尔支行", "adress": "内蒙古满洲里市扎赉诺尔区新华南路兴华综合楼", "class1": "生活服务", "class2": "银行", "longitude": "117.685347482202", "latitude": "49.4798962322263"}
{"province": "内蒙古", "city": "呼伦贝尔市", "county": "满洲里市", "name": "满洲里口岸支行", "adress": "内蒙古满洲里市五道街发达广场1006号", "class1": "生活服务", "class2": "银行", "longitude": "117.446367017825", "latitude": "49.5949062299395"}
{"province": "内蒙古", "city": "呼伦贝尔市", "county": "满洲里市", "name": "满洲里道南支行", "adress": "内蒙古满洲里市道南立交桥下铁鑫市场门市", "class1": "生活服务", "class2": "银行", "longitude": "117.457368495461", "latitude": "49.5807385757256"}
{"province": "内蒙古", "city": "呼伦贝尔市", "county": "满洲里市", "name": "满洲里分行营业部", "adress": "内蒙古满洲里市树林路17号", "class1": "生活服务", "class2": "银行", "longitude": "117.462113000216", "latitude": "49.5885909998757"}
{"province": "内蒙古", "city": "呼伦贝尔市", "county": "牙克石市", "name": "呼伦贝尔牙克石门都支行", "adress": "内蒙古牙克石市红旗东街红旗小区1号楼", "class1": "生活服务", "class2": "银行", "longitude": "120.742060682256", "latitude": "49.2872125277369"}
{"province": "内蒙古", "city": "呼伦贝尔市", "county": "牙克石市", "name": "牙克石五道街支行", "adress": "内蒙古牙克石市林城路五道街口", "class1": "生活服务", "class2": "银行", "longitude": "120.736371026003", "latitude": "49.2852637085542"}
{"province": "内蒙古", "city": "呼伦贝尔市", "county": "牙克石市", "name": "牙克石市场支行", "adress": "内蒙古牙克石市林城路七道街", "class1": "生活服务", "class2": "银行", "longitude": "120.736551459683", "latitude": "49.2884275037272"}
{"province": "内蒙古", "city": "呼伦贝尔市", "county": "牙克石市", "name": "牙克石青松路支行", "adress": "内蒙古牙克石市青松路八道街口", "class1": "生活服务", "class2": "银行", "longitude": "120.730101837631", "latitude": "49.2909677890332"}
{"province": "内蒙古", "city": "呼伦贝尔市", "county": "牙克石市", "name": "牙克石支行", "adress": "内蒙古牙克石市兴安中街30号", "class1": "生活服务", "class2": "银行", "longitude": "120.733418741483", "latitude": "49.2855834679036"}
{"province": "广西省", "city": "来宾市", "county": "合山市", "name": "合山支行营业部", "adress": "合山市城站路49号", "class1": "生活服务", "class2": "银行", "longitude": "108.888921199655", "latitude": "23.8146996690554"}
{"province": "广西省", "city": "崇左市", "county": "江洲区", "name": "崇左友谊大道支行", "adress": "崇左市江州区新城路西段南侧阳光名邸", "class1": "生活服务", "class2": "银行", "longitude": "107.353326000096", "latitude": "22.405160999981"}
{"province": "广西省", "city": "崇左市", "county": "江洲区", "name": "崇左分行营业部", "adress": "崇左市江南路73号", "class1": "生活服务", "class2": "银行", "longitude": "107.351428000703", "latitude": "22.4035060001027"}
{"province": "内蒙古", "city": "呼伦贝尔市", "county": "扎兰屯市", "name": "呼伦贝尔扎兰屯秀水支行", "adress": "内蒙古扎兰屯市中央北路25号", "class1": "生活服务", "class2": "银行", "longitude": "122.737903892152", "latitude": "48.012429484534"}
{"province": "内蒙古", "city": "呼伦贝尔市", "county": "扎兰屯市", "name": "扎兰屯支行", "adress": "内蒙古扎兰屯市中央北路85号", "class1": "生活服务", "class2": "银行", "longitude": "122.745827970685", "latitude": "48.0024277859145"}
{"province": "广西省", "city": "崇左市", "county": "扶绥县", "name": "扶绥新宁分理处", "adress": "扶绥县松江街56—64号", "class1": "生活服务", "class2": "银行", "longitude": "107.909548626769", "latitude": "22.6333929147521"}
{"province": "广西省", "city": "崇左市", "county": "扶绥县", "name": "扶绥支行营业部", "adress": "扶绥县南密路6号", "class1": "生活服务", "class2": "银行", "longitude": "107.914220260358", "latitude": "22.6312888015378"}
{"province": "广西省", "city": "崇左市", "county": "龙州县", "name": "龙州支行", "adress": "崇左市龙州县龙夏路2号“龙鑫新城·龙州商业广场”D栋1号楼临街铺面", "class1": "生活服务", "class2": "银行", "longitude": "107.354277000784", "latitude": "22.4034839999875"}
{"province": "内蒙古", "city": "呼伦贝尔市", "county": "根河市", "name": "根河支行", "adress": "内蒙古呼伦贝尔市根河市林海路", "class1": "生活服务", "class2": "银行", "longitude": "121.519999434028", "latitude": "50.7795844400708"}
{"province": "广西省", "city": "崇左市", "county": "凭祥市", "name": "凭祥浦寨分理处", "adress": "凭祥市浦寨万泰商业街", "class1": "生活服务", "class2": "银行", "longitude": "106.735122236503", "latitude": "22.0582274424434"}
{"province": "广西省", "city": "崇左市", "county": "凭祥市", "name": "凭祥中区分理处", "adress": "南宁市凭祥市南大路23号", "class1": "生活服务", "class2": "银行", "longitude": "106.748935000251", "latitude": "22.0966979997138"}
{"province": "广西省", "city": "崇左市", "county": "凭祥市", "name": "凭祥支行营业部", "adress": "南宁市凭祥市屏山路138号", "class1": "生活服务", "class2": "银行", "longitude": "106.75909900042", "latitude": "22.107951000639"}
{"province": "内蒙古", "city": "巴彦淖尔市", "county": "临河区", "name": "巴彦淖尔新华西街支行", "adress": "内蒙古巴彦淖尔市临河区新华西街四季花城2#区", "class1": "生活服务", "class2": "银行", "longitude": "107.391897573715", "latitude": "40.7436569193322"}
{"province": "内蒙古", "city": "巴彦淖尔市", "county": "临河区", "name": "巴彦淖尔朝阳支行", "adress": "内蒙古巴彦淖尔市临河区阳光新都小区底店", "class1": "生活服务", "class2": "银行", "longitude": "107.402460745168", "latitude": "40.7667493915721"}
{"province": "内蒙古", "city": "巴彦淖尔市", "county": "临河区", "name": "巴彦淖尔胜利北路支行", "adress": "内蒙古巴彦淖尔市临河区华奥大酒店楼下", "class1": "生活服务", "class2": "银行", "longitude": "107.409333000019", "latitude": "40.7654170000954"}
{"province": "内蒙古", "city": "巴彦淖尔市", "county": "临河区", "name": "巴彦淖尔110线支行", "adress": "内蒙古巴彦淖尔市临河区自来水厂附近", "class1": "生活服务", "class2": "银行", "longitude": "107.409243934761", "latitude": "40.7505335934515"}
{"province": "内蒙古", "city": "巴彦淖尔市", "county": "临河区", "name": "巴彦淖尔胜利路支行", "adress": "内蒙古巴彦淖尔市临河区胜利北路56号", "class1": "生活服务", "class2": "银行", "longitude": "107.418508999592", "latitude": "40.7566860003595"}
{"province": "内蒙古", "city": "巴彦淖尔市", "county": "临河区", "name": "巴彦淖尔分行营业室", "adress": "内蒙古巴彦淖尔市临河区新华西街10号", "class1": "生活服务", "class2": "银行", "longitude": "107.416802000013", "latitude": "40.75475600039"}
{"province": "内蒙古", "city": "巴彦淖尔市", "county": "临河区", "name": "巴彦淖尔临河支行", "adress": "内蒙古巴彦淖尔市临河区胜利北路13号", "class1": "生活服务", "class2": "银行", "longitude": "107.414208", "latitude": "40.7623489998074"}
{"province": "内蒙古", "city": "巴彦淖尔市", "county": "临河区", "name": "巴彦淖尔建设路支行", "adress": "内蒙古巴彦淖尔市临河区建设路", "class1": "生活服务", "class2": "银行", "longitude": "107.424194598103", "latitude": "40.7637273052718"}
{"province": "内蒙古", "city": "巴彦淖尔市", "county": "临河区", "name": "巴彦淖尔胜利南路支行", "adress": "内蒙古巴彦淖尔市临河区胜利南路育红东街1号", "class1": "生活服务", "class2": "银行", "longitude": "107.424344999823", "latitude": "40.750179999808"}
{"province": "内蒙古", "city": "巴彦淖尔市", "county": "临河区", "name": "巴彦淖尔新华东街支行", "adress": "内蒙古巴彦淖尔市临河区新华东街海天家园17号", "class1": "生活服务", "class2": "银行", "longitude": "107.431915743718", "latitude": "40.7609193709332"}
{"province": "内蒙古", "city": "巴彦淖尔市", "county": "临河区", "name": "巴彦淖尔光明街支行", "adress": "内蒙古临河区胜利路和光明街交叉路口", "class1": "生活服务", "class2": "银行", "longitude": "107.421205832584", "latitude": "40.7535297289148"}
{"province": "内蒙古", "city": "巴彦淖尔市", "county": "五原县", "name": "五原支行", "adress": "内蒙古巴彦淖尔市五原县皮毛巷口", "class1": "生活服务", "class2": "银行", "longitude": "108.256285623983", "latitude": "41.0959999520371"}
{"province": "内蒙古", "city": "巴彦淖尔市", "county": "磴口县", "name": "磴口支行", "adress": "内蒙古巴彦淖尔市磴口县巴彦高勒镇团结路1号", "class1": "生活服务", "class2": "银行", "longitude": "107.010897369719", "latitude": "40.3302390504927"}
{"province": "内蒙古", "city": "巴彦淖尔市", "county": "乌拉特前旗", "name": "乌拉特前旗水利北路支行", "adress": "内蒙古巴彦淖尔市乌前旗水利北路", "class1": "生活服务", "class2": "银行", "longitude": "108.650317772448", "latitude": "40.729290402531"}
{"province": "内蒙古", "city": "巴彦淖尔市", "county": "乌拉特前旗", "name": "乌拉特前旗支行", "adress": "内蒙古巴彦淖尔市乌前旗西山咀镇东风大街", "class1": "生活服务", "class2": "银行", "longitude": "108.660862907099", "latitude": "40.7336573116365"}
{"province": "内蒙古", "city": "巴彦淖尔市", "county": "乌拉特中旗", "name": "乌拉特中旗支行", "adress": "内蒙古巴彦淖尔市乌中旗海流图镇海流图大街", "class1": "生活服务", "class2": "银行", "longitude": "108.522817924509", "latitude": "41.5626287008548"}
{"province": "内蒙古", "city": "巴彦淖尔市", "county": "乌拉特后旗", "name": "乌拉特后旗支行", "adress": "巴内蒙古彦淖尔市乌拉特后旗玛瑙胡2号商务楼1－2层", "class1": "生活服务", "class2": "银行", "longitude": "107.000112773487", "latitude": "41.4338063827593"}
{"province": "内蒙古", "city": "巴彦淖尔市", "county": "杭锦后旗", "name": "杭锦后旗支行", "adress": "内蒙古巴彦淖尔市杭后陕坝镇东环路", "class1": "生活服务", "class2": "银行", "longitude": "107.148438879452", "latitude": "40.8924727852917"}
{"province": "内蒙古", "city": "乌兰察布市", "county": "集宁区", "name": "乌兰察布文化路支行", "adress": "内蒙古乌兰察布市集宁区文化路文化广场西侧1栋104号房", "class1": "生活服务", "class2": "银行", "longitude": "113.136544331557", "latitude": "41.0229443530004"}
{"province": "内蒙古", "city": "乌兰察布市", "county": "集宁区", "name": "乌兰察布水语山城支行", "adress": "内蒙古乌兰察布市集宁区工农路水语山城东门南侧", "class1": "生活服务", "class2": "银行", "longitude": "113.103055999536", "latitude": "41.0276819995256"}
{"province": "内蒙古", "city": "乌兰察布市", "county": "集宁区", "name": "乌兰察布建设路支行", "adress": "内蒙古乌兰察布市集宁区安大国际嘉园东门南侧K19栋（一二层）208及1010号", "class1": "生活服务", "class2": "银行", "longitude": "113.117883999848", "latitude": "41.0334310002414"}
{"province": "内蒙古", "city": "乌兰察布市", "county": "集宁区", "name": "乌兰察布站前支行", "adress": "内蒙古乌兰察布市集宁区民建路148号", "class1": "生活服务", "class2": "银行", "longitude": "113.101997999309", "latitude": "41.0320779999007"}
{"province": "内蒙古", "city": "乌兰察布市", "county": "集宁区", "name": "乌兰察布公园路支行", "adress": "内蒙古乌兰察布市集宁区公园路15号", "class1": "生活服务", "class2": "银行", "longitude": "113.124631999868", "latitude": "41.0390789998968"}
{"province": "内蒙古", "city": "乌兰察布市", "county": "集宁区", "name": "乌兰察布恩和东路支行", "adress": "内蒙古乌兰察布市集宁区恩和路47号", "class1": "生活服务", "class2": "银行", "longitude": "113.126346451229", "latitude": "41.0351111343722"}
{"province": "内蒙古", "city": "乌兰察布市", "county": "集宁区", "name": "乌兰察布新体路支行", "adress": "内蒙古乌兰察布市集宁区新体路170号", "class1": "生活服务", "class2": "银行", "longitude": "113.102036999309", "latitude": "41.0376519997409"}
{"province": "内蒙古", "city": "乌兰察布市", "county": "集宁区", "name": "乌兰察布铁路支行", "adress": "内蒙古乌兰察布市集宁区团结路94号", "class1": "生活服务", "class2": "银行", "longitude": "113.113272000304", "latitude": "41.0431380000196"}
{"province": "内蒙古", "city": "乌兰察布市", "county": "集宁区", "name": "乌兰察布幸福路支行", "adress": "内蒙古乌兰察布市集宁区幸福路幸福商业广场3号楼东侧", "class1": "生活服务", "class2": "银行", "longitude": "113.125556463361", "latitude": "41.0243337390118"}
{"province": "内蒙古", "city": "乌兰察布市", "county": "集宁区", "name": "乌兰察布桥西支行", "adress": "内蒙古乌兰察布市集宁区新华街实验中学对面", "class1": "生活服务", "class2": "银行", "longitude": "113.088840000467", "latitude": "41.0302199996542"}
{"province": "内蒙古", "city": "乌兰察布市", "county": "集宁区", "name": "乌兰察布分行营业室", "adress": "内蒙古乌兰察布市集宁区民建路110号", "class1": "生活服务", "class2": "银行", "longitude": "113.11207431288", "latitude": "41.0331586360631"}
{"province": "内蒙古", "city": "乌兰察布市", "county": "集宁区", "name": "乌兰察布集宁支行", "adress": "内蒙古乌兰察布市集宁区民建路东段福花苑北门东侧", "class1": "生活服务", "class2": "银行", "longitude": "113.138472457339", "latitude": "41.0332558015149"}
{"province": "内蒙古", "city": "乌兰察布市", "county": "集宁区", "name": "乌兰察布新区支行", "adress": "内蒙古乌兰察布市集宁新区中心广场联通营业大楼一层", "class1": "生活服务", "class2": "银行", "longitude": "113.175384602818", "latitude": "40.955751414597"}
{"province": "内蒙古", "city": "乌兰察布市", "county": "集宁区", "name": "乌兰察布怀远南路支行", "adress": "乌兰察布市集宁区新区永安路东金泰苑小区9栋101#-106#", "class1": "生活服务", "class2": "银行", "longitude": "113.138368237605", "latitude": "40.981528468365"}
{"province": "内蒙古", "city": "乌兰察布市", "county": "化德县", "name": "化德支行", "adress": "内蒙古乌兰察布市化德县城关镇长顺大街南22号", "class1": "生活服务", "class2": "银行", "longitude": "113.992209867193", "latitude": "41.8970647540361"}
{"province": "内蒙古", "city": "乌兰察布市", "county": "兴和县", "name": "兴和支行", "adress": "内蒙古乌兰察布市兴和县新城区新世纪广场广场南侧和谐1号公建—45、46、47", "class1": "生活服务", "class2": "银行", "longitude": "112.502860567262", "latitude": "40.5326655100062"}
{"province": "内蒙古", "city": "乌兰察布市", "county": "凉城县", "name": "凉城支行", "adress": "内蒙古乌兰察布市凉城县岱海胜利街光明路", "class1": "生活服务", "class2": "银行", "longitude": "112.640055322696", "latitude": "40.5170529474365"}
{"province": "内蒙古", "city": "乌兰察布市", "county": "察哈尔右翼中旗", "name": "察哈尔右翼中旗支行", "adress": "内蒙古乌兰察布市察哈尔右翼中旗科布尔镇南街", "class1": "生活服务", "class2": "银行", "longitude": "112.63564310035", "latitude": "41.273677061648"}
{"province": "内蒙古", "city": "乌兰察布市", "county": "丰镇市", "name": "丰镇新丰西街支行", "adress": "内蒙古乌兰察布市丰镇市新丰西大街久福小区1号楼9、10、11号商铺", "class1": "生活服务", "class2": "银行", "longitude": "113.121664691274", "latitude": "40.4351186700915"}
{"province": "内蒙古", "city": "乌兰察布市", "county": "丰镇市", "name": "丰镇新丰街支行", "adress": "内蒙古乌兰察布市丰镇市新丰大街68号", "class1": "生活服务", "class2": "银行", "longitude": "113.111665692419", "latitude": "40.4351186700915"}
{"province": "内蒙古", "city": "乌兰察布市", "county": "丰镇市", "name": "丰镇支行", "adress": "内蒙古乌兰察布市丰镇市新丰西大街久福小区1号楼9、10、11号商铺", "class1": "生活服务", "class2": "银行", "longitude": "113.1183829689", "latitude": "40.4511683445444"}
{"province": "内蒙古", "city": "兴安盟", "county": "乌兰浩特市", "name": "乌兰浩特新城区支行", "adress": "内蒙古自治区兴安盟委行政审批中心大楼一楼", "class1": "生活服务", "class2": "银行", "longitude": "122.035724438733", "latitude": "46.0814409451444"}
{"province": "内蒙古", "city": "兴安盟", "county": "乌兰浩特市", "name": "兴安分行营业室", "adress": "内蒙古乌兰浩特市兴安南大路21号", "class1": "生活服务", "class2": "银行", "longitude": "122.072423936816", "latitude": "46.0664435890013"}
{"province": "内蒙古", "city": "兴安盟", "county": "乌兰浩特市", "name": "乌兰浩特支行", "adress": "内蒙古乌兰浩特市滨河南路耘帜蒙元文化城A28-31号", "class1": "生活服务", "class2": "银行", "longitude": "122.088281402766", "latitude": "46.0774484327998"}
{"province": "内蒙古", "city": "兴安盟", "county": "乌兰浩特市", "name": "乌兰浩特支行", "adress": "内蒙古乌兰浩特市滨河南路耘帜蒙元文化城A28-31号", "class1": "生活服务", "class2": "银行", "longitude": "122.088281402766", "latitude": "46.0774484327998"}
{"province": "内蒙古", "city": "兴安盟", "county": "乌兰浩特市", "name": "乌兰浩特铁路支行", "adress": "内蒙古乌兰浩特市电业路40号", "class1": "生活服务", "class2": "银行", "longitude": "122.060999174373", "latitude": "46.0767527739223"}
{"province": "内蒙古", "city": "兴安盟", "county": "乌兰浩特市", "name": "乌兰浩特铁西南路支行", "adress": "内蒙古乌兰浩特市都林街铁西南大路16-9号", "class1": "生活服务", "class2": "银行", "longitude": "122.069261999643", "latitude": "46.0728240001284"}
{"province": "内蒙古", "city": "兴安盟", "county": "乌兰浩特市", "name": "乌兰浩特五一支行", "adress": "内蒙古乌兰浩特市兴安北大路30-1号", "class1": "生活服务", "class2": "银行", "longitude": "122.066685558892", "latitude": "46.0770695978845"}
{"province": "内蒙古", "city": "兴安盟", "county": "乌兰浩特市", "name": "乌兰浩特乌兰支行", "adress": "内蒙古乌兰浩特市乌兰西大街27号", "class1": "生活服务", "class2": "银行", "longitude": "122.072940999329", "latitude": "46.0737020001481"}
{"province": "内蒙古", "city": "兴安盟", "county": "乌兰浩特市", "name": "乌兰浩特和平支行", "adress": "内蒙古乌兰浩特市爱国南大路325号", "class1": "生活服务", "class2": "银行", "longitude": "122.086374947047", "latitude": "46.0698294204923"}
{"province": "内蒙古", "city": "兴安盟", "county": "科尔沁右翼前旗", "name": "科尔沁右翼前旗支行", "adress": "内蒙古兴安盟科尔沁右翼前旗城关镇府前街金碧苑小区B1-8-10号", "class1": "生活服务", "class2": "银行", "longitude": "121.943493099328", "latitude": "46.0789643974899"}
{"province": "内蒙古", "city": "锡林郭勒盟", "county": "二连浩特市", "name": "二连浩特市支行", "adress": "内蒙古锡林郭勒盟二连市新华街", "class1": "生活服务", "class2": "银行", "longitude": "111.976346920275", "latitude": "43.6517512625117"}
{"province": "内蒙古", "city": "锡林郭勒盟", "county": "二连浩特市", "name": "二连浩特前进支行", "adress": "内蒙古二连市恐龙大街北前进路东欧连酒店01018号", "class1": "生活服务", "class2": "银行", "longitude": "111.985568497489", "latitude": "43.6473591166308"}
{"province": "内蒙古", "city": "锡林郭勒盟", "county": "二连浩特市", "name": "二连浩特如意支行", "adress": "内蒙古二连市南环路南、诚信路东龙翔建材城B座010118#", "class1": "生活服务", "class2": "银行", "longitude": "111.990297707474", "latitude": "43.6356980510251"}
{"province": "内蒙古", "city": "锡林郭勒盟", "county": "二连浩特市", "name": "二连浩特锡林支行", "adress": "内蒙古二连浩特市前进路0006号", "class1": "生活服务", "class2": "银行", "longitude": "111.982863671322", "latitude": "43.6508143506027"}
{"province": "内蒙古", "city": "锡林郭勒盟", "county": "锡林浩特市", "name": "锡林浩特车站支行", "adress": "内蒙古锡林浩特市那达慕大街东段汽车站对面", "class1": "生活服务", "class2": "银行", "longitude": "116.086957902286", "latitude": "43.9389279502656"}
{"province": "内蒙古", "city": "锡林郭勒盟", "county": "锡林浩特市", "name": "锡林浩特鼎宏支行", "adress": "内蒙古锡林浩特市鼎宏小区1号", "class1": "生活服务", "class2": "银行", "longitude": "116.090787708387", "latitude": "43.9458853817059"}
{"province": "内蒙古", "city": "锡林郭勒盟", "county": "锡林浩特市", "name": "锡林浩特金融大街支行", "adress": "内蒙古锡林浩特市中央大街3号", "class1": "生活服务", "class2": "银行", "longitude": "116.093009999713", "latitude": "43.935915000178"}
{"province": "内蒙古", "city": "锡林郭勒盟", "county": "锡林浩特市", "name": "锡林浩特那达慕大街支行", "adress": "内蒙古锡林浩特市杭盖路南慧源小区1号", "class1": "生活服务", "class2": "银行", "longitude": "116.096560429621", "latitude": "43.9430406309213"}
{"province": "内蒙古", "city": "锡林郭勒盟", "county": "锡林浩特市", "name": "锡林浩特逸园支行", "adress": "内蒙古锡林浩特市团结大街逸园小区商业楼", "class1": "生活服务", "class2": "银行", "longitude": "116.083227081865", "latitude": "43.9301433293521"}
{"province": "内蒙古", "city": "锡林郭勒盟", "county": "锡林浩特市", "name": "锡林浩特察哈尔大街支行", "adress": "内蒙古锡林浩特市察哈尔大街27号", "class1": "生活服务", "class2": "银行", "longitude": "116.080384000222", "latitude": "43.940635000206"}
{"province": "内蒙古", "city": "锡林郭勒盟", "county": "锡林浩特市", "name": "锡林浩特尚城支行", "adress": "锡林浩特市新区上都街与多伦路交汇处东侧", "class1": "生活服务", "class2": "银行", "longitude": "116.046706406776", "latitude": "43.9235079100629"}
{"province": "内蒙古", "city": "锡林郭勒盟", "county": "锡林浩特市", "name": "锡林郭勒政务中心支行", "adress": "内蒙古锡林浩特市新区北京路与苏尼特街交汇处", "class1": "生活服务", "class2": "银行", "longitude": "116.03804223836", "latitude": "43.9386401114529"}
{"province": "内蒙古", "city": "锡林郭勒盟", "county": "锡林浩特市", "name": "锡林郭勒分行营业室", "adress": "内蒙古锡林浩特市额尔敦北路37号", "class1": "生活服务", "class2": "银行", "longitude": "116.074179395764", "latitude": "43.9478130020693"}
{"province": "内蒙古", "city": "锡林郭勒盟", "county": "东乌珠穆沁旗", "name": "乌珠穆沁支行", "adress": "内蒙古锡林郭勒盟东乌珠穆沁旗乌里雅斯太镇宝格达乌拉街与罕乌拉路交汇处", "class1": "生活服务", "class2": "银行", "longitude": "116.976422181739", "latitude": "45.5041804625592"}
{"province": "内蒙古", "city": "锡林郭勒盟", "county": "西乌珠穆沁旗", "name": "白音华矿区支行", "adress": "内蒙古西乌旗巴拉嘎尔高勒镇柴达木街中段", "class1": "生活服务", "class2": "银行", "longitude": "117.612879799664", "latitude": "44.5875185665295"}
{"province": "内蒙古", "city": "锡林郭勒盟", "county": "正蓝旗", "name": "上都电厂支行", "adress": "内蒙古锡林郭勒盟正蓝旗上都镇寺郎南路", "class1": "生活服务", "class2": "银行", "longitude": "116.006852503341", "latitude": "42.251475655478"}
{"province": "内蒙古", "city": "锡林郭勒盟", "county": "多伦县", "name": "多伦支行", "adress": "内蒙古锡林郭勒盟多伦县多伦诺尔镇115号", "class1": "生活服务", "class2": "银行", "longitude": "116.485227547414", "latitude": "42.2003052895584"}
{"province": "北京市", "city": "北京市", "county": "东城区", "name": "北京保利支行营业部", "adress": "北京市东城区朝阳门北大街1号北京新保利大厦1层1A、2A", "class1": "生活服务", "class2": "银行", "longitude": "116.439175806919", "latitude": "39.9339781895427"}
{"province": "北京市", "city": "北京市", "county": "东城区", "name": "北京建国支行", "adress": "北京市建国门内大街8号中粮广场B座", "class1": "生活服务", "class2": "银行", "longitude": "116.429785426957", "latitude": "39.9066547308321"}
{"province": "北京市", "city": "北京市", "county": "东城区", "name": "北京中油支行", "adress": "北京市东城区东直门北大街9号一层B座0110", "class1": "生活服务", "class2": "银行", "longitude": "116.432854639531", "latitude": "39.9440547144544"}
{"province": "北京市", "city": "北京市", "county": "东城区", "name": "北京前门支行", "adress": "北京市东城区西打磨厂1号", "class1": "生活服务", "class2": "银行", "longitude": "116.411611057405", "latitude": "39.8999332689061"}
{"province": "北京市", "city": "北京市", "county": "东城区", "name": "北京朝内大街支行", "adress": "北京市东城区东四北大街343号", "class1": "生活服务", "class2": "银行", "longitude": "116.41718831459", "latitude": "39.9282728410197"}
{"province": "北京市", "city": "北京市", "county": "东城区", "name": "北京东四支行营业部", "adress": "北京市东城区美术馆后街8号", "class1": "生活服务", "class2": "银行", "longitude": "116.408952637155", "latitude": "39.9328968636003"}
{"province": "北京市", "city": "北京市", "county": "东城区", "name": "北京朝内南小街支行", "adress": "北京市东城区朝内南小街12号楼15号底商", "class1": "生活服务", "class2": "银行", "longitude": "116.426751573028", "latitude": "39.9184979918897"}
{"province": "北京市", "city": "北京市", "county": "东城区", "name": "北京王府井大街支行", "adress": "北京市东城区帅府园胡同13号", "class1": "生活服务", "class2": "银行", "longitude": "116.411816677499", "latitude": "39.9121758352475"}
{"province": "北京市", "city": "北京市", "county": "东城区", "name": "北京外馆街支行", "adress": "北京市东城区外馆街45号", "class1": "生活服务", "class2": "银行", "longitude": "116.400160048249", "latitude": "39.9631212015831"}
{"province": "北京市", "city": "北京市", "county": "东城区", "name": "北京海油支行", "adress": "北京市东城区朝阳门北大街25号海油大厦一层", "class1": "生活服务", "class2": "银行", "longitude": "116.433597655808", "latitude": "39.9252371722586"}
{"province": "北京市", "city": "北京市", "county": "东城区", "name": "北京环贸支行", "adress": "北京市东城区北三环东路36号，北京环球贸易中心一期写字楼A座首层", "class1": "生活服务", "class2": "银行", "longitude": "116.411644946558", "latitude": "39.9687763400569"}
{"province": "北京市", "city": "北京市", "county": "东城区", "name": "北京东四十条支行", "adress": "北京市东城区东中街29号东环广场南楼", "class1": "生活服务", "class2": "银行", "longitude": "116.436229925572", "latitude": "39.9369449873222"}
{"province": "北京市", "city": "北京市", "county": "东城区", "name": "北京天坛支行", "adress": "北京市崇文区崇外大街114号", "class1": "生活服务", "class2": "银行", "longitude": "116.419293620305", "latitude": "39.8940494796007"}
{"province": "北京市", "city": "北京市", "county": "东城区", "name": "北京东河沿支行", "adress": "北京市崇文区花市东里花市枣苑甲3号", "class1": "生活服务", "class2": "银行", "longitude": "116.433499939971", "latitude": "39.8973698107691"}
{"province": "北京市", "city": "北京市", "county": "东城区", "name": "北京安乐林支行", "adress": "北京市崇文区安乐林路16号院第二幢商业首层01号房", "class1": "生活服务", "class2": "银行", "longitude": "116.41087075798", "latitude": "39.8650572299081"}
{"province": "北京市", "city": "北京市", "county": "东城区", "name": "北京银燕支行", "adress": "北京市崇文区夕照寺街16号院华城住宅小区4号楼底商地上一层", "class1": "生活服务", "class2": "银行", "longitude": "116.440276264139", "latitude": "39.884797710347"}
{"province": "北京市", "city": "北京市", "county": "东城区", "name": "北京和平里支行", "adress": "北京市东城区和平里七区36号楼", "class1": "生活服务", "class2": "银行", "longitude": "116.424833713006", "latitude": "39.9619441724865"}
{"province": "北京市", "city": "北京市", "county": "东城区", "name": "北京东方广场支行", "adress": "北京市东城区东长安街1号东方广场E1座二层", "class1": "生活服务", "class2": "银行", "longitude": "116.41370181209", "latitude": "39.9093287147493"}
{"province": "北京市", "city": "北京市", "county": "东城区", "name": "北京明光支行", "adress": "北京市崇文区珠市口东大街5号，光明日报集团大楼一层", "class1": "生活服务", "class2": "银行", "longitude": "116.41422634617", "latitude": "39.8931863076029"}
{"province": "北京市", "city": "北京市", "county": "东城区", "name": "北京王府井支行", "adress": "北京市东城区王府井大街99号", "class1": "生活服务", "class2": "银行", "longitude": "116.410461696851", "latitude": "39.9187150063933"}
{"province": "北京市", "city": "北京市", "county": "东城区", "name": "北京金成支行", "adress": "北京市东城区建国门北大街5号1层107、2层202", "class1": "生活服务", "class2": "银行", "longitude": "116.434207945641", "latitude": "39.9136275829475"}
{"province": "北京市", "city": "北京市", "county": "东城区", "name": "北京新华支行", "adress": "北京市东城区青龙胡同1号1层107,1层108,4层418", "class1": "生活服务", "class2": "银行", "longitude": "116.424353768213", "latitude": "39.9483759146177"}
