{"province": "四川省", "distance": 0.0, "sametype": "same", "thirdId": 0, "name": "四川宜宾授权服务体验中心", "city": "宜宾市", "sub_source": "zhuaqu_meizuweixiu", "longitude": "11648275.5965486", "trade": "手机维修", "source": "special", "score": "0.980060", "oldname": "四川宜宾授权服务体验中心", "2tag": "维修点", "address": "四川省宜宾市翠屏区东街经纬商场9楼8号", "latitude": " 3326575.453603036", "guid": "8113c834-c36c-11e7-a478-6c92bf041d56", "1tag": "生活服务"}
{"province": "四川省", "distance": 0.0, "sametype": "same", "thirdId": 0, "name": "四川眉山授权维修站", "city": "眉山市", "sub_source": "zhuaqu_meizuweixiu", "longitude": "11550070.240730364", "trade": "手机维修", "source": "special", "score": "0.898957", "oldname": "四川眉山授权维修站", "2tag": "维修点", "address": "四川省眉山市东坡区高登南路122-124号", "latitude": " 3490061.0165893915", "guid": "8114296e-c36c-11e7-a4bd-6c92bf041d56", "1tag": "生活服务"}
{"province": "四川省", "distance": 0.0, "sametype": "same", "thirdId": 0, "name": "四川达州授权维修站", "city": "达州市", "sub_source": "zhuaqu_meizuweixiu", "longitude": "11990565.535286786", "trade": "手机维修", "source": "special", "score": "0.967578", "oldname": "四川达州授权维修站", "2tag": "维修点", "address": "四川省达州市文化街转转楼8号门市", "latitude": " 3615008.737763248", "guid": "81148ef4-c36c-11e7-9546-6c92bf041d56", "1tag": "生活服务"}
{"province": "四川省", "distance": 0.0, "sametype": "same", "thirdId": 0, "name": "四川乐山授权维修站", "city": "乐山市", "sub_source": "zhuaqu_meizuweixiu", "longitude": "11552834.546992987", "trade": "手机维修", "source": "special", "score": "0.970652", "oldname": "四川乐山授权维修站", "2tag": "维修点", "address": "乐山市市中区炎帝庙街111号", "latitude": " 3428346.8520854907", "guid": "8114f6c8-c36c-11e7-9403-6c92bf041d56", "1tag": "生活服务"}
{"province": "四川省", "distance": 0.0, "sametype": "same", "thirdId": 0, "name": "四川内江授权维修站", "city": "内江市", "sub_source": "zhuaqu_meizuweixiu", "longitude": "11697364.972859522", "trade": "手机维修", "source": "special", "score": "0.895152", "oldname": "四川内江授权维修站", "2tag": "维修点", "address": "四川省内江市市中区公园街甜城大厦10楼2号", "latitude": " 3430463.003814961", "guid": "81155eb0-c36c-11e7-9fbe-6c92bf041d56", "1tag": "生活服务"}
{"province": "四川省", "distance": 0.0, "sametype": "same", "thirdId": 0, "name": "四川南充授权维修站", "city": "南充市", "sub_source": "zhuaqu_meizuweixiu", "longitude": "11811096.476325663", "trade": "手机维修", "source": "special", "score": "0.951850", "oldname": "四川南充授权维修站", "2tag": "维修点", "address": "四川省南充市顺庆区人民中路108号3楼5号（邮电局正对面3楼）", "latitude": " 3585105.8441166487", "guid": "8115c5a8-c36c-11e7-8888-6c92bf041d56", "1tag": "生活服务"}
{"province": "四川省", "distance": 0.0, "sametype": "same", "thirdId": 0, "name": "四川资阳授权维修站", "city": "资阳市", "sub_source": "zhuaqu_meizuweixiu", "longitude": "11650648.762712242", "trade": "手机维修", "source": "special", "score": "0.959059", "oldname": "四川资阳授权维修站", "2tag": "维修点", "address": "四川省资阳市雁江区建设北路二段家乐福第一街达高国际一期13栋804", "latitude": " 3499186.944379852", "guid": "81163150-c36c-11e7-8d83-6c92bf041d56", "1tag": "生活服务"}
{"province": "四川省", "distance": 0.0, "sametype": "same", "thirdId": 0, "name": "四川广元授权维修站", "city": "广元市", "sub_source": "zhuaqu_meizuweixiu", "longitude": "11782199.282429561", "trade": "手机维修", "source": "special", "score": "0.975740", "oldname": "四川广元授权维修站", "2tag": "维修点", "address": "广元市利州区建设路凤凰国际商务港6楼1、2、3号", "latitude": " 3800228.1267188643", "guid": "8116992e-c36c-11e7-bb2d-6c92bf041d56", "1tag": "生活服务"}
{"province": "四川省", "distance": 0.0, "sametype": "same", "thirdId": 0, "name": "四川自贡授权维修站", "city": "自贡市", "sub_source": "zhuaqu_meizuweixiu", "longitude": "11665025.395863043", "trade": "手机维修", "source": "special", "score": "0.918822", "oldname": "四川自贡授权维修站", "2tag": "维修点", "address": "四川省自贡市自流井区檀木林街359号", "latitude": " 3401464.794615897", "guid": "811706de-c36c-11e7-ac44-6c92bf041d56", "1tag": "生活服务"}
{"province": "四川省", "distance": 0.0, "sametype": "same", "thirdId": 0, "name": "四川成都授权服务体验中心", "city": "成都市", "sub_source": "zhuaqu_meizuweixiu", "longitude": "11586947.515763726", "trade": "手机维修", "source": "special", "score": "0.953152", "oldname": "四川成都授权服务体验中心", "2tag": "维修点", "address": "成都市青羊区大墙西街33号鼓楼国际510室", "latitude": " 3568577.653655698", "guid": "81176c3c-c36c-11e7-a410-6c92bf041d56", "1tag": "生活服务"}
{"province": "四川省", "distance": 0.0, "sametype": "same", "thirdId": 0, "name": "四川德阳授权维修站", "city": "德阳市", "sub_source": "zhuaqu_meizuweixiu", "longitude": "11622887.11950083", "trade": "手机维修", "source": "special", "score": "0.985673", "oldname": "四川德阳授权维修站", "2tag": "维修点", "address": "四川省德阳市长江西路一段海正商务港商务楼502A", "latitude": " 3628549.548356645", "guid": "8117d488-c36c-11e7-bd4e-6c92bf041d56", "1tag": "生活服务"}
{"province": "四川省", "distance": 0.0, "sametype": "same", "thirdId": 0, "name": "四川绵阳授权维修站", "city": "绵阳市", "sub_source": "zhuaqu_meizuweixiu", "longitude": "11660990.672062328", "trade": "手机维修", "source": "special", "score": "0.948583", "oldname": "四川绵阳授权维修站", "2tag": "维修点", "address": "四川省绵阳长虹大道中段 崇尚国际3单元15楼5号", "latitude": " 3672541.6951698693", "guid": "81183ad6-c36c-11e7-b169-6c92bf041d56", "1tag": "生活服务"}
{"province": "四川省", "distance": 0.0, "sametype": "same", "thirdId": 0, "name": "四川攀枝花授权维修站", "city": "攀枝花市", "sub_source": "zhuaqu_meizuweixiu", "longitude": "11324604.034071874", "trade": "手机维修", "source": "special", "score": "0.977213", "oldname": "四川攀枝花授权维修站", "2tag": "维修点", "address": "四川省攀枝花市炳草岗东方新天地B栋2楼", "latitude": " 3053344.2054212904", "guid": "8118a642-c36c-11e7-9dda-6c92bf041d56", "1tag": "生活服务"}
{"province": "四川省", "distance": 0.0, "sametype": "same", "thirdId": 0, "name": "四川泸州授权维修站", "city": "泸州市", "sub_source": "zhuaqu_meizuweixiu", "longitude": "11740414.58545967", "trade": "手机维修", "source": "special", "score": "0.903012", "oldname": "四川泸州授权维修站", "2tag": "维修点", "address": "四川省泸州市江阳区江阳中路366号1栋701-702室", "latitude": " 3341412.3049718696", "guid": "81190ca4-c36c-11e7-b38e-6c92bf041d56", "1tag": "生活服务"}
{"province": "江西省", "distance": 0.0, "sametype": "same", "thirdId": 0, "name": "江西抚州授权维修站", "city": "抚州市", "sub_source": "zhuaqu_meizuweixiu", "longitude": "12954312.676849395", "trade": "手机维修", "source": "special", "score": "0.896439", "oldname": "江西抚州授权维修站", "2tag": "维修点", "address": "江西省抚州市赣东大道宾馆路9号（沃尔玛和第一人民医院中间的公元1959往下走靠右50米）", "latitude": " 3228995.5926500335", "guid": "81197ac2-c36c-11e7-af2d-6c92bf041d56", "1tag": "生活服务"}
{"province": "江西省", "distance": 0.0, "sametype": "same", "thirdId": 0, "name": "江西景德镇授权维修站", "city": "景德镇市", "sub_source": "zhuaqu_meizuweixiu", "longitude": "13049538.521437379", "trade": "手机维修", "source": "special", "score": "0.973598", "oldname": "江西景德镇授权维修站", "2tag": "维修点", "address": "景德镇市珠山中路群英街B2-12", "latitude": " 3393444.326584932", "guid": "8119df9e-c36c-11e7-b4c7-6c92bf041d56", "1tag": "生活服务"}
{"province": "江西省", "distance": 0.0, "sametype": "same", "thirdId": 0, "name": "江西南昌授权服务体验中心", "city": "南昌市", "sub_source": "zhuaqu_meizuweixiu", "longitude": "12903923.951910961", "trade": "手机维修", "source": "special", "score": "0.969866", "oldname": "江西南昌授权服务体验中心", "2tag": "维修点", "address": "江西省南昌市东湖区八一大道357号财富广场A座23层2302号房", "latitude": " 3315565.6177158556", "guid": "811a45c4-c36c-11e7-812c-6c92bf041d56", "1tag": "生活服务"}
{"province": "江西省", "distance": 0.0, "sametype": "same", "thirdId": 0, "name": "江西赣州授权服务体验中心", "city": "赣州市", "sub_source": "zhuaqu_meizuweixiu", "longitude": "12796342.270839518", "trade": "手机维修", "source": "special", "score": "0.973354", "oldname": "江西赣州授权服务体验中心", "2tag": "维修点", "address": "江西省赣州市东阳山路温州街3楼D18-19号", "latitude": " 2962986.1949797655", "guid": "811ab6d0-c36c-11e7-a543-6c92bf041d56", "1tag": "生活服务"}
{"province": "江西省", "distance": 0.0, "sametype": "same", "thirdId": 0, "name": "江西九江授权维修站", "city": "九江市", "sub_source": "zhuaqu_meizuweixiu", "longitude": "12912646.35905698", "trade": "手机维修", "source": "special", "score": "0.986752", "oldname": "江西九江授权维修站", "2tag": "维修点", "address": "江西省九江市浔阳路2号（新桥头）商务大楼9楼", "latitude": " 3447688.2584612626", "guid": "811b1c38-c36c-11e7-be54-6c92bf041d56", "1tag": "生活服务"}
{"province": "江西省", "distance": 0.0, "sametype": "same", "thirdId": 0, "name": "江西宜春授权服务体验中心", "city": "宜春市", "sub_source": "zhuaqu_meizuweixiu", "longitude": "12734433.28553007", "trade": "手机维修", "source": "special", "score": "0.996922", "oldname": "江西宜春授权服务体验中心", "2tag": "维修点", "address": "宜春市朝阳路215附5-6", "latitude": " 3204214.283810052", "guid": "811b8376-c36c-11e7-be0e-6c92bf041d56", "1tag": "生活服务"}
{"province": "江西省", "distance": 0.0, "sametype": "same", "thirdId": 0, "name": "江西上饶授权维修站", "city": "上饶市", "sub_source": "zhuaqu_meizuweixiu", "longitude": "13133937.255628603", "trade": "手机维修", "source": "special", "score": "0.929340", "oldname": "江西上饶授权维修站", "2tag": "维修点", "address": "江西省上饶市信洲区抗建路步行街33号华都大厦9楼D(4)室", "latitude": " 3285925.0118510765", "guid": "811bf1da-c36c-11e7-9826-6c92bf041d56", "1tag": "生活服务"}
{"province": "陕西省", "distance": 0.0, "sametype": "same", "thirdId": 0, "name": "陕西商洛授权维修站（捷迅科技）", "city": "商洛市", "sub_source": "zhuaqu_meizuweixiu", "longitude": "12239189.76904339", "trade": "手机维修", "source": "special", "score": "0.975366", "oldname": "陕西商洛授权维修站（捷迅科技）", "2tag": "维修点", "address": "陕西省商洛市商州区工农路59号(时代天元购物广场对面)", "latitude": " 3987935.4316705344", "guid": "811c5832-c36c-11e7-b82e-6c92bf041d56", "1tag": "生活服务"}
{"province": "陕西省", "distance": 0.0, "sametype": "same", "thirdId": 0, "name": "陕西安康授权维修站", "city": "安康市", "sub_source": "zhuaqu_meizuweixiu", "longitude": "12138076.78551439", "trade": "手机维修", "source": "special", "score": "0.952415", "oldname": "陕西安康授权维修站", "2tag": "维修点", "address": "陕西省安康市汉滨区大桥路1号南城国际1栋2单元507室", "latitude": " 3832650.3877240485", "guid": "811cc20e-c36c-11e7-bf4a-6c92bf041d56", "1tag": "生活服务"}
{"province": "陕西省", "distance": 0.0, "sametype": "same", "thirdId": 0, "name": "陕西榆林授权维修站", "city": "榆林市", "sub_source": "zhuaqu_meizuweixiu", "longitude": "12219482.684158599", "trade": "手机维修", "source": "special", "score": "0.919436", "oldname": "陕西榆林授权维修站", "2tag": "维修点", "address": "陕西省榆林市榆阳区新建南路6号（门口赛格北50米金域停车场入口9楼）", "latitude": " 4594844.460663151", "guid": "811d304a-c36c-11e7-860b-6c92bf041d56", "1tag": "生活服务"}
{"province": "陕西省", "distance": 0.0, "sametype": "same", "thirdId": 0, "name": "陕西汉中授权维修中心", "city": "汉中市", "sub_source": "zhuaqu_meizuweixiu", "longitude": "11915781.544139877", "trade": "手机维修", "source": "special", "score": "0.926956", "oldname": "陕西汉中授权维修中心", "2tag": "维修点", "address": "陕西省汉中市汉台区人民路与前进路十字东和尚品3楼", "latitude": " 3884157.912253436", "guid": "811d9cf6-c36c-11e7-9864-6c92bf041d56", "1tag": "生活服务"}
{"province": "陕西省", "distance": 0.0, "sametype": "same", "thirdId": 0, "name": "陕西延安授权维修站", "city": "延安市", "sub_source": "zhuaqu_meizuweixiu", "longitude": "12189723.251260621", "trade": "手机维修", "source": "special", "score": "0.918042", "oldname": "陕西延安授权维修站", "2tag": "维修点", "address": "延安市宝塔区中心街御城国际1107室（凤凰广场斜对面）", "latitude": " 4358927.059261638", "guid": "811e0452-c36c-11e7-85c4-6c92bf041d56", "1tag": "生活服务"}
{"province": "陕西省", "distance": 0.0, "sametype": "same", "thirdId": 0, "name": "陕西渭南授权维修站", "city": "渭南市", "sub_source": "zhuaqu_meizuweixiu", "longitude": "12190156.024640651", "trade": "手机维修", "source": "special", "score": "0.950019", "oldname": "陕西渭南授权维修站", "2tag": "维修点", "address": "渭南市临渭区中心广场智能大厦六楼", "latitude": " 4073136.264938493", "guid": "811e6eb0-c36c-11e7-9b93-6c92bf041d56", "1tag": "生活服务"}
{"province": "陕西省", "distance": 0.0, "sametype": "same", "thirdId": 0, "name": "陕西咸阳授权维修中心", "city": "咸阳市", "sub_source": "zhuaqu_meizuweixiu", "longitude": "12104193.894621387", "trade": "手机维修", "source": "special", "score": "0.932075", "oldname": "陕西咸阳授权维修中心", "2tag": "维修点", "address": "陕西省咸阳市渭城区永绥街峰汇国际大厦7楼4号", "latitude": " 4051291.3733248445", "guid": "811eda08-c36c-11e7-bbf2-6c92bf041d56", "1tag": "生活服务"}
{"province": "陕西省", "distance": 0.0, "sametype": "same", "thirdId": 0, "name": "陕西宝鸡授权服务体验中心", "city": "宝鸡市", "sub_source": "zhuaqu_meizuweixiu", "longitude": "11929947.971191553", "trade": "手机维修", "source": "special", "score": "0.980079", "oldname": "陕西宝鸡授权服务体验中心", "2tag": "维修点", "address": "陕西省宝鸡市渭滨区经二路18号天同国际广场A座2502", "latitude": " 4056041.6871402687", "guid": "811f4006-c36c-11e7-9a82-6c92bf041d56", "1tag": "生活服务"}
{"province": "陕西省", "distance": 0.0, "sametype": "same", "thirdId": 0, "name": "陕西铜川授权维修站（恒威商贸）", "city": "铜川市", "sub_source": "zhuaqu_meizuweixiu", "longitude": "12143099.899727685", "trade": "手机维修", "source": "special", "score": "0.974912", "oldname": "陕西铜川授权维修站（恒威商贸）", "2tag": "维修点", "address": "陕西省铜川市王益区红旗街铜川市市政园林管理局门面房", "latitude": " 4149457.1516792094", "guid": "811faa8c-c36c-11e7-989f-6c92bf041d56", "1tag": "生活服务"}
{"province": "陕西省", "distance": 0.0, "sametype": "same", "thirdId": 0, "name": "陕西西安授权服务体验中心", "city": "西安市", "sub_source": "zhuaqu_meizuweixiu", "longitude": "12129414.598418051", "trade": "手机维修", "source": "special", "score": "0.957647", "oldname": "陕西西安授权服务体验中心", "2tag": "维修点", "address": "西安市碑林区雁塔中路68号(鲁家村十字西南角)百脑汇电脑城北侧8B18室", "latitude": " 4036261.3366964078", "guid": "812013e6-c36c-11e7-8992-6c92bf041d56", "1tag": "生活服务"}
{"province": "甘肃省", "distance": 0.0, "sametype": "same", "thirdId": 0, "name": "甘肃平凉授权维修站", "city": "平凉市", "sub_source": "zhuaqu_meizuweixiu", "longitude": "11913807.911946386", "trade": "手机维修", "source": "special", "score": "0.958115", "oldname": "甘肃平凉授权维修站", "2tag": "维修点", "address": "甘肃省平凉市崆峒区南门什字王府井小区门面12号", "latitude": " 4232818.609829672", "guid": "81207d7c-c36c-11e7-ae2b-6c92bf041d56", "1tag": "生活服务"}
{"province": "甘肃省", "distance": 0.0, "sametype": "same", "thirdId": 0, "name": "甘肃兰州授权服务体验中心", "city": "兰州市", "sub_source": "zhuaqu_meizuweixiu", "longitude": "11560807.24657193", "trade": "手机维修", "source": "special", "score": "0.945736", "oldname": "甘肃兰州授权服务体验中心", "2tag": "维修点", "address": "兰州市城关区金昌路31号华洋品牌手机城6楼", "latitude": " 4284174.27671904", "guid": "8120e5dc-c36c-11e7-8bae-6c92bf041d56", "1tag": "生活服务"}
{"province": "甘肃省", "distance": 0.0, "sametype": "same", "thirdId": 0, "name": "甘肃庆阳授权维修站", "city": "庆阳市", "sub_source": "zhuaqu_meizuweixiu", "longitude": "11984596.464234319", "trade": "手机维修", "source": "special", "score": "0.981213", "oldname": "甘肃庆阳授权维修站", "2tag": "维修点", "address": "甘肃省庆阳市西峰区东大街53号", "latitude": " 4240799.804894835", "guid": "81214fe0-c36c-11e7-8751-6c92bf041d56", "1tag": "生活服务"}
{"province": "青海省", "distance": 0.0, "sametype": "same", "thirdId": 0, "name": "青海西宁授权服务体验中心", "city": "西宁市", "sub_source": "zhuaqu_meizuweixiu", "longitude": "11329533.297149258", "trade": "手机维修", "source": "special", "score": "0.963261", "oldname": "青海西宁授权服务体验中心", "2tag": "维修点", "address": "青海省西宁市城西区胜利路59号申宝大厦七层1071室", "latitude": " 4364360.670195591", "guid": "8121b8e0-c36c-11e7-af6f-6c92bf041d56", "1tag": "生活服务"}
{"province": "宁夏回族自治区", "distance": 0.0, "sametype": "same", "thirdId": 0, "name": "宁夏石嘴山授权维修站", "city": "石嘴山市", "sub_source": "zhuaqu_meizuweixiu", "longitude": "11843496.207270918", "trade": "手机维修", "source": "special", "score": "0.973197", "oldname": "宁夏石嘴山授权维修站", "2tag": "维修点", "address": "宁夏省石嘴山市大武口区人民路18号", "latitude": " 4698034.943672973", "guid": "812221cc-c36c-11e7-8644-6c92bf041d56", "1tag": "生活服务"}
{"province": "宁夏回族自治区", "distance": 0.0, "sametype": "same", "thirdId": 0, "name": "宁夏银川授权维修中心", "city": "银川市", "sub_source": "zhuaqu_meizuweixiu", "longitude": "11833280.442885203", "trade": "手机维修", "source": "special", "score": "0.965100", "oldname": "宁夏银川授权维修中心", "2tag": "维修点", "address": "宁夏省银川市兴庆区中山南街31号（宁报商务信息大厦）13楼1306室", "latitude": " 4619758.244150358", "guid": "812289b4-c36c-11e7-960e-6c92bf041d56", "1tag": "生活服务"}
{"province": "新疆维吾尔自治区", "distance": 0.0, "sametype": "same", "thirdId": 0, "name": "新疆乌鲁木齐授权服务体验中心", "city": "乌鲁木齐市", "sub_source": "zhuaqu_meizuweixiu", "longitude": "9754427.426400697", "trade": "手机维修", "source": "special", "score": "0.981863", "oldname": "新疆乌鲁木齐授权服务体验中心", "2tag": "维修点", "address": "新疆乌鲁木齐市中山路141号百花村软件园写字楼三楼D3-A", "latitude": " 5405717.334547804", "guid": "8122f318-c36c-11e7-99af-6c92bf041d56", "1tag": "生活服务"}
{"province": "贵州省", "distance": 0.0, "sametype": "same", "thirdId": 0, "name": "贵州贵阳授权服务体验中心", "city": "贵阳市", "sub_source": "zhuaqu_meizuweixiu", "longitude": "11880800.805087486", "trade": "手机维修", "source": "special", "score": "0.981187", "oldname": "贵州贵阳授权服务体验中心", "2tag": "维修点", "address": "贵州省贵阳市南明区中华南路和丰国际10-1", "latitude": " 3052437.9552224227", "guid": "81235bbe-c36c-11e7-b36c-6c92bf041d56", "1tag": "生活服务"}
{"province": "贵州省", "distance": 0.0, "sametype": "same", "thirdId": 0, "name": "贵州遵义授权维修站", "city": "遵义市", "sub_source": "zhuaqu_meizuweixiu", "longitude": "11905800.169898992", "trade": "手机维修", "source": "special", "score": "0.904813", "oldname": "贵州遵义授权维修站", "2tag": "维修点", "address": "贵州遵义市红花岗延安路帝豪大厦22楼8号", "latitude": " 3192004.748227549", "guid": "8123c3d8-c36c-11e7-91af-6c92bf041d56", "1tag": "生活服务"}
{"province": "贵州省", "distance": 0.0, "sametype": "same", "thirdId": 0, "name": "贵州毕节授权维修站（联合恒运）", "city": "毕节地区", "sub_source": "zhuaqu_meizuweixiu", "longitude": "11722110.729418274", "trade": "手机维修", "source": "special", "score": "0.959154", "oldname": "贵州毕节授权维修站（联合恒运）", "2tag": "维修点", "address": "贵州省毕节市七星关区清毕北路川滇商住楼魅族专卖店后面", "latitude": " 3142831.0994978934", "guid": "81242bca-c36c-11e7-9c2e-6c92bf041d56", "1tag": "生活服务"}
{"province": "云南省", "distance": 0.0, "sametype": "same", "thirdId": 0, "name": "云南昆明授权服务体验中心", "city": "昆明市", "sub_source": "zhuaqu_meizuweixiu", "longitude": "11437757.26325964", "trade": "手机维修", "source": "special", "score": "0.971662", "oldname": "云南昆明授权服务体验中心", "2tag": "维修点", "address": "云南省昆明市盘龙区环城东路279号星耀手机大楼10楼", "latitude": " 2864077.3076206543", "guid": "812494ac-c36c-11e7-879f-6c92bf041d56", "1tag": "生活服务"}
{"province": "云南省", "distance": 0.0, "sametype": "same", "thirdId": 0, "name": "云南曲靖授权维修站", "city": "曲靖市", "sub_source": "zhuaqu_meizuweixiu", "longitude": "11556113.355053134", "trade": "手机维修", "source": "special", "score": "0.903451", "oldname": "云南曲靖授权维修站", "2tag": "维修点", "address": "云南省曲靖市麒麟区南宁西路滇东商城1楼手机广场内魅族授权维修中心（小时代美食城旁）", "latitude": " 2919656.6570167667", "guid": "8124fd02-c36c-11e7-a7ff-6c92bf041d56", "1tag": "生活服务"}
{"province": "云南省", "distance": 0.0, "sametype": "same", "thirdId": 0, "name": "云南玉溪授权维修站", "city": "玉溪市", "sub_source": "zhuaqu_meizuweixiu", "longitude": "11417192.017100276", "trade": "手机维修", "source": "special", "score": "0.963242", "oldname": "云南玉溪授权维修站", "2tag": "维修点", "address": "云南省玉溪市红塔区小庙街10组团12号魅族授权服务体验中心（从小庙街一条龙直走进来皇冠蛋糕店右转上来", "latitude": " 2779078.160372554", "guid": "8125690e-c36c-11e7-92a3-6c92bf041d56", "1tag": "生活服务"}
{"province": "云南省", "distance": 0.0, "sametype": "same", "thirdId": 0, "name": "云南昭通授权维修站", "city": "昭通市", "sub_source": "zhuaqu_meizuweixiu", "longitude": "11547188.023299558", "trade": "手机维修", "source": "special", "score": "0.962410", "oldname": "云南昭通授权维修站", "2tag": "维修点", "address": "云南省昭通市昭阳区北顺城和公园路交叉口", "latitude": " 3147727.7971758754", "guid": "8125d150-c36c-11e7-87ee-6c92bf041d56", "1tag": "生活服务"}
{"province": "云南省", "distance": 0.0, "sametype": "same", "thirdId": 0, "name": "云南蒙自授权维修站", "city": "红河哈尼族彝族自治州", "sub_source": "zhuaqu_meizuweixiu", "longitude": "11512399.483478041", "trade": "手机维修", "source": "special", "score": "0.965340", "oldname": "云南蒙自授权维修站", "2tag": "维修点", "address": "云南省蒙自市人民东路27号魅族授权服务中心（玉皇阁旁）", "latitude": " 2660973.059481287", "guid": "81263d70-c36c-11e7-b9b6-6c92bf041d56", "1tag": "生活服务"}
{"province": "云南省", "distance": 0.0, "sametype": "same", "thirdId": 0, "name": "云南大理授权维修站", "city": "大理白族自治州", "sub_source": "zhuaqu_meizuweixiu", "longitude": "11158597.546703346", "trade": "手机维修", "source": "special", "score": "0.957804", "oldname": "云南大理授权维修站", "2tag": "维修点", "address": "云南省大理市下关关平路六合巷一栋一层7#", "latitude": " 2931224.7613671324", "guid": "8126a0bc-c36c-11e7-a6e8-6c92bf041d56", "1tag": "生活服务"}
{"province": "辽宁省", "distance": 0.0, "sametype": "same", "thirdId": 0, "name": "辽宁鞍山授权维修站", "city": "鞍山市", "sub_source": "zhuaqu_meizuweixiu", "longitude": "13693111.502073063", "trade": "手机维修", "source": "special", "score": "0.922264", "oldname": "辽宁鞍山授权维修站", "2tag": "维修点", "address": "辽宁省鞍山市铁东区国际明珠大厦1313房间", "latitude": " 5001931.198109144", "guid": "8127085e-c36c-11e7-910e-6c92bf041d56", "1tag": "生活服务"}
{"province": "辽宁省", "distance": 0.0, "sametype": "same", "thirdId": 0, "name": "辽宁大连授权服务体验中心", "city": "大连市", "sub_source": "zhuaqu_meizuweixiu", "longitude": "13536862.460597154", "trade": "手机维修", "source": "special", "score": "0.952806", "oldname": "辽宁大连授权服务体验中心", "2tag": "维修点", "address": "大连市沙河口区成义街8号君安国际大厦23楼2316室", "latitude": " 4683321.252963634", "guid": "81276e84-c36c-11e7-8c8c-6c92bf041d56", "1tag": "生活服务"}
{"province": "辽宁省", "distance": 0.0, "sametype": "same", "thirdId": 0, "name": "辽宁沈阳授权服务体验中心", "city": "沈阳市", "sub_source": "zhuaqu_meizuweixiu", "longitude": "13744334.47583891", "trade": "手机维修", "source": "special", "score": "0.978273", "oldname": "辽宁沈阳授权服务体验中心", "2tag": "维修点", "address": "沈阳市大东区小北关街35号邮政储蓄旁（魅族手机专卖店二楼）", "latitude": " 5106250.36197804", "guid": "8127d752-c36c-11e7-809b-6c92bf041d56", "1tag": "生活服务"}
{"province": "辽宁省", "distance": 0.0, "sametype": "same", "thirdId": 0, "name": "辽宁锦州授权维修站", "city": "锦州市", "sub_source": "zhuaqu_meizuweixiu", "longitude": "13486719.039029293", "trade": "手机维修", "source": "special", "score": "0.936144", "oldname": "辽宁锦州授权维修站", "2tag": "维修点", "address": "辽宁省锦州市古塔区解放路三段二轻眼镜楼下（解放路认证店）里屋", "latitude": " 5002837.9361842275", "guid": "81283dbe-c36c-11e7-bf8b-6c92bf041d56", "1tag": "生活服务"}
{"province": "吉林省", "distance": 0.0, "sametype": "same", "thirdId": 0, "name": "吉林长春授权服务体验中心", "city": "长春市", "sub_source": "zhuaqu_meizuweixiu", "longitude": "13950063.126051472", "trade": "手机维修", "source": "special", "score": "0.989653", "oldname": "吉林长春授权服务体验中心", "2tag": "维修点", "address": "吉林省长春市朝阳区红旗街百脑汇科技大厦26楼06室", "latitude": " 5416991.815361236", "guid": "8128a5d8-c36c-11e7-b96d-6c92bf041d56", "1tag": "生活服务"}
{"province": "吉林省", "distance": 0.0, "sametype": "same", "thirdId": 0, "name": "吉林授权维修站", "city": "吉林市", "sub_source": "zhuaqu_meizuweixiu", "longitude": "14090821.158953873", "trade": "手机维修", "source": "special", "score": "0.958016", "oldname": "吉林授权维修站", "2tag": "维修点", "address": "吉林省吉林市朝阳街北奇城市广场A座10楼1015室", "latitude": " 5414136.303697754", "guid": "81290ca8-c36c-11e7-bc93-6c92bf041d56", "1tag": "生活服务"}
{"province": "黑龙江省", "distance": 0.0, "sametype": "same", "thirdId": 0, "name": "黑龙江哈尔滨授权服务体验中心", "city": "哈尔滨市", "sub_source": "zhuaqu_meizuweixiu", "longitude": "14098043.242317852", "trade": "手机维修", "source": "special", "score": "0.981141", "oldname": "黑龙江哈尔滨授权服务体验中心", "2tag": "维修点", "address": "黑龙江省哈尔滨市南岗区教化电子大世界1616-1618", "latitude": " 5710980.540322775", "guid": "812976a2-c36c-11e7-89f1-6c92bf041d56", "1tag": "生活服务"}
{"province": "黑龙江省", "distance": 0.0, "sametype": "same", "thirdId": 0, "name": "黑龙江佳木斯授权维修站", "city": "佳木斯市", "sub_source": "zhuaqu_meizuweixiu", "longitude": "14513805.615363436", "trade": "手机维修", "source": "special", "score": "0.918924", "oldname": "黑龙江佳木斯授权维修站", "2tag": "维修点", "address": "黑龙江省佳木斯市向阳区中山街105号远大写字楼1701室", "latitude": " 5882173.183980749", "guid": "8129dc50-c36c-11e7-8bbd-6c92bf041d56", "1tag": "生活服务"}
{"province": "黑龙江省", "distance": 0.0, "sametype": "same", "thirdId": 0, "name": "黑龙江齐齐哈尔授权维修站", "city": "齐齐哈尔市", "sub_source": "zhuaqu_meizuweixiu", "longitude": "13800224.454224037", "trade": "手机维修", "source": "special", "score": "0.983719", "oldname": "黑龙江齐齐哈尔授权维修站", "2tag": "维修点", "address": "黑龙江省齐齐哈尔市龙沙区尚城国际写字间703室 ", "latitude": " 5968088.172531149", "guid": "812a44ec-c36c-11e7-a316-6c92bf041d56", "1tag": "生活服务"}
{"province": "黑龙江省", "distance": 0.0, "sametype": "same", "thirdId": 0, "name": "黑龙江牡丹江授权维修站", "city": "牡丹江市", "sub_source": "zhuaqu_meizuweixiu", "longitude": "14430493.209238056", "trade": "手机维修", "source": "special", "score": "0.986847", "oldname": "黑龙江牡丹江授权维修站", "2tag": "维修点", "address": "黑龙江省牡丹江市东安区七星街144号海通大厦802室", "latitude": " 5528082.333568457", "guid": "812aab62-c36c-11e7-8c37-6c92bf041d56", "1tag": "生活服务"}
{"province": "黑龙江省", "distance": 0.0, "sametype": "same", "thirdId": 0, "name": "黑龙江大庆授权维修站", "city": "大庆市", "sub_source": "zhuaqu_meizuweixiu", "longitude": "13927062.292876314", "trade": "手机维修", "source": "special", "score": "0.945996", "oldname": "黑龙江大庆授权维修站", "2tag": "维修点", "address": "黑龙江省大庆市萨尔图区东风路15-6号万达广场2#写字楼1905室", "latitude": " 5846576.755923074", "guid": "812b13cc-c36c-11e7-b1f0-6c92bf041d56", "1tag": "生活服务"}
{"province": "海南省", "distance": 0.0, "sametype": "same", "thirdId": 0, "name": "海南三亚授权服务体验中心", "city": "三亚市", "sub_source": "zhuaqu_meizuweixiu", "longitude": "12191549.268964747", "trade": "手机维修", "source": "special", "score": "0.982845", "oldname": "海南三亚授权服务体验中心", "2tag": "维修点", "address": "海南省三亚市解放路570号衍宏现代城（人民医院旁）1907室", "latitude": " 2055046.901006819", "guid": "812b7e0c-c36c-11e7-b58f-6c92bf041d56", "1tag": "生活服务"}
{"province": "海南省", "distance": 0.0, "sametype": "same", "thirdId": 0, "name": "海南海口授权服务体验中心", "city": "海口市", "sub_source": "zhuaqu_meizuweixiu", "longitude": "12285731.164314117", "trade": "手机维修", "source": "special", "score": "0.962700", "oldname": "海南海口授权服务体验中心", "2tag": "维修点", "address": "海南省海口市海府大道16号亚希商务大厦1103房", "latitude": " 2263426.231911185", "guid": "812be4fa-c36c-11e7-bb45-6c92bf041d56", "1tag": "生活服务"}
{"province": "广东省", "distance": 0.0, "sametype": "same", "thirdId": 0, "name": "广东肇庆授权服务体验中心", "city": "肇庆市", "sub_source": "zhuaqu_meizuweixiu", "longitude": "12521585.630238375", "trade": "手机维修", "source": "special", "score": "0.949076", "oldname": "广东肇庆授权服务体验中心", "2tag": "维修点", "address": "广东省肇庆市端州区天宁北路号广发银行大厦18E01", "latitude": " 2622843.055564378", "guid": "812c4c42-c36c-11e7-abf2-6c92bf041d56", "1tag": "生活服务"}
{"province": "广东省", "distance": 0.0, "sametype": "same", "thirdId": 0, "name": "广东湛江授权服务体验中心", "city": "湛江市", "sub_source": "zhuaqu_meizuweixiu", "longitude": "12291732.12083885", "trade": "手机维修", "source": "special", "score": "0.937813", "oldname": "广东湛江授权服务体验中心", "2tag": "维修点", "address": "广东省湛江市霞山区人民大道南50号国贸新天地数码城A1座20楼2010-2011", "latitude": " 2401857.943574145", "guid": "812cb60a-c36c-11e7-a108-6c92bf041d56", "1tag": "生活服务"}
{"province": "广东省", "distance": 0.0, "sametype": "same", "thirdId": 0, "name": "广东茂名授权服务体验中心", "city": "茂名市", "sub_source": "zhuaqu_meizuweixiu", "longitude": "12349660.414224787", "trade": "手机维修", "source": "special", "score": "0.969593", "oldname": "广东茂名授权服务体验中心", "2tag": "维修点", "address": "茂名市光华南路183号大院5号1302-1303房（人民广场对面摩根时代写字楼）", "latitude": " 2455068.78006598", "guid": "812d1ed8-c36c-11e7-8fff-6c92bf041d56", "1tag": "生活服务"}
{"province": "广东省", "distance": 0.0, "sametype": "same", "thirdId": 0, "name": "广东东莞授权服务体验中心", "city": "东莞市", "sub_source": "zhuaqu_meizuweixiu", "longitude": "12667464.495035132", "trade": "手机维修", "source": "special", "score": "0.869536", "oldname": "广东东莞授权服务体验中心", "2tag": "维修点", "address": "东莞市东城区世博广场K区世博大厦13楼 K1303", "latitude": " 2620561.108019924", "guid": "812d8594-c36c-11e7-bc14-6c92bf041d56", "1tag": "生活服务"}
{"province": "广东省", "distance": 0.0, "sametype": "same", "thirdId": 0, "name": "广东清远授权服务体验中心", "city": "清远市", "sub_source": "zhuaqu_meizuweixiu", "longitude": "12584084.945583379", "trade": "手机维修", "source": "special", "score": "0.978978", "oldname": "广东清远授权服务体验中心", "2tag": "维修点", "address": "清远市清城区先锋中路首座二楼", "latitude": " 2701893.0332355252", "guid": "812def2a-c36c-11e7-8b38-6c92bf041d56", "1tag": "生活服务"}
{"province": "广东省", "distance": 0.0, "sametype": "same", "thirdId": 0, "name": "广东珠海明珠授权服务体验中心", "city": "珠海市", "sub_source": "zhuaqu_meizuweixiu", "longitude": "12638569.020538272", "trade": "手机维修", "source": "special", "score": "0.970896", "oldname": "广东珠海明珠授权服务体验中心", "2tag": "维修点", "address": "珠海市翠微明珠南路3046号东环商业城9号商铺（翠微电脑城对面）", "latitude": " 2527452.8154936195", "guid": "812e551e-c36c-11e7-ab22-6c92bf041d56", "1tag": "生活服务"}
{"province": "广东省", "distance": 0.0, "sametype": "same", "thirdId": 0, "name": "广东汕头授权服务体验中心", "city": "汕头市", "sub_source": "zhuaqu_meizuweixiu", "longitude": "12993576.296609022", "trade": "手机维修", "source": "special", "score": "0.892482", "oldname": "广东汕头授权服务体验中心", "2tag": "维修点", "address": "广东省汕头市金沙路66号锦逸荣庭一栋105号铺面（金乐大酒店对面）", "latitude": " 2660628.0070335283", "guid": "812ebe14-c36c-11e7-b92c-6c92bf041d56", "1tag": "生活服务"}
{"province": "广东省", "distance": 0.0, "sametype": "same", "thirdId": 0, "name": "广东佛山授权服务体验中心", "city": "佛山市", "sub_source": "zhuaqu_meizuweixiu", "longitude": "12593174.052332", "trade": "手机维修", "source": "special", "score": "0.925813", "oldname": "广东佛山授权服务体验中心", "2tag": "维修点", "address": "广东省佛山市禅城区祖庙路33号百花广场13楼1329-1330单元", "latitude": " 2619799.3333684215", "guid": "812f2584-c36c-11e7-9cc7-6c92bf041d56", "1tag": "生活服务"}
{"province": "广东省", "distance": 0.0, "sametype": "same", "thirdId": 0, "name": "广东惠州授权服务体验中心", "city": "惠州市", "sub_source": "zhuaqu_meizuweixiu", "longitude": "12738118.320772877", "trade": "手机维修", "source": "special", "score": "0.896442", "oldname": "广东惠州授权服务体验中心", "2tag": "维修点", "address": "惠州市惠城区麦地路69号达利大厦21楼", "latitude": " 2625787.207048775", "guid": "812ff4d2-c36c-11e7-99f5-6c92bf041d56", "1tag": "生活服务"}
{"province": "广东省", "distance": 0.0, "sametype": "same", "thirdId": 0, "name": "广东广州越秀授权服务体验中心", "city": "广州市", "sub_source": "zhuaqu_meizuweixiu", "longitude": "12612088.001740552", "trade": "手机维修", "source": "special", "score": "0.990654", "oldname": "广东广州越秀授权服务体验中心", "2tag": "维修点", "address": "广州市越秀区陵园西路1号手机城3楼（中华广场对面）", "latitude": " 2632028.3938975907", "guid": "81305ddc-c36c-11e7-8686-6c92bf041d56", "1tag": "生活服务"}
{"province": "广东省", "distance": 0.0, "sametype": "same", "thirdId": 0, "name": "广东韶关授权服务体验中心", "city": "韶关市", "sub_source": "zhuaqu_meizuweixiu", "longitude": "12647744.261722466", "trade": "手机维修", "source": "special", "score": "0.931023", "oldname": "广东韶关授权服务体验中心", "2tag": "维修点", "address": "广东省韶关市浈江区北江北路1号财富广场A单元1807号", "latitude": " 2833800.866725868", "guid": "8130c524-c36c-11e7-9fc7-6c92bf041d56", "1tag": "生活服务"}
{"province": "广东省", "distance": 0.0, "sametype": "same", "thirdId": 0, "name": "广东深圳授权服务体验中心", "city": "深圳市", "sub_source": "zhuaqu_meizuweixiu", "longitude": "12701738.05902005", "trade": "手机维修", "source": "special", "score": "0.881034", "oldname": "广东深圳授权服务体验中心", "2tag": "维修点", "address": "深圳福田区华强北路新曼哈数码广场5楼501", "latitude": " 2562075.245303507", "guid": "81312d16-c36c-11e7-aad5-6c92bf041d56", "1tag": "生活服务"}
{"province": "广东省", "distance": 0.0, "sametype": "same", "thirdId": 0, "name": "广东揭阳授权服务体验中心", "city": "揭阳市", "sub_source": "zhuaqu_meizuweixiu", "longitude": "12955175.173915878", "trade": "手机维修", "source": "special", "score": "0.951389", "oldname": "广东揭阳授权服务体验中心", "2tag": "维修点", "address": "广东省揭阳市榕城区仁义路以东建阳路以南龙光花园西向117号铺", "latitude": " 2684213.945025121", "guid": "8131962a-c36c-11e7-aaa2-6c92bf041d56", "1tag": "生活服务"}
{"province": "广东省", "distance": 0.0, "sametype": "same", "thirdId": 0, "name": "广东潮州授权服务体验中心", "city": "潮州市", "sub_source": "zhuaqu_meizuweixiu", "longitude": "12984312.656814672", "trade": "手机维修", "source": "special", "score": "0.932962", "oldname": "广东潮州授权服务体验中心", "2tag": "维修点", "address": "广东省潮州市枫春路和谐港湾5号铺（潮州日报斜对面）", "latitude": " 2695875.390616943", "guid": "8131fdf4-c36c-11e7-a8da-6c92bf041d56", "1tag": "生活服务"}
{"province": "广东省", "distance": 0.0, "sametype": "same", "thirdId": 0, "name": "广东中山授权服务体验中心", "city": "中山市", "sub_source": "zhuaqu_meizuweixiu", "longitude": "12621506.069731075", "trade": "手机维修", "source": "special", "score": "0.933363", "oldname": "广东中山授权服务体验中心", "2tag": "维修点", "address": "广东省中山市石岐区安栏路中恳百货A座12楼D室", "latitude": " 2559038.113463942", "guid": "81326424-c36c-11e7-a4c9-6c92bf041d56", "1tag": "生活服务"}
{"province": "广西壮族自治区", "distance": 0.0, "sametype": "same", "thirdId": 0, "name": "广西北海授权维修站", "city": "北海市", "sub_source": "zhuaqu_meizuweixiu", "longitude": "12148997.36007836", "trade": "手机维修", "source": "special", "score": "0.864774", "oldname": "广西北海授权维修站", "2tag": "维修点", "address": "北海市海城区北海大道183号润发大厦1608号", "latitude": " 2433327.195482562", "guid": "8132ce00-c36c-11e7-bac8-6c92bf041d56", "1tag": "生活服务"}
{"province": "广西壮族自治区", "distance": 0.0, "sametype": "same", "thirdId": 0, "name": "广西钦州授权维修站", "city": "钦州市", "sub_source": "zhuaqu_meizuweixiu", "longitude": "12093644.564344546", "trade": "手机维修", "source": "special", "score": "0.857917", "oldname": "广西钦州授权维修站", "2tag": "维修点", "address": "广西省钦州市钦州湾大道78-3号魅族专卖店二楼（钦州湾广场对面工商银行旁边）", "latitude": " 2492780.930009627", "guid": "8133349e-c36c-11e7-9b3a-6c92bf041d56", "1tag": "生活服务"}
{"province": "广西壮族自治区", "distance": 0.0, "sametype": "same", "thirdId": 0, "name": "广西南宁授权服务体验中心", "city": "南宁市", "sub_source": "zhuaqu_meizuweixiu", "longitude": "12059985.313239656", "trade": "手机维修", "source": "special", "score": "0.957969", "oldname": "广西南宁授权服务体验中心", "2tag": "维修点", "address": "南宁市民生路38号南宁饭店A座13楼1306", "latitude": " 2594516.2104492174", "guid": "81339dc6-c36c-11e7-88bb-6c92bf041d56", "1tag": "生活服务"}
{"province": "广西壮族自治区", "distance": 0.0, "sametype": "same", "thirdId": 0, "name": "广西桂林象山授权服务体验中心", "city": "桂林市", "sub_source": "zhuaqu_meizuweixiu", "longitude": "12278280.00170188", "trade": "手机维修", "source": "special", "score": "0.946066", "oldname": "广西桂林象山授权服务体验中心", "2tag": "维修点", "address": "广西壮族自治区桂林市象山区中山南路35号（经贸大厦8楼20号，火车站旁）", "latitude": " 2890775.573402647", "guid": "8134046e-c36c-11e7-ae83-6c92bf041d56", "1tag": "生活服务"}
{"province": "广西壮族自治区", "distance": 0.0, "sametype": "same", "thirdId": 0, "name": "广西柳州授权服务体验中心", "city": "柳州市", "sub_source": "zhuaqu_meizuweixiu", "longitude": "12183766.815824619", "trade": "手机维修", "source": "special", "score": "0.933316", "oldname": "广西柳州授权服务体验中心", "2tag": "维修点", "address": "广西柳州市桂中大道阳光100城市广场3号楼20层2012室（丽笙酒店旁）", "latitude": " 2776716.263075634", "guid": "81346b70-c36c-11e7-a374-6c92bf041d56", "1tag": "生活服务"}
{"province": "广西壮族自治区", "distance": 0.0, "sametype": "same", "thirdId": 0, "name": "广西玉林授权服务体验中心", "city": "玉林市", "sub_source": "zhuaqu_meizuweixiu", "longitude": "12263827.14960091", "trade": "手机维修", "source": "special", "score": "0.933699", "oldname": "广西玉林授权服务体验中心", "2tag": "维修点", "address": "广西省玉林市人民中路东门广场黄河汇聚商务中心1312室", "latitude": " 2572146.91377825", "guid": "8134d31c-c36c-11e7-a303-6c92bf041d56", "1tag": "生活服务"}
{"province": "广西壮族自治区", "distance": 0.0, "sametype": "same", "thirdId": 0, "name": "广西贵港授权维修站", "city": "贵港市", "sub_source": "zhuaqu_meizuweixiu", "longitude": "12202374.21831262", "trade": "手机维修", "source": "special", "score": "0.865389", "oldname": "广西贵港授权维修站", "2tag": "维修点", "address": "广西省贵港市港北区港宝街国际生活港0924号", "latitude": " 2628766.2267431263", "guid": "81353cda-c36c-11e7-b6cc-6c92bf041d56", "1tag": "生活服务"}
{"province": "湖北省", "distance": 0.0, "sametype": "same", "thirdId": 0, "name": "湖北荆州授权服务体验中心", "city": "荆州市", "sub_source": "zhuaqu_meizuweixiu", "longitude": "12498456.222807702", "trade": "手机维修", "source": "special", "score": "0.958154", "oldname": "湖北荆州授权服务体验中心", "2tag": "维修点", "address": "湖北省荆州市沙市区红门路维多利亚酒店四楼", "latitude": " 3522733.8119920087", "guid": "81360b10-c36c-11e7-b127-6c92bf041d56", "1tag": "生活服务"}
{"province": "湖北省", "distance": 0.0, "sametype": "same", "thirdId": 0, "name": "湖北荆门授权维修中心", "city": "荆门市", "sub_source": "zhuaqu_meizuweixiu", "longitude": "12492474.770888751", "trade": "手机维修", "source": "special", "score": "0.937117", "oldname": "湖北荆门授权维修中心", "2tag": "维修点", "address": "湖北省荆门市东宝区北门路9号电脑街", "latitude": " 3616393.9182989243", "guid": "8136723a-c36c-11e7-9ced-6c92bf041d56", "1tag": "生活服务"}
{"province": "湖北省", "distance": 0.0, "sametype": "same", "thirdId": 0, "name": "湖北孝感授权维修中心", "city": "孝感市", "sub_source": "zhuaqu_meizuweixiu", "longitude": "12681985.500994196", "trade": "手机维修", "source": "special", "score": "0.955516", "oldname": "湖北孝感授权维修中心", "2tag": "维修点", "address": "湖北省孝感市孝南区后湖御景2号楼幢1层112号房", "latitude": " 3602187.989427346", "guid": "8136da86-c36c-11e7-a269-6c92bf041d56", "1tag": "生活服务"}
{"province": "湖北省", "distance": 0.0, "sametype": "same", "thirdId": 0, "name": "湖北恩施冠恒授权维修站", "city": "恩施土家族苗族自治州", "sub_source": "zhuaqu_meizuweixiu", "longitude": "12189328.447674818", "trade": "手机维修", "source": "special", "score": "0.985907", "oldname": "湖北恩施冠恒授权维修站", "2tag": "维修点", "address": "湖北省恩施土家族苗族自治州恩施市舞阳大道2号百信通讯广场魅族售后", "latitude": " 3518349.89881819", "guid": "81374188-c36c-11e7-a2ff-6c92bf041d56", "1tag": "生活服务"}
{"province": "湖北省", "distance": 0.0, "sametype": "same", "thirdId": 0, "name": "湖北黄石授权维修中心", "city": "黄石市", "sub_source": "zhuaqu_meizuweixiu", "longitude": "12813021.81676459", "trade": "手机维修", "source": "special", "score": "0.893818", "oldname": "湖北黄石授权维修中心", "2tag": "维修点", "address": "黄石市黄石大道796号康家.知本大厦6楼611号", "latitude": " 3511427.561096327", "guid": "8137ad1c-c36c-11e7-ba58-6c92bf041d56", "1tag": "生活服务"}
{"province": "湖北省", "distance": 0.0, "sametype": "same", "thirdId": 0, "name": "湖北十堰授权维修中心", "city": "十堰市", "sub_source": "zhuaqu_meizuweixiu", "longitude": "12334386.664472286", "trade": "手机维修", "source": "special", "score": "0.910137", "oldname": "湖北十堰授权维修中心", "2tag": "维修点", "address": "湖北省十堰市茅箭区香港街24号都市公寓小区1号楼2-1", "latitude": " 3826064.5266668177", "guid": "81380fdc-c36c-11e7-8d8d-6c92bf041d56", "1tag": "生活服务"}
{"province": "湖北省", "distance": 0.0, "sametype": "same", "thirdId": 0, "name": "湖北武汉授权服务体验中心", "city": "武汉市", "sub_source": "zhuaqu_meizuweixiu", "longitude": "12724790.829686256", "trade": "手机维修", "source": "special", "score": "0.943735", "oldname": "湖北武汉授权服务体验中心", "2tag": "维修点", "address": "武汉市江岸区大智路一号吉庆民俗街一期第一栋709室", "latitude": " 3558702.653411845", "guid": "813877c4-c36c-11e7-b195-6c92bf041d56", "1tag": "生活服务"}
{"province": "湖北省", "distance": 0.0, "sametype": "same", "thirdId": 0, "name": "湖北襄阳授权维修中心", "city": "襄阳市", "sub_source": "zhuaqu_meizuweixiu", "longitude": "12484448.938755523", "trade": "手机维修", "source": "special", "score": "0.913278", "oldname": "湖北襄阳授权维修中心", "2tag": "维修点", "address": "湖北省襄阳市樊城区长虹路谷山大厦A座1406室", "latitude": " 3748459.926150055", "guid": "8138e9e8-c36c-11e7-ba0a-6c92bf041d56", "1tag": "生活服务"}
{"province": "湖北省", "distance": 0.0, "sametype": "same", "thirdId": 0, "name": "湖北宜昌授权维修中心", "city": "宜昌市", "sub_source": "zhuaqu_meizuweixiu", "longitude": "12390683.120695671", "trade": "手机维修", "source": "special", "score": "0.943056", "oldname": "湖北宜昌授权维修中心", "2tag": "维修点", "address": "湖北省宜昌市东山大道109号卓悦通信广场一楼", "latitude": " 3573333.363579487", "guid": "81394fdc-c36c-11e7-ac9f-6c92bf041d56", "1tag": "生活服务"}
{"province": "湖南省", "distance": 0.0, "sametype": "same", "thirdId": 0, "name": "湖南湘潭授权维修站", "city": "湘潭市", "sub_source": "zhuaqu_meizuweixiu", "longitude": "12570351.563705584", "trade": "手机维修", "source": "special", "score": "0.982781", "oldname": "湖南湘潭授权维修站", "2tag": "维修点", "address": "湖南省湘潭市建设北路5号潭城大厦6楼623-625室", "latitude": " 3212627.2047579875", "guid": "8139b77e-c36c-11e7-b770-6c92bf041d56", "1tag": "生活服务"}
{"province": "湖南省", "distance": 0.0, "sametype": "same", "thirdId": 0, "name": "湖南株洲授权维修站", "city": "株洲市", "sub_source": "zhuaqu_meizuweixiu", "longitude": "12597510.049040325", "trade": "手机维修", "source": "special", "score": "0.966865", "oldname": "湖南株洲授权维修站", "2tag": "维修点", "address": "湖南省株洲市芦淞区建设南路中心广场家润多广场B座12楼1202室", "latitude": " 3209817.815336126", "guid": "813a25f6-c36c-11e7-a128-6c92bf041d56", "1tag": "生活服务"}
{"province": "湖南省", "distance": 0.0, "sametype": "same", "thirdId": 0, "name": "湖南长沙授权服务体验中心", "city": "长沙市", "sub_source": "zhuaqu_meizuweixiu", "longitude": "12579497.337582482", "trade": "手机维修", "source": "special", "score": "0.940847", "oldname": "湖南长沙授权服务体验中心", "2tag": "维修点", "address": "长沙市芙蓉区五一大道389号华美欧大厦(韭菜园路口)906室", "latitude": " 3254597.0778139993", "guid": "813a8b4a-c36c-11e7-9cc9-6c92bf041d56", "1tag": "生活服务"}
{"province": "湖南省", "distance": 0.0, "sametype": "same", "thirdId": 0, "name": "湖南娄底授权维修站", "city": "娄底市", "sub_source": "zhuaqu_meizuweixiu", "longitude": "12470187.497502359", "trade": "手机维修", "source": "special", "score": "0.951048", "oldname": "湖南娄底授权维修站", "2tag": "维修点", "address": "湖南省娄底市娄星区氐星路新一佳对面SOHO商都1409室", "latitude": " 3196584.528168925", "guid": "813af332-c36c-11e7-9476-6c92bf041d56", "1tag": "生活服务"}
{"province": "湖南省", "distance": 0.0, "sametype": "same", "thirdId": 0, "name": "湖南常德授权维修站", "city": "常德市", "sub_source": "zhuaqu_meizuweixiu", "longitude": "12434956.788312782", "trade": "手机维修", "source": "special", "score": "0.979029", "oldname": "湖南常德授权维修站", "2tag": "维修点", "address": "湖南省常德市武陵区步行街新正华大厦1816", "latitude": " 3355120.6783912526", "guid": "813b5cfa-c36c-11e7-949e-6c92bf041d56", "1tag": "生活服务"}
{"province": "湖南省", "distance": 0.0, "sametype": "same", "thirdId": 0, "name": "湖南岳阳授权维修站", "city": "岳阳市", "sub_source": "zhuaqu_meizuweixiu", "longitude": "12592535.161230791", "trade": "手机维修", "source": "special", "score": "0.968486", "oldname": "湖南岳阳授权维修站", "2tag": "维修点", "address": "湖南省岳阳市楼区步行街君临新世界C座2022室", "latitude": " 3403699.513106253", "guid": "813bc3e8-c36c-11e7-bbc8-6c92bf041d56", "1tag": "生活服务"}
{"province": "湖南省", "distance": 0.0, "sametype": "same", "thirdId": 0, "name": "湖南邵阳授权维修站", "city": "邵阳市", "sub_source": "zhuaqu_meizuweixiu", "longitude": "12411550.76518988", "trade": "手机维修", "source": "special", "score": "0.952847", "oldname": "湖南邵阳授权维修站", "2tag": "维修点", "address": "湖南省邵阳市双清区五一南路大汉步行街B2栋1013-1015号", "latitude": " 3134454.570888303", "guid": "813c29d2-c36c-11e7-9646-6c92bf041d56", "1tag": "生活服务"}
{"province": "湖南省", "distance": 0.0, "sametype": "same", "thirdId": 0, "name": "湖南衡阳授权维修站", "city": "衡阳市", "sub_source": "zhuaqu_meizuweixiu", "longitude": "12536590.830817077", "trade": "手机维修", "source": "special", "score": "0.969082", "oldname": "湖南衡阳授权维修站", "2tag": "维修点", "address": "湖南省衡阳市解放路中建国际大厦写字楼16楼16007", "latitude": " 3092397.2334576175", "guid": "813c9192-c36c-11e7-9108-6c92bf041d56", "1tag": "生活服务"}
{"province": "湖南省", "distance": 0.0, "sametype": "same", "thirdId": 0, "name": "湖南益阳授权维修站", "city": "益阳市", "sub_source": "zhuaqu_meizuweixiu", "longitude": "12508567.785504296", "trade": "手机维修", "source": "special", "score": "0.955757", "oldname": "湖南益阳授权维修站", "2tag": "维修点", "address": "益阳市赫山区桃花仑西路市一中18号-19号门面", "latitude": " 3303431.282836491", "guid": "813cf7fe-c36c-11e7-83e8-6c92bf041d56", "1tag": "生活服务"}
{"province": "湖南省", "distance": 0.0, "sametype": "same", "thirdId": 0, "name": "湖南怀化授权维修站", "city": "怀化市", "sub_source": "zhuaqu_meizuweixiu", "longitude": "12243255.301238813", "trade": "手机维修", "source": "special", "score": "0.960990", "oldname": "湖南怀化授权维修站", "2tag": "维修点", "address": "怀化市鹤城区人民南路新悦城1413室", "latitude": " 3173659.0581552954", "guid": "813d622a-c36c-11e7-977d-6c92bf041d56", "1tag": "生活服务"}
{"province": "湖南省", "distance": 0.0, "sametype": "same", "thirdId": 0, "name": "湖南永州授权维修站", "city": "永州市", "sub_source": "zhuaqu_meizuweixiu", "longitude": "12425466.051201563", "trade": "手机维修", "source": "special", "score": "0.938138", "oldname": "湖南永州授权维修站", "2tag": "维修点", "address": "湖南省永州市冷水滩梅湾路594号（梅湾小学公交车站旁边）", "latitude": " 3035260.1884755157", "guid": "813dc896-c36c-11e7-b529-6c92bf041d56", "1tag": "生活服务"}
{"province": "湖南省", "distance": 0.0, "sametype": "same", "thirdId": 0, "name": "湖南郴州授权维修站", "city": "郴州市", "sub_source": "zhuaqu_meizuweixiu", "longitude": "12583951.986457068", "trade": "手机维修", "source": "special", "score": "0.895628", "oldname": "湖南郴州授权维修站", "2tag": "维修点", "address": "郴州市北湖区升平路13号", "latitude": " 2958009.745274089", "guid": "813e2fd4-c36c-11e7-9921-6c92bf041d56", "1tag": "生活服务"}
{"province": "河南省", "distance": 0.0, "sametype": "same", "thirdId": 0, "name": "河南周口授权服务体验中心", "city": "周口市", "sub_source": "zhuaqu_meizuweixiu", "longitude": "12764227.025178693", "trade": "手机维修", "source": "special", "score": "0.957190", "oldname": "河南周口授权服务体验中心", "2tag": "维修点", "address": "河南省周口市川汇区七一路与五一路交叉口万顺达商厦8楼", "latitude": " 3955211.9491369897", "guid": "813e95d2-c36c-11e7-85dd-6c92bf041d56", "1tag": "生活服务"}
{"province": "河南省", "distance": 0.0, "sametype": "same", "thirdId": 0, "name": "河南三门峡授权服务体验中心", "city": "三门峡市", "sub_source": "zhuaqu_meizuweixiu", "longitude": "12380763.293610964", "trade": "手机维修", "source": "special", "score": "0.983918", "oldname": "河南三门峡授权服务体验中心", "2tag": "维修点", "address": "河南省三门峡市湖滨区黄河路陕源路交叉口千禧百货13楼1305室", "latitude": " 4111016.540999818", "guid": "813eff68-c36c-11e7-8625-6c92bf041d56", "1tag": "生活服务"}
{"province": "河南省", "distance": 0.0, "sametype": "same", "thirdId": 0, "name": "河南许昌授权服务体验中心", "city": "许昌市", "sub_source": "zhuaqu_meizuweixiu", "longitude": "12671320.424915988", "trade": "手机维修", "source": "special", "score": "0.968527", "oldname": "河南许昌授权服务体验中心", "2tag": "维修点", "address": "许昌市魏都区光明路时代皇庭北侧门面", "latitude": " 4008448.1564485063", "guid": "813f6b56-c36c-11e7-ba56-6c92bf041d56", "1tag": "生活服务"}
{"province": "河南省", "distance": 0.0, "sametype": "same", "thirdId": 0, "name": "河南漯河授权服务体验中心", "city": "漯河市", "sub_source": "zhuaqu_meizuweixiu", "longitude": "12696404.962957993", "trade": "手机维修", "source": "special", "score": "0.980177", "oldname": "河南漯河授权服务体验中心", "2tag": "维修点", "address": "漯河市交通路与人民路交叉口向东100米华东商务中心1503", "latitude": " 3948882.4478495563", "guid": "813fd492-c36c-11e7-8812-6c92bf041d56", "1tag": "生活服务"}
{"province": "河南省", "distance": 0.0, "sametype": "same", "thirdId": 0, "name": "河南信阳授权服务体验中心", "city": "信阳市", "sub_source": "zhuaqu_meizuweixiu", "longitude": "12700345.55151996", "trade": "手机维修", "source": "special", "score": "0.970927", "oldname": "河南信阳授权服务体验中心", "2tag": "维修点", "address": "河南省信阳市浉河区东方红大道亚兴大厦18楼1805室", "latitude": " 3758003.369654636", "guid": "81403c0c-c36c-11e7-a06f-6c92bf041d56", "1tag": "生活服务"}
{"province": "河南省", "distance": 0.0, "sametype": "same", "thirdId": 0, "name": "河南商丘授权服务体验中心", "city": "商丘市", "sub_source": "zhuaqu_meizuweixiu", "longitude": "12875593.219405333", "trade": "手机维修", "source": "special", "score": "0.976451", "oldname": "河南商丘授权服务体验中心", "2tag": "维修点", "address": "河南省商丘市中心广场华联国贸中心公寓楼A座25楼", "latitude": " 4065519.1053873007", "guid": "8140a610-c36c-11e7-8b10-6c92bf041d56", "1tag": "生活服务"}
{"province": "河南省", "distance": 0.0, "sametype": "same", "thirdId": 0, "name": "河南郑州授权服务体验中心", "city": "郑州市", "sub_source": "zhuaqu_meizuweixiu", "longitude": "12655978.411152005", "trade": "手机维修", "source": "special", "score": "0.906002", "oldname": "河南郑州授权服务体验中心", "2tag": "维修点", "address": "郑州市金水区农业路与经五路交叉口国际企业中心B座东402室", "latitude": " 4111728.78276626", "guid": "81410c0e-c36c-11e7-b458-6c92bf041d56", "1tag": "生活服务"}
{"province": "河南省", "distance": 0.0, "sametype": "same", "thirdId": 0, "name": "河南驻马店授权服务体验中心", "city": "驻马店市", "sub_source": "zhuaqu_meizuweixiu", "longitude": "12695749.730124198", "trade": "手机维修", "source": "special", "score": "0.922754", "oldname": "河南驻马店授权服务体验中心", "2tag": "维修点", "address": "河南省驻马店市解放路与乐山路交叉口新百汇大厦A座11层2号", "latitude": " 3870215.3746682885", "guid": "81417568-c36c-11e7-8922-6c92bf041d56", "1tag": "生活服务"}
{"province": "河南省", "distance": 0.0, "sametype": "same", "thirdId": 0, "name": "河南洛阳授权服务体验中心", "city": "洛阳市", "sub_source": "zhuaqu_meizuweixiu", "longitude": "12517609.703290489", "trade": "手机维修", "source": "special", "score": "0.963664", "oldname": "河南洛阳授权服务体验中心", "2tag": "维修点", "address": "河南省洛阳市西工区九都路与芳林南路交叉口红东方商务楼23楼2313室", "latitude": " 4094806.34466509", "guid": "8141dcf6-c36c-11e7-8486-6c92bf041d56", "1tag": "生活服务"}
{"province": "河南省", "distance": 0.0, "sametype": "same", "thirdId": 0, "name": "河南开封授权服务体验中心", "city": "开封市", "sub_source": "zhuaqu_meizuweixiu", "longitude": "12731024.194791352", "trade": "手机维修", "source": "special", "score": "0.932199", "oldname": "河南开封授权服务体验中心", "2tag": "维修点", "address": "河南省开封市中山路北段铜锣湾中山大厦15楼D座（横店电影城对面）", "latitude": " 4113248.342947752", "guid": "8142459c-c36c-11e7-8eb6-6c92bf041d56", "1tag": "生活服务"}
{"province": "河南省", "distance": 0.0, "sametype": "same", "thirdId": 0, "name": "河南安阳授权服务体验中心", "city": "安阳市", "sub_source": "zhuaqu_meizuweixiu", "longitude": "12731805.68611616", "trade": "手机维修", "source": "special", "score": "0.965000", "oldname": "河南安阳授权服务体验中心", "2tag": "维修点", "address": "安阳市文峰区北门东街鑫雅苑三号营业房", "latitude": " 4291111.671951181", "guid": "8142b02c-c36c-11e7-a0eb-6c92bf041d56", "1tag": "生活服务"}
{"province": "河南省", "distance": 0.0, "sametype": "same", "thirdId": 0, "name": "河南平顶山授权服务体验中心", "city": "平顶山市", "sub_source": "zhuaqu_meizuweixiu", "longitude": "12611708.871773116", "trade": "手机维修", "source": "special", "score": "0.973504", "oldname": "河南平顶山授权服务体验中心", "2tag": "维修点", "address": "河南省平顶山市新华区凌云路怡购城3B街区3楼11-12室", "latitude": " 3972337.8959399923", "guid": "81431634-c36c-11e7-87f2-6c92bf041d56", "1tag": "生活服务"}
{"province": "河南省", "distance": 0.0, "sametype": "same", "thirdId": 0, "name": "河南新乡授权服务体验中心", "city": "新乡市", "sub_source": "zhuaqu_meizuweixiu", "longitude": "12683469.012035852", "trade": "手机维修", "source": "special", "score": "0.976790", "oldname": "河南新乡授权服务体验中心", "2tag": "维修点", "address": "河南省新乡市红旗区平原路与新二街交叉口国贸大厦B座12楼", "latitude": " 4181922.0591728846", "guid": "81437c14-c36c-11e7-82c6-6c92bf041d56", "1tag": "生活服务"}
{"province": "河南省", "distance": 0.0, "sametype": "same", "thirdId": 0, "name": "河南鹤壁授权服务体验中心", "city": "鹤壁市", "sub_source": "zhuaqu_meizuweixiu", "longitude": "12724490.288187485", "trade": "手机维修", "source": "special", "score": "0.985335", "oldname": "河南鹤壁授权服务体验中心", "2tag": "维修点", "address": "河南省鹤壁市淇滨区兴鹤大街与淇河路交叉口新华大厦10楼", "latitude": " 4243157.915330212", "guid": "8143e654-c36c-11e7-ac33-6c92bf041d56", "1tag": "生活服务"}
{"province": "河南省", "distance": 0.0, "sametype": "same", "thirdId": 0, "name": "河南濮阳授权服务体验中心", "city": "濮阳市", "sub_source": "zhuaqu_meizuweixiu", "longitude": "12806860.289044827", "trade": "手机维修", "source": "special", "score": "0.970212", "oldname": "河南濮阳授权服务体验中心", "2tag": "维修点", "address": "河南省濮阳市华龙区振兴路与黄河路交叉口往北200米路东赛博大厦14楼1402室", "latitude": " 4244406.6793157095", "guid": "81444d2e-c36c-11e7-b661-6c92bf041d56", "1tag": "生活服务"}
{"province": "河南省", "distance": 0.0, "sametype": "same", "thirdId": 0, "name": "河南焦作授权服务体验中心", "city": "焦作市", "sub_source": "zhuaqu_meizuweixiu", "longitude": "12608354.286352651", "trade": "手机维修", "source": "special", "score": "0.980192", "oldname": "河南焦作授权服务体验中心", "2tag": "维修点", "address": "河南省焦作市山阳区塔南路与站前路交叉口华融国际大厦20楼13号", "latitude": " 4171526.3081322075", "guid": "8144b660-c36c-11e7-903b-6c92bf041d56", "1tag": "生活服务"}
{"province": "河南省", "distance": 0.0, "sametype": "same", "thirdId": 0, "name": "河南济源授权服务体验中心", "city": "济源市", "sub_source": "zhuaqu_meizuweixiu", "longitude": "12535449.48907462", "trade": "手机维修", "source": "special", "score": "0.972841", "oldname": "河南济源授权服务体验中心", "2tag": "维修点", "address": "河南省济源市宣化街中段曼哈顿广场B座6楼611室", "latitude": " 4153142.5135021964", "guid": "81451e48-c36c-11e7-a364-6c92bf041d56", "1tag": "生活服务"}
{"province": "河南省", "distance": 0.0, "sametype": "same", "thirdId": 0, "name": "河南南阳授权服务体验中心", "city": "南阳市", "sub_source": "zhuaqu_meizuweixiu", "longitude": "12527735.116659844", "trade": "手机维修", "source": "special", "score": "0.982456", "oldname": "河南南阳授权服务体验中心", "2tag": "维修点", "address": "南阳市卧龙区新华西路与工业南路交叉口兴达国际19楼", "latitude": " 3873027.04928118", "guid": "8145868a-c36c-11e7-b9d9-6c92bf041d56", "1tag": "生活服务"}
{"province": "北京", "distance": 0.0, "sametype": "same", "thirdId": 0, "name": "北京授权服务体验中心", "city": "北京市", "sub_source": "zhuaqu_meizuweixiu", "longitude": "12950844.200028528", "trade": "手机维修", "source": "special", "score": "0.974616", "oldname": "北京授权服务体验中心", "2tag": "维修点", "address": "北京市海淀区中关村南大街甲6号铸诚大厦B座806室（友谊宾馆东门正对面）", "latitude": " 4834743.515706293", "guid": "8145eda0-c36c-11e7-842d-6c92bf041d56", "1tag": "生活服务"}
{"province": "河北省", "distance": 0.0, "sametype": "same", "thirdId": 0, "name": "河北邯郸授权服务体验中心", "city": "邯郸市", "sub_source": "zhuaqu_meizuweixiu", "longitude": "12747912.401488855", "trade": "手机维修", "source": "special", "score": "0.967272", "oldname": "河北邯郸授权服务体验中心", "2tag": "维修点", "address": "河北省邯郸市光明大街恒亿大厦A座9层901号", "latitude": " 4360596.467436571", "guid": "814657f4-c36c-11e7-9822-6c92bf041d56", "1tag": "生活服务"}
{"province": "河北省", "distance": 0.0, "sametype": "same", "thirdId": 0, "name": "河北邢台授权服务体验中心", "city": "邢台市", "sub_source": "zhuaqu_meizuweixiu", "longitude": "12745893.313084733", "trade": "手机维修", "source": "special", "score": "0.937558", "oldname": "河北邢台授权服务体验中心", "2tag": "维修点", "address": "河北省邢台市桥西区中北世纪城集中商业三底商14-15号", "latitude": " 4423535.540567023", "guid": "8146bdf2-c36c-11e7-bb9a-6c92bf041d56", "1tag": "生活服务"}
{"province": "河北省", "distance": 0.0, "sametype": "same", "thirdId": 0, "name": "河北保定授权服务体验中心", "city": "保定市", "sub_source": "zhuaqu_meizuweixiu", "longitude": "12857730.35729389", "trade": "手机维修", "source": "special", "score": "0.951139", "oldname": "河北保定授权服务体验中心", "2tag": "维修点", "address": "河北省保定市裕华路华创国际广场写字楼16楼1606", "latitude": " 4676264.9486837275", "guid": "814726b6-c36c-11e7-9ee0-6c92bf041d56", "1tag": "生活服务"}
{"province": "河北省", "distance": 0.0, "sametype": "same", "thirdId": 0, "name": "河北张家口授权维修站", "city": "张家口市", "sub_source": "zhuaqu_meizuweixiu", "longitude": "12791425.402536495", "trade": "手机维修", "source": "special", "score": "0.951746", "oldname": "河北张家口授权维修站", "2tag": "维修点", "address": "河北省张家口市桥东区胜利北路平安大厦909室", "latitude": " 4957828.083811221", "guid": "81478e58-c36c-11e7-85a4-6c92bf041d56", "1tag": "生活服务"}
{"province": "河北省", "distance": 0.0, "sametype": "same", "thirdId": 0, "name": "河北石家庄长安授权服务体验中心", "city": "石家庄市", "sub_source": "zhuaqu_meizuweixiu", "longitude": "12750284.415071353", "trade": "手机维修", "source": "special", "score": "0.936712", "oldname": "河北石家庄长安授权服务体验中心", "2tag": "维修点", "address": "河北省石家庄市长安区广安大街91号世纪方舟B-611", "latitude": " 4561965.623552605", "guid": "8147f71c-c36c-11e7-9d65-6c92bf041d56", "1tag": "生活服务"}
{"province": "河北省", "distance": 0.0, "sametype": "same", "thirdId": 0, "name": "河北唐山授权服务体验中心", "city": "唐山市", "sub_source": "zhuaqu_meizuweixiu", "longitude": "13157113.40204943", "trade": "手机维修", "source": "special", "score": "0.928464", "oldname": "河北唐山授权服务体验中心", "2tag": "维修点", "address": "河北省唐山市路北区朝阳道与学院路交叉口西北角美地大厦(融通大厦)1303室", "latitude": " 4790873.8561523715", "guid": "81485cf2-c36c-11e7-a17f-6c92bf041d56", "1tag": "生活服务"}
{"province": "河北省", "distance": 0.0, "sametype": "same", "thirdId": 0, "name": "河北秦皇岛授权维修中心", "city": "秦皇岛市", "sub_source": "zhuaqu_meizuweixiu", "longitude": "13316060.666845964", "trade": "手机维修", "source": "special", "score": "0.934685", "oldname": "河北秦皇岛授权维修中心", "2tag": "维修点", "address": "河北省秦皇岛市海港区河北大街中段金源国际商务大厦12楼a04", "latitude": " 4830509.563782795", "guid": "8148c796-c36c-11e7-aaf5-6c92bf041d56", "1tag": "生活服务"}
{"province": "河北省", "distance": 0.0, "sametype": "same", "thirdId": 0, "name": "河北廊坊授权维修站", "city": "廊坊市", "sub_source": "zhuaqu_meizuweixiu", "longitude": "12993118.75770286", "trade": "手机维修", "source": "special", "score": "0.878055", "oldname": "河北廊坊授权维修站", "2tag": "维修点", "address": "河北省廊坊市广阳区万达金街A1-87号二楼（万达广场2号门向西50米路北）", "latitude": " 4770754.41007195", "guid": "81492cb8-c36c-11e7-8bc7-6c92bf041d56", "1tag": "生活服务"}
{"province": "河北省", "distance": 0.0, "sametype": "same", "thirdId": 0, "name": "河北承德授权维修站", "city": "承德市", "sub_source": "zhuaqu_meizuweixiu", "longitude": "13130251.216363506", "trade": "手机维修", "source": "special", "score": "0.978376", "oldname": "河北承德授权维修站", "2tag": "维修点", "address": "河北省承德市双桥区南营子大街文化大厦1905", "latitude": " 4982282.77208177", "guid": "814996c6-c36c-11e7-9820-6c92bf041d56", "1tag": "生活服务"}
{"province": "河北省", "distance": 0.0, "sametype": "same", "thirdId": 0, "name": "河北沧州授权服务体验中心", "city": "沧州市", "sub_source": "zhuaqu_meizuweixiu", "longitude": "13009878.54436766", "trade": "手机维修", "source": "special", "score": "0.975993", "oldname": "河北沧州授权服务体验中心", "2tag": "维修点", "address": "河北省沧州市运河区新华路人防大厦1202室", "latitude": " 4598575.952008345", "guid": "8149fcce-c36c-11e7-b089-6c92bf041d56", "1tag": "生活服务"}
{"province": "河北省", "distance": 0.0, "sametype": "same", "thirdId": 0, "name": "河北衡水授权维修站", "city": "衡水市", "sub_source": "zhuaqu_meizuweixiu", "longitude": "12880219.141988974", "trade": "手机维修", "source": "special", "score": "0.946968", "oldname": "河北衡水授权维修站", "2tag": "维修点", "address": "河北省衡水市桃城区新华路与蓉花街交口西南角（老干部活动中心楼下）二楼", "latitude": " 4517782.733234566", "guid": "814a65ec-c36c-11e7-92a1-6c92bf041d56", "1tag": "生活服务"}
{"province": "天津", "distance": 0.0, "sametype": "same", "thirdId": 0, "name": "天津卓信通授权服务体验中心", "city": "天津市", "sub_source": "zhuaqu_meizuweixiu", "longitude": "13044370.978539115", "trade": "手机维修", "source": "special", "score": "0.991049", "oldname": "天津卓信通授权服务体验中心", "2tag": "维修点", "address": "天津市南开区鞍山西道信诚大厦1908", "latitude": " 4712443.337626134", "guid": "814acd34-c36c-11e7-af04-6c92bf041d56", "1tag": "生活服务"}
{"province": "内蒙古自治区", "distance": 0.0, "sametype": "same", "thirdId": 0, "name": "内蒙古包头授权服务体验中心", "city": "包头市", "sub_source": "zhuaqu_meizuweixiu", "longitude": "12226857.350857837", "trade": "手机维修", "source": "special", "score": "0.984547", "oldname": "内蒙古包头授权服务体验中心", "2tag": "维修点", "address": "内蒙古包头市昆都仑区林荫路与乌兰道交接西300米路北", "latitude": " 4936014.949878872", "guid": "814b347c-c36c-11e7-9e6f-6c92bf041d56", "1tag": "生活服务"}
{"province": "内蒙古自治区", "distance": 0.0, "sametype": "same", "thirdId": 0, "name": "内蒙古呼和浩特授权服务体验中心", "city": "呼和浩特市", "sub_source": "zhuaqu_meizuweixiu", "longitude": "12433149.660793206", "trade": "手机维修", "source": "special", "score": "0.984125", "oldname": "内蒙古呼和浩特授权服务体验中心", "2tag": "维修点", "address": "内蒙古呼和浩特中山东路诚信数码大厦9005", "latitude": " 4959380.673948487", "guid": "814b9d0e-c36c-11e7-8e81-6c92bf041d56", "1tag": "生活服务"}
{"province": "内蒙古自治区", "distance": 0.0, "sametype": "same", "thirdId": 0, "name": "内蒙古呼伦贝尔授权维修站", "city": "呼伦贝尔市", "sub_source": "zhuaqu_meizuweixiu", "longitude": "13331383.977223488", "trade": "手机维修", "source": "special", "score": "0.983314", "oldname": "内蒙古呼伦贝尔授权维修站", "2tag": "维修点", "address": "内蒙古呼伦贝尔市海拉尔区三角地伊仕丹15楼1513", "latitude": " 6280792.260176208", "guid": "814c0712-c36c-11e7-91e3-6c92bf041d56", "1tag": "生活服务"}
{"province": "内蒙古自治区", "distance": 0.0, "sametype": "same", "thirdId": 0, "name": "内蒙古赤峰授权维修站", "city": "赤峰市", "sub_source": "zhuaqu_meizuweixiu", "longitude": "4707272.695291557", "trade": "手机维修", "source": "special", "score": "0.963321", "oldname": "内蒙古赤峰授权维修站", "2tag": "维修点", "address": "内蒙古赤峰市红山区哈达西街大帷数码广场6楼603室", "latitude": " 12474104.1741364", "guid": "814c6dc4-c36c-11e7-a84a-6c92bf041d56", "1tag": "生活服务"}
{"province": "内蒙古自治区", "distance": 0.0, "sametype": "same", "thirdId": 0, "name": "内蒙古通辽授权维修站", "city": "通辽市", "sub_source": "zhuaqu_meizuweixiu", "longitude": "13032750.41005599", "trade": "手机维修", "source": "special", "score": "0.956839", "oldname": "内蒙古通辽授权维修站", "2tag": "维修点", "address": "内蒙古通辽市科尔沁区和平路中启广场沃尔玛一楼优锋数电", "latitude": " 4370816.534399767", "guid": "814cda48-c36c-11e7-b488-6c92bf041d56", "1tag": "生活服务"}
{"province": "山西省", "distance": 0.0, "sametype": "same", "thirdId": 0, "name": "山西临汾授权服务体验中心", "city": "临汾市", "sub_source": "zhuaqu_meizuweixiu", "longitude": "12416597.604671044", "trade": "手机维修", "source": "special", "score": "0.970567", "oldname": "山西临汾授权服务体验中心", "2tag": "维修点", "address": "临汾市尧都区平阳中街11号（双来福饭店隔壁）", "latitude": " 4287701.859596277", "guid": "814d3c72-c36c-11e7-89b8-6c92bf041d56", "1tag": "生活服务"}
{"province": "山西省", "distance": 0.0, "sametype": "same", "thirdId": 0, "name": "山西运城授权维修站", "city": "运城市", "sub_source": "zhuaqu_meizuweixiu", "longitude": "12358027.796036039", "trade": "手机维修", "source": "special", "score": "0.950996", "oldname": "山西运城授权维修站", "2tag": "维修点", "address": "山西省运城市红旗东街红旗中学对面20米", "latitude": " 4143422.2452279497", "guid": "814da662-c36c-11e7-90a3-6c92bf041d56", "1tag": "生活服务"}
{"province": "山西省", "distance": 0.0, "sametype": "same", "thirdId": 0, "name": "山西吕梁授权维修站", "city": "吕梁市", "sub_source": "zhuaqu_meizuweixiu", "longitude": "12373865.332270216", "trade": "手机维修", "source": "special", "score": "0.943337", "oldname": "山西吕梁授权维修站", "2tag": "维修点", "address": "山西省吕梁市离石区永宁中路114号", "latitude": " 4486932.485758263", "guid": "814e0cf6-c36c-11e7-b75d-6c92bf041d56", "1tag": "生活服务"}
{"province": "山西省", "distance": 0.0, "sametype": "same", "thirdId": 0, "name": "山西阳泉授权维修站", "city": "阳泉市", "sub_source": "zhuaqu_meizuweixiu", "longitude": "12645971.524752172", "trade": "手机维修", "source": "special", "score": "0.974291", "oldname": "山西阳泉授权维修站", "2tag": "维修点", "address": "山西省阳泉市城区德胜东街百货大楼东行30米", "latitude": " 4534831.333607947", "guid": "814e7650-c36c-11e7-a28e-6c92bf041d56", "1tag": "生活服务"}
{"province": "山西省", "distance": 0.0, "sametype": "same", "thirdId": 0, "name": "山西大同授权维修站", "city": "大同市", "sub_source": "zhuaqu_meizuweixiu", "longitude": "12611888.121309837", "trade": "手机维修", "source": "special", "score": "0.915458", "oldname": "山西大同授权维修站", "2tag": "维修点", "address": "大同市西门外十字路口往南150米路东", "latitude": " 4853660.097038074", "guid": "814edce4-c36c-11e7-b7da-6c92bf041d56", "1tag": "生活服务"}
{"province": "山西省", "distance": 0.0, "sametype": "same", "thirdId": 0, "name": "山西太原授权服务体验中心", "city": "太原市", "sub_source": "zhuaqu_meizuweixiu", "longitude": "12532041.465471335", "trade": "手机维修", "source": "special", "score": "0.970944", "oldname": "山西太原授权服务体验中心", "2tag": "维修点", "address": "山西省太原市南内环街102号阳光数码港西侧阳光科技大厦4层4098室", "latitude": " 4531966.99784771", "guid": "814f46a2-c36c-11e7-8d11-6c92bf041d56", "1tag": "生活服务"}
{"province": "山西省", "distance": 0.0, "sametype": "same", "thirdId": 0, "name": "山西晋中授权维修站", "city": "晋中市", "sub_source": "zhuaqu_meizuweixiu", "longitude": "12552681.888271315", "trade": "手机维修", "source": "special", "score": "0.962660", "oldname": "山西晋中授权维修站", "2tag": "维修点", "address": "晋中市榆次区中都路31号（恒基广场对面）", "latitude": " 4510671.262540128", "guid": "814fadcc-c36c-11e7-9f43-6c92bf041d56", "1tag": "生活服务"}
{"province": "山西省", "distance": 0.0, "sametype": "same", "thirdId": 0, "name": "山西朔州授权维修站", "city": "朔州市", "sub_source": "zhuaqu_meizuweixiu", "longitude": "12522072.726382442", "trade": "手机维修", "source": "special", "score": "0.823006", "oldname": "山西朔州授权维修站", "2tag": "维修点", "address": "山西省朔州市开发商南路渤海商务大厦北侧魅族专卖店二楼", "latitude": " 4743652.334576976", "guid": "815016f4-c36c-11e7-8676-6c92bf041d56", "1tag": "生活服务"}
{"province": "山西省", "distance": 0.0, "sametype": "same", "thirdId": 0, "name": "山西晋城授权维修站", "city": "晋城市", "sub_source": "zhuaqu_meizuweixiu", "longitude": "12563232.103701396", "trade": "手机维修", "source": "special", "score": "0.972822", "oldname": "山西晋城授权维修站", "2tag": "维修点", "address": "山西省晋城市人民广场魅族兰花城旗舰店二楼", "latitude": " 4208144.622516118", "guid": "81507ed2-c36c-11e7-b118-6c92bf041d56", "1tag": "生活服务"}
{"province": "山西省", "distance": 0.0, "sametype": "same", "thirdId": 0, "name": "山西长治授权维修站", "city": "长治市", "sub_source": "zhuaqu_meizuweixiu", "longitude": "12593683.806218218", "trade": "手机维修", "source": "special", "score": "0.899640", "oldname": "山西长治授权维修站", "2tag": "维修点", "address": "山西省长治市城区新营街15号光宇中盛店旁", "latitude": " 4303420.667849714", "guid": "8150e840-c36c-11e7-9ee8-6c92bf041d56", "1tag": "生活服务"}
{"province": "浙江省", "distance": 0.0, "sametype": "same", "thirdId": 0, "name": "浙江丽水授权维修站", "city": "丽水市", "sub_source": "zhuaqu_meizuweixiu", "longitude": "13351133.01625452", "trade": "手机维修", "source": "special", "score": "0.971230", "oldname": "浙江丽水授权维修站", "2tag": "维修点", "address": "浙江省丽水市莲都区大洋路296-3号（老年公园往府前菜市场方向100米）", "latitude": " 3285005.7493981626", "guid": "81514f56-c36c-11e7-a001-6c92bf041d56", "1tag": "生活服务"}
{"province": "浙江省", "distance": 0.0, "sametype": "same", "thirdId": 0, "name": "浙江衢州授权维修中心", "city": "衢州市", "sub_source": "zhuaqu_meizuweixiu", "longitude": "13234569.60811392", "trade": "手机维修", "source": "special", "score": "0.939575", "oldname": "浙江衢州授权维修中心", "2tag": "维修点", "address": "浙江省衢州市上街78号  (衢州教育书店隔壁)", "latitude": " 3350433.1015805993", "guid": "8151b7fc-c36c-11e7-9aca-6c92bf041d56", "1tag": "生活服务"}
{"province": "浙江省", "distance": 0.0, "sametype": "same", "thirdId": 0, "name": "浙江台州授权服务体验中心", "city": "台州市", "sub_source": "zhuaqu_meizuweixiu", "longitude": "13518687.345713984", "trade": "手机维修", "source": "special", "score": "0.950985", "oldname": "浙江台州授权服务体验中心", "2tag": "维修点", "address": "浙江省台州市椒江区和平路61号", "latitude": " 3315345.744705821", "guid": "81521f62-c36c-11e7-a127-6c92bf041d56", "1tag": "生活服务"}
{"province": "浙江省", "distance": 0.0, "sametype": "same", "thirdId": 0, "name": "浙江绍兴授权服务体验中心", "city": "绍兴市", "sub_source": "zhuaqu_meizuweixiu", "longitude": "13425595.678579705", "trade": "手机维修", "source": "special", "score": "0.983011", "oldname": "浙江绍兴授权服务体验中心", "2tag": "维修点", "address": "浙江省绍兴市越城区新建北路54-2号渔化桥河沿（银座电脑城斜对面）", "latitude": " 3483203.371225905", "guid": "815287a4-c36c-11e7-8a63-6c92bf041d56", "1tag": "生活服务"}
{"province": "浙江省", "distance": 0.0, "sametype": "same", "thirdId": 0, "name": "浙江金华授权服务体验中心", "city": "金华市", "sub_source": "zhuaqu_meizuweixiu", "longitude": "13320515.6136303", "trade": "手机维修", "source": "special", "score": "0.976348", "oldname": "浙江金华授权服务体验中心", "2tag": "维修点", "address": "浙江省金华市婺城区八一南街779号（工商城中国银行对面）", "latitude": " 3365357.2089122524", "guid": "8152ee4c-c36c-11e7-bacb-6c92bf041d56", "1tag": "生活服务"}
{"province": "浙江省", "distance": 0.0, "sametype": "same", "thirdId": 0, "name": "浙江嘉兴授权服务体验中心", "city": "嘉兴市", "sub_source": "zhuaqu_meizuweixiu", "longitude": "13443680.535362672", "trade": "手机维修", "source": "special", "score": "0.989123", "oldname": "浙江嘉兴授权服务体验中心", "2tag": "维修点", "address": "浙江省嘉兴市南湖区勤俭路华庭财富中心写字楼3楼309", "latitude": " 3581843.9325926583", "guid": "81535634-c36c-11e7-917d-6c92bf041d56", "1tag": "生活服务"}
{"province": "浙江省", "distance": 0.0, "sametype": "same", "thirdId": 0, "name": "浙江湖州授权维修站", "city": "湖州市", "sub_source": "zhuaqu_meizuweixiu", "longitude": "13371523.61181084", "trade": "手机维修", "source": "special", "score": "0.863349", "oldname": "浙江湖州授权维修站", "2tag": "维修点", "address": "浙江省湖州市吴兴区颐高数码广场三层C137号", "latitude": " 3594898.943051487", "guid": "8153bed0-c36c-11e7-ab6a-6c92bf041d56", "1tag": "生活服务"}
{"province": "浙江省", "distance": 0.0, "sametype": "same", "thirdId": 0, "name": "浙江宁波授权服务体验中心", "city": "宁波市", "sub_source": "zhuaqu_meizuweixiu", "longitude": "13533348.314303137", "trade": "手机维修", "source": "special", "score": "0.967074", "oldname": "浙江宁波授权服务体验中心", "2tag": "维修点", "address": "宁波市海曙区东渡路29号世贸中心6楼A11室（世贸中心南门电梯上）", "latitude": " 3466803.643402278", "guid": "8154276c-c36c-11e7-b131-6c92bf041d56", "1tag": "生活服务"}
{"province": "浙江省", "distance": 0.0, "sametype": "same", "thirdId": 0, "name": "浙江温州授权服务体验中心", "city": "温州市", "sub_source": "zhuaqu_meizuweixiu", "longitude": "13436279.410770042", "trade": "手机维修", "source": "special", "score": "0.924264", "oldname": "浙江温州授权服务体验中心", "2tag": "维修点", "address": "浙江省温州市车站大道2号，华盟商务广场1502室", "latitude": " 3228120.0259249145", "guid": "81548e8c-c36c-11e7-abae-6c92bf041d56", "1tag": "生活服务"}
{"province": "浙江省", "distance": 0.0, "sametype": "same", "thirdId": 0, "name": "浙江杭州授权服务体验中心", "city": "杭州市", "sub_source": "zhuaqu_meizuweixiu", "longitude": "13374590.85168887", "trade": "手机维修", "source": "special", "score": "0.948772", "oldname": "浙江杭州授权服务体验中心", "2tag": "维修点", "address": "杭州市西湖区文三路369号文三数码大厦602", "latitude": " 3519031.3073887774", "guid": "8154f886-c36c-11e7-b3ad-6c92bf041d56", "1tag": "生活服务"}
{"province": "江苏省", "distance": 0.0, "sametype": "same", "thirdId": 0, "name": "江苏连云港授权维修站", "city": "连云港市", "sub_source": "zhuaqu_meizuweixiu", "longitude": "13269385.632948441", "trade": "手机维修", "source": "special", "score": "0.970068", "oldname": "江苏连云港授权维修站", "2tag": "维修点", "address": "江苏连云港市新浦区通灌南路世纪缘大酒店东楼（国贸大厦）1009室", "latitude": " 4086236.41250641", "guid": "81555e98-c36c-11e7-9ae0-6c92bf041d56", "1tag": "生活服务"}
{"province": "江苏省", "distance": 0.0, "sametype": "same", "thirdId": 0, "name": "江苏南通授权服务体验中心", "city": "南通市", "sub_source": "zhuaqu_meizuweixiu", "longitude": "13456329.140612986", "trade": "手机维修", "source": "special", "score": "0.985898", "oldname": "江苏南通授权服务体验中心", "2tag": "维修点", "address": "江苏省南通市崇川区南大街72号金谷大厦6楼", "latitude": " 3743725.568937948", "guid": "8155c5f4-c36c-11e7-9673-6c92bf041d56", "1tag": "生活服务"}
{"province": "江苏省", "distance": 0.0, "sametype": "same", "thirdId": 0, "name": "江苏苏州授权服务体验中心", "city": "苏州市", "sub_source": "zhuaqu_meizuweixiu", "longitude": "13426705.210292315", "trade": "手机维修", "source": "special", "score": "0.962627", "oldname": "江苏苏州授权服务体验中心", "2tag": "维修点", "address": "江苏省苏州市广济南路199号", "latitude": " 3652186.344734003", "guid": "81562c4c-c36c-11e7-86e0-6c92bf041d56", "1tag": "生活服务"}
{"province": "江苏省", "distance": 0.0, "sametype": "same", "thirdId": 0, "name": "江苏常州授权服务体验中心", "city": "常州市", "sub_source": "zhuaqu_meizuweixiu", "longitude": "13354863.325125048", "trade": "手机维修", "source": "special", "score": "0.965740", "oldname": "江苏常州授权服务体验中心", "2tag": "维修点", "address": "江苏省常州市钟楼区公园路66号南大街商务楼B座66-607", "latitude": " 3712817.887625399", "guid": "81569934-c36c-11e7-aeb2-6c92bf041d56", "1tag": "生活服务"}
{"province": "江苏省", "distance": 0.0, "sametype": "same", "thirdId": 0, "name": "江苏徐州授权服务体验中心", "city": "徐州市", "sub_source": "zhuaqu_meizuweixiu", "longitude": "13047240.838064982", "trade": "手机维修", "source": "special", "score": "0.950145", "oldname": "江苏徐州授权服务体验中心", "2tag": "维修点", "address": "江苏省徐州市解放北路2号汇源置地广场11层10室", "latitude": " 4041689.0006466843", "guid": "8156fcee-c36c-11e7-947c-6c92bf041d56", "1tag": "生活服务"}
{"province": "江苏省", "distance": 0.0, "sametype": "same", "thirdId": 0, "name": "江苏无锡授权服务体验中心", "city": "无锡市", "sub_source": "zhuaqu_meizuweixiu", "longitude": "13392266.320661748", "trade": "手机维修", "source": "special", "score": "0.980723", "oldname": "江苏无锡授权服务体验中心", "2tag": "维修点", "address": "江苏省无锡市人民西路25号百脑汇科技大厦1112室", "latitude": " 3686466.4287709463", "guid": "815765d0-c36c-11e7-99ed-6c92bf041d56", "1tag": "生活服务"}
{"province": "江苏省", "distance": 0.0, "sametype": "same", "thirdId": 0, "name": "江苏南京授权服务体验中心", "city": "南京市", "sub_source": "zhuaqu_meizuweixiu", "longitude": "13225267.38989979", "trade": "手机维修", "source": "special", "score": "0.987241", "oldname": "江苏南京授权服务体验中心", "2tag": "维修点", "address": "南京市长江路188号德基大厦19楼C座", "latitude": " 3747956.594171795", "guid": "8157d5ce-c36c-11e7-b220-6c92bf041d56", "1tag": "生活服务"}
{"province": "江苏省", "distance": 0.0, "sametype": "same", "thirdId": 0, "name": "江苏宿迁授权维修站", "city": "宿迁市", "sub_source": "zhuaqu_meizuweixiu", "longitude": "13168895.022849616", "trade": "手机维修", "source": "special", "score": "0.878726", "oldname": "江苏宿迁授权维修站", "2tag": "维修点", "address": "江苏省宿迁市宿城区西湖路楚街R678号（楚街南门向东150米）水韵城对面", "latitude": " 4000512.2974947765", "guid": "81583a1e-c36c-11e7-87af-6c92bf041d56", "1tag": "生活服务"}
{"province": "江苏省", "distance": 0.0, "sametype": "same", "thirdId": 0, "name": "江苏盐城授权服务体验中心", "city": "盐城市", "sub_source": "zhuaqu_meizuweixiu", "longitude": "13375415.274323694", "trade": "手机维修", "source": "special", "score": "0.964844", "oldname": "江苏盐城授权服务体验中心", "2tag": "维修点", "address": "江苏省盐城市亭湖区建军中路59号中茵海华广场4号楼407", "latitude": " 3924210.878031289", "guid": "8158a6fc-c36c-11e7-824a-6c92bf041d56", "1tag": "生活服务"}
{"province": "江苏省", "distance": 0.0, "sametype": "same", "thirdId": 0, "name": "江苏泰州授权服务体验中心", "city": "泰州市", "sub_source": "zhuaqu_meizuweixiu", "longitude": "13350149.485442666", "trade": "手机维修", "source": "special", "score": "0.965015", "oldname": "江苏泰州授权服务体验中心", "2tag": "维修点", "address": "泰州市海陵区海陵北路296号泰州第一百货东门对面（坡子街认证店3楼）", "latitude": " 3806886.01581146", "guid": "81590d72-c36c-11e7-bffe-6c92bf041d56", "1tag": "生活服务"}
{"province": "江苏省", "distance": 0.0, "sametype": "same", "thirdId": 0, "name": "江苏扬州授权维修站", "city": "扬州市", "sub_source": "zhuaqu_meizuweixiu", "longitude": "13296751.24950072", "trade": "手机维修", "source": "special", "score": "0.949907", "oldname": "江苏扬州授权维修站", "2tag": "维修点", "address": "江苏省扬州市广陵区四望亭路13号魅族专卖店二楼", "latitude": " 3794038.016512722", "guid": "8159730c-c36c-11e7-9efb-6c92bf041d56", "1tag": "生活服务"}
{"province": "江苏省", "distance": 0.0, "sametype": "same", "thirdId": 0, "name": "江苏镇江授权维修站", "city": "镇江市", "sub_source": "zhuaqu_meizuweixiu", "longitude": "13298084.67879438", "trade": "手机维修", "source": "special", "score": "0.908408", "oldname": "江苏镇江授权维修站", "2tag": "维修点", "address": "镇江市润州区中山西路润居商务中心805", "latitude": " 3768512.8891754784", "guid": "8159db44-c36c-11e7-9875-6c92bf041d56", "1tag": "生活服务"}
{"province": "上海", "distance": 0.0, "sametype": "same", "thirdId": 0, "name": "上海闵行授权服务体验中心", "city": "上海市", "sub_source": "zhuaqu_meizuweixiu", "longitude": "13514376.71990309", "trade": "手机维修", "source": "special", "score": "0.963851", "oldname": "上海闵行授权服务体验中心", "2tag": "维修点", "address": "上海市闵行区莘建东路58弄3号楼111室", "latitude": " 3627056.6577868084", "guid": "815a4156-c36c-11e7-b666-6c92bf041d56", "1tag": "生活服务"}
{"province": "山东省", "distance": 0.0, "sametype": "same", "thirdId": 0, "name": "山东聊城授权服务体验中心", "city": "聊城市", "sub_source": "zhuaqu_meizuweixiu", "longitude": "12913581.136642193", "trade": "手机维修", "source": "special", "score": "0.969096", "oldname": "山东聊城授权服务体验中心", "2tag": "维修点", "address": "山东省聊城市东昌东路139号建工大厦（老金鼎大楼）1109B-1110室", "latitude": " 4339729.803020275", "guid": "815aa722-c36c-11e7-ba63-6c92bf041d56", "1tag": "生活服务"}
{"province": "山东省", "distance": 0.0, "sametype": "same", "thirdId": 0, "name": "山东德州授权服务体验中心", "city": "德州市", "sub_source": "zhuaqu_meizuweixiu", "longitude": "12949299.22235091", "trade": "手机维修", "source": "special", "score": "0.966840", "oldname": "山东德州授权服务体验中心", "2tag": "维修点", "address": "山东省德州市德城区文化路新华大厦5层5012、5013号", "latitude": " 4476901.725452124", "guid": "815b0e24-c36c-11e7-8e5b-6c92bf041d56", "1tag": "生活服务"}
{"province": "山东省", "distance": 0.0, "sametype": "same", "thirdId": 0, "name": "山东菏泽授权服务体验中心", "city": "菏泽市", "sub_source": "zhuaqu_meizuweixiu", "longitude": "12854700.255300216", "trade": "手机维修", "source": "special", "score": "0.972684", "oldname": "山东菏泽授权服务体验中心", "2tag": "维修点", "address": "山东省菏泽市青年路香格里拉14-12号", "latitude": " 4173088.3437071647", "guid": "815b73b4-c36c-11e7-b536-6c92bf041d56", "1tag": "生活服务"}
{"province": "山东省", "distance": 0.0, "sametype": "same", "thirdId": 0, "name": "山东滨州授权服务体验中心", "city": "滨州市", "sub_source": "zhuaqu_meizuweixiu", "longitude": "13139802.88618997", "trade": "手机维修", "source": "special", "score": "0.953529", "oldname": "山东滨州授权服务体验中心", "2tag": "维修点", "address": "山东省滨州市黄河五路名仕嘉园(渤海七路向东200米路南)沿街底商520-15号", "latitude": " 4467771.146219145", "guid": "815bdaac-c36c-11e7-b453-6c92bf041d56", "1tag": "生活服务"}
{"province": "山东省", "distance": 0.0, "sametype": "same", "thirdId": 0, "name": "山东日照授权维修站", "city": "日照市", "sub_source": "zhuaqu_meizuweixiu", "longitude": "13303562.977379017", "trade": "手机维修", "source": "special", "score": "0.873886", "oldname": "山东日照授权维修站", "2tag": "维修点", "address": "山东省日照市海曲东路水晶城大润发商务楼D座501-518", "latitude": " 4197483.204423223", "guid": "815c408c-c36c-11e7-8a7d-6c92bf041d56", "1tag": "生活服务"}
{"province": "山东省", "distance": 0.0, "sametype": "same", "thirdId": 0, "name": "山东威海授权维修站", "city": "威海市", "sub_source": "zhuaqu_meizuweixiu", "longitude": "13596360.977681648", "trade": "手机维修", "source": "special", "score": "0.967696", "oldname": "山东威海授权维修站", "2tag": "维修点", "address": "山东省威海市环翠区海滨北路附36号府前商厦12楼120室", "latitude": " 4485805.727231355", "guid": "815ca590-c36c-11e7-88fe-6c92bf041d56", "1tag": "生活服务"}
{"province": "山东省", "distance": 0.0, "sametype": "same", "thirdId": 0, "name": "山东临沂授权服务体验中心", "city": "临沂市", "sub_source": "zhuaqu_meizuweixiu", "longitude": "13174792.323182994", "trade": "手机维修", "source": "special", "score": "0.963361", "oldname": "山东临沂授权服务体验中心", "2tag": "维修点", "address": "山东省临沂市兰田步行街丽人街二楼18号", "latitude": " 4149819.7334846836", "guid": "815d0a8a-c36c-11e7-8731-6c92bf041d56", "1tag": "生活服务"}
{"province": "山东省", "distance": 0.0, "sametype": "same", "thirdId": 0, "name": "山东济宁授权服务体验中心", "city": "济宁市", "sub_source": "zhuaqu_meizuweixiu", "longitude": "12981039.390871525", "trade": "手机维修", "source": "special", "score": "0.938633", "oldname": "山东济宁授权服务体验中心", "2tag": "维修点", "address": "山东省济宁市太白东路万达甲A写字楼509", "latitude": " 4198201.4837621", "guid": "815d72a4-c36c-11e7-b72d-6c92bf041d56", "1tag": "生活服务"}
{"province": "山东省", "distance": 0.0, "sametype": "same", "thirdId": 0, "name": "山东泰安授权服务体验中心", "city": "泰安市", "sub_source": "zhuaqu_meizuweixiu", "longitude": "13039859.925444165", "trade": "手机维修", "source": "special", "score": "0.970903", "oldname": "山东泰安授权服务体验中心", "2tag": "维修点", "address": "山东省泰安市泰山区东岳大街银座金街C2-6号", "latitude": " 4303179.629158024", "guid": "815dd9f6-c36c-11e7-a2a1-6c92bf041d56", "1tag": "生活服务"}
{"province": "山东省", "distance": 0.0, "sametype": "same", "thirdId": 0, "name": "山东青岛授权服务体验中心", "city": "青岛市", "sub_source": "zhuaqu_meizuweixiu", "longitude": "13396888.88409797", "trade": "手机维修", "source": "special", "score": "0.953156", "oldname": "山东青岛授权服务体验中心", "2tag": "维修点", "address": "山东省青岛市市北区临淄路50号106户", "latitude": " 4288263.092399993", "guid": "815e4300-c36c-11e7-86d4-6c92bf041d56", "1tag": "生活服务"}
{"province": "山东省", "distance": 0.0, "sametype": "same", "thirdId": 0, "name": "山东淄博授权维修中心", "city": "淄博市", "sub_source": "zhuaqu_meizuweixiu", "longitude": "13143857.247027481", "trade": "手机维修", "source": "special", "score": "0.959190", "oldname": "山东淄博授权维修中心", "2tag": "维修点", "address": "山东省淄博市张店区中心路（金晶大道）107号中央国际商务大厦A座23楼05室（利群正门对面）", "latitude": " 4387131.908696871", "guid": "815ead0e-c36c-11e7-b862-6c92bf041d56", "1tag": "生活服务"}
{"province": "山东省", "distance": 0.0, "sametype": "same", "thirdId": 0, "name": "山东济南授权服务体验中心", "city": "济南市", "sub_source": "zhuaqu_meizuweixiu", "longitude": "13032723.753402043", "trade": "手机维修", "source": "special", "score": "0.958076", "oldname": "山东济南授权服务体验中心", "2tag": "维修点", "address": "济南市历下区山大路47号数码港大厦C座401", "latitude": " 4368471.47941817", "guid": "815f14b0-c36c-11e7-8cef-6c92bf041d56", "1tag": "生活服务"}
{"province": "山东省", "distance": 0.0, "sametype": "same", "thirdId": 0, "name": "山东烟台授权服务体验中心", "city": "烟台市", "sub_source": "zhuaqu_meizuweixiu", "longitude": "13513137.22806915", "trade": "手机维修", "source": "special", "score": "0.911744", "oldname": "山东烟台授权服务体验中心", "2tag": "维修点", "address": "山东省烟台市西盛街28号第一大道1010房间", "latitude": " 4490432.940035443", "guid": "815f7e0a-c36c-11e7-b0e9-6c92bf041d56", "1tag": "生活服务"}
{"province": "山东省", "distance": 0.0, "sametype": "same", "thirdId": 0, "name": "山东潍坊授权服务体验中心", "city": "潍坊市", "sub_source": "zhuaqu_meizuweixiu", "longitude": "13261359.518710589", "trade": "手机维修", "source": "special", "score": "0.949132", "oldname": "山东潍坊授权服务体验中心", "2tag": "维修点", "address": "山东省潍坊市奎文区四平路佳乐家北后所街西行100米路北", "latitude": " 4375458.319146251", "guid": "815fe5c0-c36c-11e7-aa3a-6c92bf041d56", "1tag": "生活服务"}
{"province": "山东省", "distance": 0.0, "sametype": "same", "thirdId": 0, "name": "山东枣庄授权维修站", "city": "枣庄市", "sub_source": "zhuaqu_meizuweixiu", "longitude": "13089108.398689248", "trade": "手机维修", "source": "special", "score": "0.951093", "oldname": "山东枣庄授权维修站", "2tag": "维修点", "address": "山东省枣庄市市中区中天步行街7号楼11号", "latitude": " 4122133.82479797", "guid": "816050b4-c36c-11e7-a929-6c92bf041d56", "1tag": "生活服务"}
{"province": "山东省", "distance": 0.0, "sametype": "same", "thirdId": 0, "name": "山东东营授权服务体验中心", "city": "东营市", "sub_source": "zhuaqu_meizuweixiu", "longitude": "13195403.944709007", "trade": "手机维修", "source": "special", "score": "0.933730", "oldname": "山东东营授权服务体验中心", "2tag": "维修点", "address": "山东省东营市济南路鑫都财富中心1209室", "latitude": " 4479105.705218707", "guid": "8160bc02-c36c-11e7-bfb1-6c92bf041d56", "1tag": "生活服务"}
{"province": "重庆", "distance": 0.0, "sametype": "same", "thirdId": 0, "name": "重庆授权服务体验中心", "city": "重庆市", "sub_source": "zhuaqu_meizuweixiu", "longitude": "11856988.548236758", "trade": "手机维修", "source": "special", "score": "0.982144", "oldname": "重庆授权服务体验中心", "2tag": "维修点", "address": "重庆市九龙坡区渝州路156号A栋一楼3号（市委党校东大门旁）", "latitude": " 3424181.659773998", "guid": "816121ce-c36c-11e7-b09f-6c92bf041d56", "1tag": "生活服务"}
{"province": "福建省", "distance": 0.0, "sametype": "same", "thirdId": 0, "name": "福建龙岩授权维修站", "city": "龙岩市", "sub_source": "zhuaqu_meizuweixiu", "longitude": "13029456.38183457", "trade": "手机维修", "source": "special", "score": "0.967079", "oldname": "福建龙岩授权维修站", "2tag": "维修点", "address": "龙岩市新罗区中城街道龙川西路1号（龙州大厦）18层1829", "latitude": " 2870413.3443154716", "guid": "816189a2-c36c-11e7-b3fe-6c92bf041d56", "1tag": "生活服务"}
{"province": "福建省", "distance": 0.0, "sametype": "same", "thirdId": 0, "name": "福建宁德授权维修站", "city": "宁德市", "sub_source": "zhuaqu_meizuweixiu", "longitude": "13276828.179036777", "trade": "手机维修", "source": "special", "score": "0.969014", "oldname": "福建宁德授权维修站", "2tag": "维修点", "address": "福建省宁德市蕉城区八一五中路6号（新华图书城二层）左侧", "latitude": " 3063193.829966587", "guid": "8161efbe-c36c-11e7-a6a5-6c92bf041d56", "1tag": "生活服务"}
{"province": "福建省", "distance": 0.0, "sametype": "same", "thirdId": 0, "name": "福建福州授权服务体验中心", "city": "福州市", "sub_source": "zhuaqu_meizuweixiu", "longitude": "13281429.08177499", "trade": "手机维修", "source": "special", "score": "0.969020", "oldname": "福建福州授权服务体验中心", "2tag": "维修点", "address": "福建省福州市台江区工业路360号中央第五街1号楼19层05-07号", "latitude": " 2989484.6183353215", "guid": "816256fc-c36c-11e7-90c6-6c92bf041d56", "1tag": "生活服务"}
{"province": "福建省", "distance": 0.0, "sametype": "same", "thirdId": 0, "name": "福建厦门授权服务体验中心", "city": "厦门市", "sub_source": "zhuaqu_meizuweixiu", "longitude": "13150712.660607308", "trade": "手机维修", "source": "special", "score": "0.973792", "oldname": "福建厦门授权服务体验中心", "2tag": "维修点", "address": "福建省厦门市思明区厦禾路1222号国骏大厦12楼1201室", "latitude": " 2794871.5208977656", "guid": "8162bc28-c36c-11e7-ada3-6c92bf041d56", "1tag": "生活服务"}
{"province": "福建省", "distance": 0.0, "sametype": "same", "thirdId": 0, "name": "福建莆田授权维修站", "city": "莆田市", "sub_source": "zhuaqu_meizuweixiu", "longitude": "13250767.524800276", "trade": "手机维修", "source": "special", "score": "0.956506", "oldname": "福建莆田授权维修站", "2tag": "维修点", "address": "福建省莆田市荔城区镇海街道西社小区10号楼5号店面（小区南门出口旁第二个店面）", "latitude": " 2911439.3186316416", "guid": "816322f8-c36c-11e7-8f35-6c92bf041d56", "1tag": "生活服务"}
{"province": "福建省", "distance": 0.0, "sametype": "same", "thirdId": 0, "name": "福建三明授权维修站", "city": "三明市", "sub_source": "zhuaqu_meizuweixiu", "longitude": "13097439.058374176", "trade": "手机维修", "source": "special", "score": "0.951606", "oldname": "福建三明授权维修站", "2tag": "维修点", "address": "福建省三明市梅列区列东街玫瑰新村66号（新华都广场2楼88号店面）", "latitude": " 3015516.949755008", "guid": "81638a22-c36c-11e7-82ea-6c92bf041d56", "1tag": "生活服务"}
{"province": "福建省", "distance": 0.0, "sametype": "same", "thirdId": 0, "name": "福建泉州授权服务体验中心", "city": "泉州市", "sub_source": "zhuaqu_meizuweixiu", "longitude": "13201107.035292102", "trade": "手机维修", "source": "special", "score": "0.958106", "oldname": "福建泉州授权服务体验中心", "2tag": "维修点", "address": "福建省泉州市浦西万达广场金街S122", "latitude": " 2836649.3973018085", "guid": "8163f3e0-c36c-11e7-b6db-6c92bf041d56", "1tag": "生活服务"}
{"province": "福建省", "distance": 0.0, "sametype": "same", "thirdId": 0, "name": "福建漳州授权维修站", "city": "漳州市", "sub_source": "zhuaqu_meizuweixiu", "longitude": "13101495.351818036", "trade": "手机维修", "source": "special", "score": "0.976791", "oldname": "福建漳州授权维修站", "2tag": "维修点", "address": "漳州市龙文区万达广场A1块地1幢D041号 万达金街5号门对门魅族手机2楼", "latitude": " 2797654.6164855156", "guid": "81645b5a-c36c-11e7-93e3-6c92bf041d56", "1tag": "生活服务"}
{"province": "安徽省", "distance": 0.0, "sametype": "same", "thirdId": 0, "name": "安徽亳州授权维修站", "city": "亳州市", "sub_source": "zhuaqu_meizuweixiu", "longitude": "12890148.879317388", "trade": "手机维修", "source": "special", "score": "0.857203", "oldname": "安徽亳州授权维修站", "2tag": "维修点", "address": "安徽省亳州市谯城区新华南路魅族专卖店", "latitude": " 3989444.6358981095", "guid": "8164c522-c36c-11e7-84cf-6c92bf041d56", "1tag": "生活服务"}
{"province": "安徽省", "distance": 0.0, "sametype": "same", "thirdId": 0, "name": "安徽黄山授权维修站", "city": "黄山市", "sub_source": "zhuaqu_meizuweixiu", "longitude": "13171845.009443425", "trade": "手机维修", "source": "special", "score": "0.936766", "oldname": "安徽黄山授权维修站", "2tag": "维修点", "address": "安徽省黄山市屯溪区延安路76-9号（魅族专卖店2楼）", "latitude": " 3446545.3199559664", "guid": "81652d1e-c36c-11e7-8dc1-6c92bf041d56", "1tag": "生活服务"}
{"province": "安徽省", "distance": 0.0, "sametype": "same", "thirdId": 0, "name": "安徽六安授权维修站", "city": "六安市", "sub_source": "zhuaqu_meizuweixiu", "longitude": "12969862.462311687", "trade": "手机维修", "source": "special", "score": "0.974492", "oldname": "安徽六安授权维修站", "2tag": "维修点", "address": "安徽省六安市裕安区浙东商贸城北门斑竹路一号商铺魅族授权服务体验中心", "latitude": " 3709308.831577053", "guid": "816596e6-c36c-11e7-9029-6c92bf041d56", "1tag": "生活服务"}
{"province": "安徽省", "distance": 0.0, "sametype": "same", "thirdId": 0, "name": "安徽滁州授权维修站", "city": "滁州市", "sub_source": "zhuaqu_meizuweixiu", "longitude": "13172644.038010884", "trade": "手机维修", "source": "special", "score": "0.898851", "oldname": "安徽滁州授权维修站", "2tag": "维修点", "address": "安徽省滁州市琅琊区南谯北路泰鑫现代城步行街一楼门面805-110室", "latitude": " 3781292.678501385", "guid": "8165feba-c36c-11e7-9a10-6c92bf041d56", "1tag": "生活服务"}
{"province": "安徽省", "distance": 0.0, "sametype": "same", "thirdId": 0, "name": "安徽阜阳授权维修站", "city": "阜阳市", "sub_source": "zhuaqu_meizuweixiu", "longitude": "12895224.469497707", "trade": "手机维修", "source": "special", "score": "0.935846", "oldname": "安徽阜阳授权维修站", "2tag": "维修点", "address": "安徽省阜阳市颍州区巨川广场B座22楼", "latitude": " 3860114.654179392", "guid": "81666742-c36c-11e7-9206-6c92bf041d56", "1tag": "生活服务"}
{"province": "安徽省", "distance": 0.0, "sametype": "same", "thirdId": 0, "name": "安徽合肥授权服务体验中心", "city": "合肥市", "sub_source": "zhuaqu_meizuweixiu", "longitude": "13057861.271707116", "trade": "手机维修", "source": "special", "score": "0.968798", "oldname": "安徽合肥授权服务体验中心", "2tag": "维修点", "address": "合肥市包河区徽州大道396号东方广场B座608室", "latitude": " 3722505.9711737344", "guid": "8166ce3a-c36c-11e7-b965-6c92bf041d56", "1tag": "生活服务"}
{"province": "安徽省", "distance": 0.0, "sametype": "same", "thirdId": 0, "name": "安徽池州授权维修站", "city": "池州市", "sub_source": "zhuaqu_meizuweixiu", "longitude": "13079702.240489699", "trade": "手机维修", "source": "special", "score": "0.943595", "oldname": "安徽池州授权维修站", "2tag": "维修点", "address": "安徽省池州市贵池区秋浦西路73号贵池区公安分局正对面魅族专卖店", "latitude": " 3567335.7213473395", "guid": "81673726-c36c-11e7-bbe6-6c92bf041d56", "1tag": "生活服务"}
{"province": "安徽省", "distance": 0.0, "sametype": "same", "thirdId": 0, "name": "安徽蚌埠授权维修站", "city": "蚌埠市", "sub_source": "zhuaqu_meizuweixiu", "longitude": "13070462.686989002", "trade": "手机维修", "source": "special", "score": "0.956896", "oldname": "安徽蚌埠授权维修站", "2tag": "维修点", "address": "安徽省蚌埠市东海大道万达广场写字楼A座14楼12B15室", "latitude": " 3861991.979662492", "guid": "81679e8c-c36c-11e7-9c86-6c92bf041d56", "1tag": "生活服务"}
{"province": "安徽省", "distance": 0.0, "sametype": "same", "thirdId": 0, "name": "安徽芜湖授权服务体验中心", "city": "芜湖市", "sub_source": "zhuaqu_meizuweixiu", "longitude": "13179686.677265631", "trade": "手机维修", "source": "special", "score": "0.962579", "oldname": "安徽芜湖授权服务体验中心", "2tag": "维修点", "address": "芜湖市镜湖区万达广场2号写字楼13楼1308室", "latitude": " 3656843.835969167", "guid": "816807aa-c36c-11e7-8c4d-6c92bf041d56", "1tag": "生活服务"}
{"province": "安徽省", "distance": 0.0, "sametype": "same", "thirdId": 0, "name": "安徽马鞍山授权维修站", "city": "马鞍山市", "sub_source": "zhuaqu_meizuweixiu", "longitude": "13194132.075435042", "trade": "手机维修", "source": "special", "score": "0.946738", "oldname": "安徽马鞍山授权维修站", "2tag": "维修点", "address": "马鞍山市花山区湖东中路173号（魅族手机专卖店）", "latitude": " 3700239.67203915", "guid": "81686f6a-c36c-11e7-bb9c-6c92bf041d56", "1tag": "生活服务"}
{"province": "安徽省", "distance": 0.0, "sametype": "same", "thirdId": 0, "name": "安徽淮南授权维修站", "city": "淮南市", "sub_source": "zhuaqu_meizuweixiu", "longitude": "13027615.663266357", "trade": "手机维修", "source": "special", "score": "0.967669", "oldname": "安徽淮南授权维修站", "2tag": "维修点", "address": "安徽省淮南市商贸文化广场J区208室", "latitude": " 3826284.999561883", "guid": "8168d6e4-c36c-11e7-88ce-6c92bf041d56", "1tag": "生活服务"}
{"province": "安徽省", "distance": 0.0, "sametype": "same", "thirdId": 0, "name": "安徽铜陵授权维修站", "city": "铜陵市", "sub_source": "zhuaqu_meizuweixiu", "longitude": "13117177.362011308", "trade": "手机维修", "source": "special", "score": "0.958328", "oldname": "安徽铜陵授权维修站", "2tag": "维修点", "address": "铜陵市铜官山区长江中路魅族专卖店", "latitude": " 3602336.268936693", "guid": "81693de6-c36c-11e7-aaf6-6c92bf041d56", "1tag": "生活服务"}
{"province": "安徽省", "distance": 0.0, "sametype": "same", "thirdId": 0, "name": "安徽淮北授权维修站", "city": "淮北市", "sub_source": "zhuaqu_meizuweixiu", "longitude": "13003254.045292558", "trade": "手机维修", "source": "special", "score": "0.907890", "oldname": "安徽淮北授权维修站", "2tag": "维修点", "address": "淮北市相山区淮海中路电信大楼一楼东侧", "latitude": " 4002639.8154935353", "guid": "8169a538-c36c-11e7-9c85-6c92bf041d56", "1tag": "生活服务"}
{"province": "安徽省", "distance": 0.0, "sametype": "same", "thirdId": 0, "name": "安徽安庆授权维修站", "city": "安庆市", "sub_source": "zhuaqu_meizuweixiu", "longitude": "13030445.954027956", "trade": "手机维修", "source": "special", "score": "0.939163", "oldname": "安徽安庆授权维修站", "2tag": "维修点", "address": "安徽省安庆市安庆龙山路98号联通大厦2楼南区", "latitude": " 3548614.502567059", "guid": "816a10ae-c36c-11e7-bfce-6c92bf041d56", "1tag": "生活服务"}
{"province": "安徽省", "distance": 0.0, "sametype": "same", "thirdId": 0, "name": "安徽宣城授权维修站", "city": "宣城市", "sub_source": "zhuaqu_meizuweixiu", "longitude": "13221331.888362158", "trade": "手机维修", "source": "special", "score": "0.953348", "oldname": "安徽宣城授权维修站", "2tag": "维修点", "address": "安徽省宣城市宣州区国购广场写字楼B座1406室", "latitude": " 3604862.8660777356", "guid": "816a82a0-c36c-11e7-a4c0-6c92bf041d56", "1tag": "生活服务"}
{"province": "安徽省", "distance": 0.0, "sametype": "same", "thirdId": 0, "name": "安徽宿州授权维修站", "city": "宿州市", "sub_source": "zhuaqu_meizuweixiu", "longitude": "3746214.5978978532", "trade": "手机维修", "source": "special", "score": "0.866864", "oldname": "安徽宿州授权维修站", "2tag": "维修点", "address": "安徽省宿州市埇桥区胜利路同盛广场B座20楼2015室", "latitude": " 12474104.1741364", "guid": "816aed80-c36c-11e7-a9be-6c92bf041d56", "1tag": "生活服务"}
{"province": "西藏自治区", "distance": 0.0, "sametype": "same", "thirdId": 0, "name": "西藏拉萨授权维修站", "city": "拉萨市", "sub_source": "zhuaqu_meizuweixiu", "longitude": "10132035.733052457", "trade": "手机维修", "source": "special", "score": "0.961499", "oldname": "西藏拉萨授权维修站", "2tag": "维修点", "address": "西藏藏族自治区拉萨市北京中路36号测绘局商品房王牌通讯", "latitude": " 3438129.9496392724", "guid": "816b5482-c36c-11e7-905c-6c92bf041d56", "1tag": "生活服务"}
