{"province": "北京", "distance": 0.0, "sametype": "same", "thirdId": "10009", "name": "北京大通远鑫汽车修理有限公司", "city": "北京", "longitude": "12953041.1", "score": "0.989337", "oldname": "北京大通远鑫汽车修理有限公司", "address": "北京大兴工业开发区金苑路15号", "latitude": "4804293.8", "guid": "01c18ab8-bf74-11e7-837e-6c92bf041d56"}
{"province": "北京", "distance": 0.0, "sametype": "same", "thirdId": "10462", "name": "北京诚信达汽车销售有限公司", "city": "北京", "longitude": "12948684.8028", "score": "0.975505", "oldname": "北京诚信达汽车销售有限公司", "address": "北京市丰台区丰管路26号", "latitude": "4818514.26913", "guid": "01ca209c-bf74-11e7-adad-6c92bf041d56"}
{"province": "北京", "distance": 0.0, "sametype": "same", "thirdId": "12168", "name": "北京渔洋郡汽车销售有限公司", "city": "北京", "longitude": "13002270.8333", "score": "0.988438", "oldname": "北京渔洋郡汽车销售有限公司", "address": "北京市密云县十里堡彩虹桥西侧路北", "latitude": "4890196.95057", "guid": "01d07b90-bf74-11e7-ba24-6c92bf041d56"}
{"province": "北京", "distance": 0.0, "sametype": "same", "thirdId": "13184", "name": "北京鑫达丰业工贸有限公司", "city": "北京", "longitude": "12992194.9357", "score": "0.986257", "oldname": "北京鑫达丰业工贸有限公司", "address": "北京市怀柔区北房开发区龙云路7号", "latitude": "4885978.74479", "guid": "01d9e11c-bf74-11e7-a284-6c92bf041d56"}
{"province": "北京", "distance": 0.0, "sametype": "same", "thirdId": "17625", "name": "北京新瑞福汽车修理有限公司", "city": "北京", "longitude": "12982235.5037", "score": "0.979512", "oldname": "北京新瑞福汽车修理有限公司", "address": "北京市顺义区顺于路18号空港物流园基地", "latitude": "4857754.06172", "guid": "01e157bc-bf74-11e7-8c19-6c92bf041d56"}
{"province": "北京", "distance": 0.0, "sametype": "same", "thirdId": "17940", "name": "北京鑫达兴久汽车销售服务有限公司", "city": "北京", "longitude": "13041268.4957", "score": "0.995130", "oldname": "北京鑫达兴久汽车销售服务有限公司", "address": "北京市平谷区顺福路11号", "latitude": "4869521.99486", "guid": "01ea0cae-bf74-11e7-a650-6c92bf041d56"}
{"province": "北京", "distance": 0.0, "sametype": "same", "thirdId": "18238", "name": "北京名威致远汽车销售服务有限公司", "city": "北京", "longitude": "12960521.264", "score": "0.980370", "oldname": "北京名威致远汽车销售服务有限公司", "address": "北京市昌平区北七家镇东三旗村50号亚运村汽车交易市场内", "latitude": "4853027.01788", "guid": "01f3c01e-bf74-11e7-8edd-6c92bf041d56"}
{"province": "北京", "distance": 0.0, "sametype": "same", "thirdId": "12057", "name": "北京新瑞福汽车修理有限公司", "city": "北京", "longitude": "12978995.95", "score": "0.979512", "oldname": "北京新瑞福汽车修理有限公司", "address": "北京市顺义区回民营工业区2号院", "latitude": "4855391.92", "guid": "01fe5092-bf74-11e7-b62a-6c92bf041d56"}
{"province": "北京", "distance": 0.0, "sametype": "same", "thirdId": "12323", "name": "北京兴瑞明德汽车销售服务有限公司", "city": "北京", "longitude": "12961631.8725", "score": "0.983081", "oldname": "北京兴瑞明德汽车销售服务有限公司", "address": "北京南四环大红门东桥向东八百米处北旅车桥厂院内", "latitude": "4814787.98667", "guid": "02061534-bf74-11e7-967c-6c92bf041d56"}
{"province": "北京", "distance": 0.0, "sametype": "same", "thirdId": "10961", "name": "北京信联丰盛商贸有限公司", "city": "北京", "longitude": "12987572.6", "score": "0.989778", "oldname": "北京信联丰盛商贸有限公司", "address": "北京市通州区梨园镇大马庄东200米", "latitude": "4819422.5", "guid": "020ee68c-bf74-11e7-8f84-6c92bf041d56"}
{"province": "北京", "distance": 0.0, "sametype": "same", "thirdId": "11214", "name": "北京中瑞辰汽车销售有限公司", "city": "北京", "longitude": "12955658.7187", "score": "0.973581", "oldname": "北京中瑞辰汽车销售有限公司", "address": "北京市昌平区北七家镇平西府派出所后（东侧胡同向北200米）", "latitude": "4853682.80801", "guid": "0217f1c8-bf74-11e7-a081-6c92bf041d56"}
{"province": "北京", "distance": 0.0, "sametype": "same", "thirdId": "14205", "name": "北京诚信达汽车销售有限公司第一分公司", "city": "房山", "longitude": "12934402.6581", "score": "0.982204", "oldname": "北京诚信达汽车销售有限公司第一分公司", "address": "北京房山区长阳镇北广阳城球路5号", "latitude": "4803331.29924", "guid": "021f5cce-bf74-11e7-8850-6c92bf041d56"}
{"province": "天津", "distance": 0.0, "sametype": "same", "thirdId": "10140", "name": "天津市天杭汽车工业贸易公司", "city": "天津市", "longitude": "13056335.8473", "score": "0.990874", "oldname": "天津市天杭汽车工业贸易公司", "address": "天津市河东区成林道与天山南路交口（武警医院旁边）", "latitude": "4713979.7317", "guid": "0226beb0-bf74-11e7-9e84-6c92bf041d56"}
{"province": "天津", "distance": 0.0, "sametype": "same", "thirdId": "12210", "name": "天津博瑞祥通汽车销售有限公司", "city": "天津市", "longitude": "13060756.29", "score": "0.992632", "oldname": "天津博瑞祥通汽车销售有限公司", "address": "天津市西青区津淄公路东王兰庄东", "latitude": "4673201.01", "guid": "022fb2c2-bf74-11e7-b06f-6c92bf041d56"}
{"province": "天津", "distance": 0.0, "sametype": "same", "thirdId": "15740", "name": "天津市庞大冀瑞汽车销售有限公司", "city": "天津市", "longitude": "13039916.8389", "score": "0.980199", "oldname": "天津市庞大冀瑞汽车销售有限公司", "address": "天津市北辰区双街镇庞大汽贸园", "latitude": "4732833.55344", "guid": "0239db44-bf74-11e7-a967-6c92bf041d56"}
{"province": "天津", "distance": 0.0, "sametype": "same", "thirdId": "17866", "name": "天津市冀津汽车贸易有限公司", "city": "天津市", "longitude": "13046087.34", "score": "0.984011", "oldname": "天津市冀津汽车贸易有限公司", "address": "天津市北辰区北方汽贸园B区10号", "latitude": "4724129.03", "guid": "02427aec-bf74-11e7-b58a-6c92bf041d56"}
{"province": "天津", "distance": 0.0, "sametype": "same", "thirdId": "17243", "name": "车聚互联（天津）汽车销售有限公司", "city": "天津市", "longitude": "13063879.36", "score": "0.986582", "oldname": "车聚互联（天津）汽车销售有限公司", "address": "天津市空港国际物流区第二大街一号", "latitude": "4712973.69", "guid": "024c9be4-bf74-11e7-b4bc-6c92bf041d56"}
{"province": "天津", "distance": 0.0, "sametype": "same", "thirdId": "11358", "name": "天津市赫阳汽车销售服务有限公司", "city": "天津市", "longitude": "13057685.9471", "score": "0.975797", "oldname": "天津市赫阳汽车销售服务有限公司", "address": "天津市宝坻区田场立交桥北200米", "latitude": "4799574.82346", "guid": "025578ae-bf74-11e7-a8b4-6c92bf041d56"}
{"province": "河北省", "distance": 0.0, "sametype": "same", "thirdId": "13066", "name": "石家庄市华强汽车贸易有限公司", "city": "石家庄市", "longitude": "12747029.6159", "score": "0.992069", "oldname": "石家庄市华强汽车贸易有限公司", "address": "河北省石家庄市裕华区南二环与建设大街交口北行200米路东", "latitude": "4554283.60025", "guid": "025d96ec-bf74-11e7-811a-6c92bf041d56"}
{"province": "河北省", "distance": 0.0, "sametype": "same", "thirdId": "17380", "name": "石家庄御轩汽车贸易有限公司", "city": "石家庄市", "longitude": "12739822.91", "score": "0.985520", "oldname": "石家庄御轩汽车贸易有限公司", "address": "河北省石家庄市桥西区西二环北路86号", "latitude": "4560412.65", "guid": "02680794-bf74-11e7-8358-6c92bf041d56"}
{"province": "河北省", "distance": 0.0, "sametype": "same", "thirdId": "17738", "name": "河北奇轩汽车销售有限公司", "city": "石家庄市", "longitude": "12828247.9355", "score": "0.977641", "oldname": "河北奇轩汽车销售有限公司", "address": "河北省石家庄市辛集市世纪大街路南（辛集市汽车市场主干道南侧）", "latitude": "4548190.21374", "guid": "0270cf1e-bf74-11e7-a48f-6c92bf041d56"}
{"province": "河北省", "distance": 0.0, "sametype": "same", "thirdId": "17767", "name": "石家庄虎轩汽车贸易有限公司", "city": "石家庄市", "longitude": "12752064.4481", "score": "0.989281", "oldname": "石家庄虎轩汽车贸易有限公司", "address": "河北省石家庄市建华北大街69号国际汽车贸易园区", "latitude": "4563998.24286", "guid": "027b4304-bf74-11e7-b1b1-6c92bf041d56"}
{"province": "河北省", "distance": 0.0, "sametype": "same", "thirdId": "11263", "name": "辛集市桑塔纳维修中心", "city": "石家庄市", "longitude": "12826513.5573", "score": "0.991213", "oldname": "辛集市桑塔纳维修中心", "address": "河北省辛集市兴华北路452号", "latitude": "4546423.13101", "guid": "0281fdf2-bf74-11e7-b7e2-6c92bf041d56"}
{"province": "河北省", "distance": 0.0, "sametype": "same", "thirdId": "13742", "name": "唐山市冀东凯瑞汽车销售有限公司", "city": "唐山市", "longitude": "13159112.6038", "score": "0.980606", "oldname": "唐山市冀东凯瑞汽车销售有限公司", "address": "河北省唐山市唐山路南区女织寨乡吉祥新路218号", "latitude": "4780078.08676", "guid": "028c64cc-bf74-11e7-9de1-6c92bf041d56"}
{"province": "河北省", "distance": 0.0, "sametype": "same", "thirdId": "13131", "name": "秦皇岛市冀瑞汽车销售有限公司", "city": "秦皇岛市", "longitude": "13306760.9706", "score": "0.975136", "oldname": "秦皇岛市冀瑞汽车销售有限公司", "address": "河北省秦皇岛市开发区峨嵋山北路7号", "latitude": "4830507.95164", "guid": "029ab4fa-bf74-11e7-878b-6c92bf041d56"}
{"province": "河北省", "distance": 0.0, "sametype": "same", "thirdId": "14329", "name": "秦皇岛市恒丰伟业汽车贸易有限公司", "city": "秦皇岛市", "longitude": "13311422.5", "score": "0.995889", "oldname": "秦皇岛市恒丰伟业汽车贸易有限公司", "address": "河北省秦皇岛市海港区西港北路60号", "latitude": "4834865.2", "guid": "02a2b13c-bf74-11e7-81a5-6c92bf041d56"}
{"province": "河北省", "distance": 0.0, "sametype": "same", "thirdId": "10574", "name": "河北万合汽车贸易股份有限公司", "city": "邯郸市", "longitude": "12744006.1", "score": "0.991349", "oldname": "河北万合汽车贸易股份有限公司", "address": "河北省邯郸市邯山区南环路172号\n河北省邯郸市渚河路4号", "latitude": "4357022.9", "guid": "02ad1afa-bf74-11e7-84ec-6c92bf041d56"}
{"province": "河北省", "distance": 0.0, "sametype": "same", "thirdId": "15067", "name": "邯郸市冀旭汽车销售有限公司", "city": "邯郸市", "longitude": "12744293.86", "score": "0.978588", "oldname": "邯郸市冀旭汽车销售有限公司", "address": "河北省邯郸市京珠高速北口南行500米（庞大汽贸园区）", "latitude": "4359069.6", "guid": "02b6af02-bf74-11e7-b98c-6c92bf041d56"}
{"province": "河北省", "distance": 0.0, "sametype": "same", "thirdId": "17764", "name": "永年县浩瀚汽车销售服务有限公司", "city": "邯郸市", "longitude": "12747523.6097", "score": "0.986404", "oldname": "永年县浩瀚汽车销售服务有限公司", "address": "河北省邯郸市永年县临洺关镇开发区火炬街东段路南众腾汽车城院内H厅", "latitude": "4384327.81712", "guid": "02c90918-bf74-11e7-9745-6c92bf041d56"}
{"province": "河北省", "distance": 0.0, "sametype": "same", "thirdId": "13363", "name": "邢台瑞曼汽车贸易有限公司", "city": "邢台市", "longitude": "12751269.8402", "score": "0.987802", "oldname": "邢台瑞曼汽车贸易有限公司", "address": "河北省邢台市郭守敬大道界家屯村北", "latitude": "4428577.65193", "guid": "02d0c3a6-bf74-11e7-b00e-6c92bf041d56"}
{"province": "河北省", "distance": 0.0, "sametype": "same", "thirdId": "15547", "name": "邢台市冀南誉丰汽车销售有限公司", "city": "邢台市", "longitude": "12761943.8916", "score": "0.977282", "oldname": "邢台市冀南誉丰汽车销售有限公司", "address": "河北省邢台市任县河头工业聚集区", "latitude": "4428385.68345", "guid": "02da82ec-bf74-11e7-ae2b-6c92bf041d56"}
{"province": "河北省", "distance": 0.0, "sametype": "same", "thirdId": "17759", "name": "邢台国瑞汽车贸易有限公司", "city": "邢台市", "longitude": "12748591.23", "score": "0.986413", "oldname": "邢台国瑞汽车贸易有限公司", "address": "河北省邢台市桥东区龙岗大街南侧邢煤专线东侧", "latitude": "4421350.3", "guid": "02e69cbc-bf74-11e7-9995-6c92bf041d56"}
{"province": "河北省", "distance": 0.0, "sametype": "same", "thirdId": "15465", "name": "保定市天道汽车贸易有限公司", "city": "保定市", "longitude": "12859011.5664", "score": "0.984573", "oldname": "保定市天道汽车贸易有限公司", "address": "河北省保定市长城南大街1485号", "latitude": "4671231.22062", "guid": "02f05c20-bf74-11e7-abc4-6c92bf041d56"}
{"province": "河北省", "distance": 0.0, "sametype": "same", "thirdId": "15506", "name": "保定市庞大冀瑞汽车销售有限公司", "city": "保定市", "longitude": "12856816.6058", "score": "0.983723", "oldname": "保定市庞大冀瑞汽车销售有限公司", "address": "河北省保定市清苑县京石高速收费站北侧", "latitude": "4657271.01863", "guid": "02f7a962-bf74-11e7-9fda-6c92bf041d56"}
{"province": "河北省", "distance": 0.0, "sametype": "same", "thirdId": "17439", "name": "保定市冀中汽车贸易有限公司", "city": "保定市", "longitude": "12855132.3876", "score": "0.989177", "oldname": "保定市冀中汽车贸易有限公司", "address": "河北省保定市南市区南二环路1426号", "latitude": "4669551.40404", "guid": "0301b3c6-bf74-11e7-be13-6c92bf041d56"}
{"province": "河北省", "distance": 0.0, "sametype": "same", "thirdId": "17743", "name": "保定林瑞汽车贸易有限公司", "city": "保定市", "longitude": "12861204.86", "score": "0.990102", "oldname": "保定林瑞汽车贸易有限公司", "address": "河北省保定市北市区车管所对面", "latitude": "4679919.61", "guid": "030d09ec-bf74-11e7-a8cf-6c92bf041d56"}
{"province": "河北省", "distance": 0.0, "sametype": "same", "thirdId": "17758", "name": "定州市华茂汽车维修有限公司", "city": "保定市", "longitude": "12805219.7164", "score": "0.987207", "oldname": "定州市华茂汽车维修有限公司", "address": "河北省定州市北城区东门街185号", "latitude": "4625676.13851", "guid": "03160542-bf74-11e7-b5ea-6c92bf041d56"}
{"province": "河北省", "distance": 0.0, "sametype": "same", "thirdId": "10700", "name": "涿州市石油物探隆丰汽车销售有限公司", "city": "保定市", "longitude": "12909894.8458", "score": "0.965107", "oldname": "涿州市石油物探隆丰汽车销售有限公司", "address": "河北省涿州市城西南街139号", "latitude": "4763889.91106", "guid": "031e6c3c-bf74-11e7-b96d-6c92bf041d56"}
{"province": "河北省", "distance": 0.0, "sametype": "same", "thirdId": "12303", "name": "张家口市瑞垣汽车销售有限公司", "city": "张家口市", "longitude": "12802656.82", "score": "0.986461", "oldname": "张家口市瑞垣汽车销售有限公司", "address": "河北省张家口市市高新区张宣公路火石窑远大二手车交易市场院内", "latitude": "4933207.76", "guid": "0329bf7e-bf74-11e7-8212-6c92bf041d56"}
{"province": "河北省", "distance": 0.0, "sametype": "same", "thirdId": "14646", "name": "张家口市冀瑞汽车销售有限公司", "city": "张家口市", "longitude": "12793976.797", "score": "0.977150", "oldname": "张家口市冀瑞汽车销售有限公司", "address": "河北省张家口市宣化县沙岭子镇太师湾村庞大汽贸", "latitude": "4939818.12479", "guid": "03333662-bf74-11e7-8afd-6c92bf041d56"}
{"province": "河北省", "distance": 0.0, "sametype": "same", "thirdId": "14645", "name": "承德市乐骋汽车销售有限责任公司", "city": "承德市", "longitude": "13135916.1247", "score": "0.989629", "oldname": "承德市乐骋汽车销售有限责任公司", "address": "河北省承德市太平庄村二化厂东南", "latitude": "4967962.11057", "guid": "033d1182-bf74-11e7-84c8-6c92bf041d56"}
{"province": "河北省", "distance": 0.0, "sametype": "same", "thirdId": "10018", "name": "沧州市天威汽贸有限公司", "city": "沧州市", "longitude": "13016346.9419", "score": "0.978688", "oldname": "沧州市天威汽贸有限公司", "address": "河北省沧州市开发区石港路18号", "latitude": "4593780.94068", "guid": "0344652c-bf74-11e7-8447-6c92bf041d56"}
{"province": "河北省", "distance": 0.0, "sametype": "same", "thirdId": "15850", "name": "沧州市天信汽车贸易有限公司", "city": "沧州市", "longitude": "13016346.9419", "score": "0.981122", "oldname": "沧州市天信汽车贸易有限公司", "address": "河北省沧州市开发区石港路18号", "latitude": "4593780.94068", "guid": "034cb934-bf74-11e7-9ff3-6c92bf041d56"}
{"province": "河北省", "distance": 0.0, "sametype": "same", "thirdId": "16052", "name": "沧州市庞大君瑞汽车销售有限公司", "city": "沧州市", "longitude": "13002347.9925", "score": "0.991254", "oldname": "沧州市庞大君瑞汽车销售有限公司", "address": "河北省沧州市运河区高新技术开发区李庄子村西", "latitude": "4601243.46151", "guid": "035651ba-bf74-11e7-b80b-6c92bf041d56"}
{"province": "河北省", "distance": 0.0, "sametype": "same", "thirdId": "18137", "name": "沧州市天狮汽车贸易有限公司", "city": "沧州市", "longitude": "13013998.1272", "score": "0.984719", "oldname": "沧州市天狮汽车贸易有限公司", "address": "河北省沧州市新华区长芦北大道徐官屯村北沧州市佳兴仓储物流有限公司展厅6号", "latitude": "4602448.57719", "guid": "0361f4f2-bf74-11e7-b0e7-6c92bf041d56"}
{"province": "河北省", "distance": 0.0, "sametype": "same", "thirdId": "17858", "name": "黄骅市前兴汽车服务有限公司", "city": "沧州市", "longitude": "13066979.9332", "score": "0.974620", "oldname": "黄骅市前兴汽车服务有限公司", "address": "河北省黄骅市海丰大街54号", "latitude": "4606873.26832", "guid": "0368f324-bf74-11e7-9c50-6c92bf041d56"}
{"province": "河北省", "distance": 0.0, "sametype": "same", "thirdId": "18302", "name": "霸州市合创丰瑞汽车销售服务有限公司", "city": "廊坊市", "longitude": "12957340.2004", "score": "0.991310", "oldname": "霸州市合创丰瑞汽车销售服务有限公司", "address": "河道省廊坊市霸州市霸州镇王伍房村", "latitude": "4711516.01194", "guid": "036ff138-bf74-11e7-aff5-6c92bf041d56"}
{"province": "河北省", "distance": 0.0, "sametype": "same", "thirdId": "16134", "name": "廊坊市庞大君瑞汽车销售有限公司", "city": "廊坊市", "longitude": "13001826.42", "score": "0.992264", "oldname": "廊坊市庞大君瑞汽车销售有限公司", "address": "河北省廊坊市安次区西外环与南外环交叉口南行1公里路西", "latitude": "4743912.36", "guid": "037a7612-bf74-11e7-8036-6c92bf041d56"}
{"province": "河北省", "distance": 0.0, "sametype": "same", "thirdId": "17495", "name": "廊坊市鑫旗胜汽车贸易有限公司", "city": "廊坊市", "longitude": "12996216.775", "score": "0.979704", "oldname": "廊坊市鑫旗胜汽车贸易有限公司", "address": "河北省廊坊市广阳区东安路188号", "latitude": "4767070.66438", "guid": "03838144-bf74-11e7-b4a2-6c92bf041d56"}
{"province": "河北省", "distance": 0.0, "sametype": "same", "thirdId": "11174", "name": "霸州市瑞翼汽车销售有限公司", "city": "廊坊市", "longitude": "12957660.61", "score": "0.962626", "oldname": "霸州市瑞翼汽车销售有限公司", "address": "河北省廊坊市霸州市兴华北路北杨庄桥北", "latitude": "4716483.12351", "guid": "038c1408-bf74-11e7-850a-6c92bf041d56"}
{"province": "河北省", "distance": 0.0, "sametype": "same", "thirdId": "10916", "name": "衡水盛和汽车贸易有限公司", "city": "衡水市", "longitude": "12873634.3552", "score": "0.995936", "oldname": "衡水盛和汽车贸易有限公司", "address": "河北省衡水市开发区昌明大街569号", "latitude": "4517151.06355", "guid": "0392bd62-bf74-11e7-bb27-6c92bf041d56"}
{"province": "河北省", "distance": 0.0, "sametype": "same", "thirdId": "12659", "name": "衡水昌达汽车贸易服务有限公司", "city": "衡水市", "longitude": "12873587.4408", "score": "0.991901", "oldname": "衡水昌达汽车贸易服务有限公司", "address": "河北省衡水市昌明大街688号", "latitude": "4516209.89416", "guid": "0399e1be-bf74-11e7-b069-6c92bf041d56"}
{"province": "河北省", "distance": 0.0, "sametype": "same", "thirdId": "14842", "name": "衡水市庞大广瑞汽车销售有限公司", "city": "衡水市", "longitude": "12907023.8732", "score": "0.990747", "oldname": "衡水市庞大广瑞汽车销售有限公司", "address": "河北省衡水市武邑县苏正威武大街西侧", "latitude": "4528661.32061", "guid": "03a42ebc-bf74-11e7-97f3-6c92bf041d56"}
{"province": "山西省", "distance": 0.0, "sametype": "same", "thirdId": "10137", "name": "山西香山新奇汽贸有限公司", "city": "太原市", "longitude": "12527573.3253", "score": "0.981331", "oldname": "山西香山新奇汽贸有限公司", "address": "山西省太原市万柏林区新晋祠路110号汇众汽车家园内", "latitude": "4528817.94857", "guid": "03a9fb62-bf74-11e7-a89b-6c92bf041d56"}
{"province": "山西省", "distance": 0.0, "sametype": "same", "thirdId": "17677", "name": "山西香山新宇汽贸有限公司", "city": "太原市", "longitude": "12531415.5008", "score": "0.974309", "oldname": "山西香山新宇汽贸有限公司", "address": "山西省太原市小店区汾东北路189号", "latitude": "4518760.0648", "guid": "03b436fe-bf74-11e7-9870-6c92bf041d56"}
{"province": "山西省", "distance": 0.0, "sametype": "same", "thirdId": "17832", "name": "太原市绯云汽车贸易有限公司", "city": "太原市", "longitude": "12532196.16", "score": "0.988570", "oldname": "太原市绯云汽车贸易有限公司", "address": "山西省太原市小店区太渝路26号", "latitude": "4518260.23", "guid": "03bcb6bc-bf74-11e7-af8a-6c92bf041d56"}
{"province": "山西省", "distance": 0.0, "sametype": "same", "thirdId": "12293", "name": "大同市恒山汽车销售有限责任公司", "city": "大同市", "longitude": "12612099.5485", "score": "0.987670", "oldname": "大同市恒山汽车销售有限责任公司", "address": "山西省大同市魏都大道49号", "latitude": "4847525.5646", "guid": "03c959c6-bf74-11e7-bee2-6c92bf041d56"}
{"province": "山西省", "distance": 0.0, "sametype": "same", "thirdId": "14730", "name": "山西华建集团有限公司", "city": "阳泉市", "longitude": "12645959.5944", "score": "0.917552", "oldname": "山西华建集团有限公司", "address": "山西省阳泉市开发东区大连路奇瑞4S店", "latitude": "4535067.29292", "guid": "03d28636-bf74-11e7-a7c1-6c92bf041d56"}
{"province": "山西省", "distance": 0.0, "sametype": "same", "thirdId": "10436", "name": "长治市一运容驰汽车维修服务有限公司", "city": "长治市", "longitude": "12594125.3246", "score": "0.986743", "oldname": "长治市一运容驰汽车维修服务有限公司", "address": "山西省长治市城东路11号", "latitude": "4301344.43215", "guid": "03da71fc-bf74-11e7-a4d1-6c92bf041d56"}
{"province": "山西省", "distance": 0.0, "sametype": "same", "thirdId": "10338", "name": "晋城市机电设备有限责任公司", "city": "晋城市", "longitude": "12564788.0", "score": "0.961199", "oldname": "晋城市机电设备有限责任公司", "address": "山西省晋城市太行南路", "latitude": "4206360.8", "guid": "03e3a6be-bf74-11e7-a0f8-6c92bf041d56"}
{"province": "山西省", "distance": 0.0, "sametype": "same", "thirdId": "17464", "name": "晋城卡马特汽车有限公司", "city": "晋城市", "longitude": "12562719.5513", "score": "0.978224", "oldname": "晋城卡马特汽车有限公司", "address": "山西省晋城市城区白水街东段", "latitude": "4204377.45223", "guid": "03ea2200-bf74-11e7-aba7-6c92bf041d56"}
{"province": "山西省", "distance": 0.0, "sametype": "same", "thirdId": "17704", "name": "忻州市盈丰汽车销售有限公司", "city": "忻州市", "longitude": "12549592.848", "score": "0.980354", "oldname": "忻州市盈丰汽车销售有限公司", "address": "山西省忻州市开发区新顿路忻州汽车城", "latitude": "4619480.36684", "guid": "03f0fe18-bf74-11e7-adef-6c92bf041d56"}
{"province": "山西省", "distance": 0.0, "sametype": "same", "thirdId": "14201", "name": "吕梁市奇祥汽车销售有限公司", "city": "吕梁市", "longitude": "12370520.1092", "score": "0.977557", "oldname": "吕梁市奇祥汽车销售有限公司", "address": "山西省吕梁市中阳县金罗镇西合村307国道旁", "latitude": "4477919.92974", "guid": "03f8e3ee-bf74-11e7-90b2-6c92bf041d56"}
{"province": "山西省", "distance": 0.0, "sametype": "same", "thirdId": "10500", "name": "山西晋中领先汽车销售服务有限公司", "city": "晋中市", "longitude": "12546869.87", "score": "0.984808", "oldname": "山西晋中领先汽车销售服务有限公司", "address": "山西省晋中市榆次区汇通北路345号", "latitude": "4513753.61", "guid": "04009710-bf74-11e7-b844-6c92bf041d56"}
{"province": "山西省", "distance": 0.0, "sametype": "same", "thirdId": "14928", "name": "介休市岩兴汽车销售服务有限公司", "city": "晋中市", "longitude": "12462569.9821", "score": "0.991096", "oldname": "介休市岩兴汽车销售服务有限公司", "address": "山西省介休市定阳东路龙凤路口南50米", "latitude": "4417714.07692", "guid": "040b5f1a-bf74-11e7-a1ea-6c92bf041d56"}
{"province": "山西省", "distance": 0.0, "sametype": "same", "thirdId": "10690", "name": "山西储源汽车销售服务有限公司", "city": "临汾市", "longitude": "12416500.99", "score": "0.978913", "oldname": "山西储源汽车销售服务有限公司", "address": "山西省临汾市尧都区屯里镇屯里村(霍侯一级公路旁)", "latitude": "4293300.78", "guid": "04134f9a-bf74-11e7-8219-6c92bf041d56"}
{"province": "山西省", "distance": 0.0, "sametype": "same", "thirdId": "18131", "name": "忻州市盈丰汽车销售有限公司临汾分公司", "city": "临汾市", "longitude": "12410265.6144", "score": "0.920929", "oldname": "忻州市盈丰汽车销售有限公司临汾分公司", "address": "山西省临汾市尧都区尧庙镇富尧建材城内-临汾尧庙商圈", "latitude": "4278540.33874", "guid": "041b7f1c-bf74-11e7-b7f8-6c92bf041d56"}
{"province": "山西省", "distance": 0.0, "sametype": "same", "thirdId": "12232", "name": "山西诺维兰集团运城瑞鹏汽车销售服务有限公司", "city": "运城市", "longitude": "12351862.8038", "score": "0.985296", "oldname": "山西诺维兰集团运城瑞鹏汽车销售服务有限公司", "address": "山西省运城市盐湖区工业园南风大道三号", "latitude": "4155702.11255", "guid": "0425c602-bf74-11e7-8a7d-6c92bf041d56"}
{"province": "山西省", "distance": 0.0, "sametype": "same", "thirdId": "13686", "name": "运城市鑫潮汽车贸易有限公司", "city": "运城市", "longitude": "12362831.5", "score": "0.983649", "oldname": "运城市鑫潮汽车贸易有限公司", "address": "山西省运城市机场大道东段", "latitude": "4152132.8", "guid": "042f8c3c-bf74-11e7-a712-6c92bf041d56"}
{"province": "内蒙古省", "distance": 0.0, "sametype": "same", "thirdId": "16114", "name": "内蒙古庞大冀瑞汽车销售有限公司", "city": "呼和浩特市", "longitude": "12426551.6704", "score": "0.984061", "oldname": "内蒙古庞大冀瑞汽车销售有限公司", "address": "内蒙古呼和浩特市回民区海拉尔西街南侧", "latitude": "4959404.77247", "guid": "043ab86e-bf74-11e7-93f7-6c92bf041d56"}
{"province": "内蒙古省", "distance": 0.0, "sametype": "same", "thirdId": "17780", "name": "内蒙古风行之星汽车销售服务有限公司", "city": "包头市", "longitude": "12233372.8249", "score": "0.973730", "oldname": "内蒙古风行之星汽车销售服务有限公司", "address": "内蒙古包头市稀土高新区稀土路恒通汽车城二排", "latitude": "4930769.84921", "guid": "04432b02-bf74-11e7-bd04-6c92bf041d56"}
{"province": "内蒙古省", "distance": 0.0, "sametype": "same", "thirdId": "17413", "name": "浙江和平汽车销售服务有限公司", "city": "赤峰市", "longitude": "13241461.256", "score": "0.964449", "oldname": "浙江和平汽车销售服务有限公司", "address": "内蒙古赤峰市红山区赤锡路66号", "latitude": "5179290.69799", "guid": "044c257c-bf74-11e7-843b-6c92bf041d56"}
{"province": "内蒙古省", "distance": 0.0, "sametype": "same", "thirdId": "14574", "name": "呼伦贝尔市利丰泰奇汽车服务有限公司", "city": "呼伦贝尔市", "longitude": "13331858.76", "score": "0.992817", "oldname": "呼伦贝尔市利丰泰奇汽车服务有限公司", "address": "内蒙古呼伦贝尔市鄂温克旗海伊公路东侧", "latitude": "6276488.9", "guid": "045b58ee-bf74-11e7-bb1f-6c92bf041d56"}
{"province": "内蒙古省", "distance": 0.0, "sametype": "same", "thirdId": "17779", "name": "内蒙古天禄凯润汽车销售服务有限公司", "city": "乌兰察布市", "longitude": "12596248.68", "score": "0.992885", "oldname": "内蒙古天禄凯润汽车销售服务有限公司", "address": "内蒙古乌兰察布市察哈尔工业园区208国道西", "latitude": "4977715.18836", "guid": "046a419c-bf74-11e7-945b-6c92bf041d56"}
{"province": "内蒙古省", "distance": 0.0, "sametype": "same", "thirdId": "17779", "name": "内蒙古天禄凯润汽车销售服务有限公司", "city": "乌兰察布市", "longitude": "12596248.68", "score": "0.992885", "oldname": "内蒙古天禄凯润汽车销售服务有限公司", "address": "内蒙古乌兰察布市察哈尔工业园区208国道西", "latitude": "4977715.18836", "guid": "046a419c-bf74-11e7-945b-6c92bf041d56"}
{"province": "内蒙古省", "distance": 0.0, "sametype": "same", "thirdId": "13721", "name": "锡林郭勒盟利丰泰奇汽车服务有限公司", "city": "锡林郭勒市", "longitude": "12736854.7", "score": "0.984368", "oldname": "锡林郭勒盟利丰泰奇汽车服务有限公司", "address": "内蒙古锡盟锡市经济开发区火车站北300米", "latitude": "5353842.83", "guid": "0472e7ca-bf74-11e7-bd90-6c92bf041d56"}
{"province": "辽宁省", "distance": 0.0, "sametype": "same", "thirdId": "18179", "name": "沈阳优易卡汽车销售服务有限公司", "city": "沈阳市", "longitude": "13731512.7247", "score": "0.986490", "oldname": "沈阳优易卡汽车销售服务有限公司", "address": "沈阳市铁西区北二西路26号甲36-7", "latitude": "5105948.69439", "guid": "047aa33e-bf74-11e7-9c29-6c92bf041d56"}
{"province": "辽宁省", "distance": 0.0, "sametype": "same", "thirdId": "18323", "name": "沈阳优易卡汽车销售服务有限公司铁西分公司", "city": "沈阳市", "longitude": "13734184.5339", "score": "0.989764", "oldname": "沈阳优易卡汽车销售服务有限公司铁西分公司", "address": "沈阳市铁西北二路汽车圈", "latitude": "5104744.99658", "guid": "04829a76-bf74-11e7-8577-6c92bf041d56"}
{"province": "辽宁省", "distance": 0.0, "sametype": "same", "thirdId": "16997", "name": "沈阳庞大华盛昌汽车销售服务有限公司", "city": "沈阳市", "longitude": "13720099.456", "score": "0.991207", "oldname": "沈阳庞大华盛昌汽车销售服务有限公司", "address": "辽宁省沈阳市经济技术开发区沈辽西路115号", "latitude": "5094422.97858", "guid": "048ada24-bf74-11e7-a0d2-6c92bf041d56"}
{"province": "辽宁省", "distance": 0.0, "sametype": "same", "thirdId": "10025", "name": "大连通洋汽车销售服务有限公司", "city": "大连市", "longitude": "13564159.1298", "score": "0.958672", "oldname": "大连通洋汽车销售服务有限公司", "address": "辽宁省大连市保税区填海区中港北二路16号", "latitude": "4701453.1121", "guid": "0495afc6-bf74-11e7-9fd5-6c92bf041d56"}
{"province": "辽宁省", "distance": 0.0, "sametype": "same", "thirdId": "17954", "name": "大连成信汽车销售服务有限公司", "city": "大连市", "longitude": "13535086.7", "score": "0.965847", "oldname": "大连成信汽车销售服务有限公司", "address": "辽宁省大连市甘井子区东纬路136号", "latitude": "4689273.1", "guid": "049cf47a-bf74-11e7-9516-6c92bf041d56"}
{"province": "辽宁省", "distance": 0.0, "sametype": "same", "thirdId": "10790", "name": "大连华为机电设备有限公司", "city": "大连市", "longitude": "13688366.3892", "score": "0.966957", "oldname": "大连华为机电设备有限公司", "address": "辽宁省庄河市韩国工业园区建设大街二段20号", "latitude": "4791687.15632", "guid": "04a8ab26-bf74-11e7-b2dc-6c92bf041d56"}
{"province": "辽宁省", "distance": 0.0, "sametype": "same", "thirdId": "17953", "name": "大连龙威汽车贸易有限公司甘井子分公司", "city": "大连市", "longitude": "13536212.887", "score": "0.939707", "oldname": "大连龙威汽车贸易有限公司甘井子分公司", "address": "辽宁省大连市甘井子区华北路441号", "latitude": "4696250.43013", "guid": "04b26396-bf74-11e7-bdc8-6c92bf041d56"}
{"province": "辽宁省", "distance": 0.0, "sametype": "same", "thirdId": "16925", "name": "奇瑞汽车（大连）销售有限公司", "city": "大连市", "longitude": "13565465.0062", "score": "0.977353", "oldname": "奇瑞汽车（大连）销售有限公司", "address": "辽宁省大连保税区填海区瑞港路6号", "latitude": "4702240.97003", "guid": "04beab74-bf74-11e7-be6d-6c92bf041d56"}
{"province": "辽宁省", "distance": 0.0, "sametype": "same", "thirdId": "10088", "name": "鞍山市鞍奇汽车贸易有限公司", "city": "鞍山市", "longitude": "13687347.802", "score": "0.985892", "oldname": "鞍山市鞍奇汽车贸易有限公司", "address": "辽宁省鞍山市千山区建设大道596号1号楼", "latitude": "5007759.64914", "guid": "04c73e10-bf74-11e7-be3b-6c92bf041d56"}
{"province": "辽宁省", "distance": 0.0, "sametype": "same", "thirdId": "10880", "name": "辽宁用心汽车服务有限公司", "city": "抚顺市", "longitude": "13777638.603", "score": "0.938151", "oldname": "辽宁用心汽车服务有限公司", "address": "辽宁省抚顺市望花区丹东路18号", "latitude": "5110313.72979", "guid": "04cf3e9e-bf74-11e7-9e27-6c92bf041d56"}
{"province": "辽宁省", "distance": 0.0, "sametype": "same", "thirdId": "14894", "name": "本溪市利腾汽车销售有限公司", "city": "本溪市", "longitude": "13781318.9", "score": "0.978764", "oldname": "本溪市利腾汽车销售有限公司", "address": "辽宁省本溪市明山区唐人街B区53栋", "latitude": "5029088.8", "guid": "04dcbbaa-bf74-11e7-9204-6c92bf041d56"}
{"province": "辽宁省", "distance": 0.0, "sametype": "same", "thirdId": "14918", "name": "丹东华瑞机电设备有限公司", "city": "丹东市", "longitude": "13843396.374", "score": "0.983560", "oldname": "丹东华瑞机电设备有限公司", "address": "辽宁省丹东市振兴区花园路49号105/106门市房", "latitude": "4856701.6217", "guid": "04eb2190-bf74-11e7-80d4-6c92bf041d56"}
{"province": "辽宁省", "distance": 0.0, "sametype": "same", "thirdId": "13402", "name": "营口奇祥汽车销售服务有限公司", "city": "营口市", "longitude": "13604642.8001", "score": "0.971282", "oldname": "营口奇祥汽车销售服务有限公司", "address": "辽宁省营口市西市区青花大街西79号", "latitude": "4933728.02889", "guid": "04f4af12-bf74-11e7-86f6-6c92bf041d56"}
{"province": "辽宁省", "distance": 0.0, "sametype": "same", "thirdId": "18126", "name": "辽阳天瑞汽车销售服务有限公司", "city": "辽阳市", "longitude": "13707938.1875", "score": "0.976368", "oldname": "辽阳天瑞汽车销售服务有限公司", "address": "辽阳市太子河区祁家镇前石桥村", "latitude": "5028003.9274", "guid": "04fe216e-bf74-11e7-ba10-6c92bf041d56"}
{"province": "辽宁省", "distance": 0.0, "sametype": "same", "thirdId": "17503", "name": "辽阳辽展汽车销售服务有限公司", "city": "辽阳市", "longitude": "13712303.1", "score": "0.983748", "oldname": "辽阳辽展汽车销售服务有限公司", "address": "辽宁省辽阳市太子河区东宁卫蔡庄", "latitude": "5024476.68", "guid": "0506ea06-bf74-11e7-8ea1-6c92bf041d56"}
{"province": "辽宁省", "distance": 0.0, "sametype": "same", "thirdId": "17734", "name": "盘锦安顺汽车销售服务有限公司", "city": "盘锦市", "longitude": "13589870.249", "score": "0.984759", "oldname": "盘锦安顺汽车销售服务有限公司", "address": "辽宁省盘锦市大洼县田家镇小洼村", "latitude": "4998039.61826", "guid": "050e8afe-bf74-11e7-af63-6c92bf041d56"}
{"province": "辽宁省", "distance": 0.0, "sametype": "same", "thirdId": "15821", "name": "北京市腾远兴业汽车服务有限公司盘锦分公司", "city": "盘锦市", "longitude": "13590763.0943", "score": "0.992267", "oldname": "北京市腾远兴业汽车服务有限公司盘锦分公司", "address": "辽宁省盘锦市兴隆台区兴隆街道经济开发区中兴商贸院（城市花园南门西侧奇瑞店）", "latitude": "5004833.62077", "guid": "05154e3e-bf74-11e7-915d-6c92bf041d56"}
{"province": "辽宁省", "distance": 0.0, "sametype": "same", "thirdId": "12783", "name": "铁岭市北方汽车贸易服务有限公司", "city": "铁岭市", "longitude": "13788016.94", "score": "0.989622", "oldname": "铁岭市北方汽车贸易服务有限公司", "address": "辽宁省铁岭市银州区西辽海工业园区对面", "latitude": "5169246.18", "guid": "05207106-bf74-11e7-a65b-6c92bf041d56"}
{"province": "辽宁省", "distance": 0.0, "sametype": "same", "thirdId": "10023", "name": "朝阳万里行汽车技术服务有限公司", "city": "朝阳市", "longitude": "13408673.73", "score": "0.992459", "oldname": "朝阳万里行汽车技术服务有限公司", "address": "辽宁省朝阳市黄河路5段109号", "latitude": "5074412.2", "guid": "05293a7a-bf74-11e7-83e7-6c92bf041d56"}
{"province": "辽宁省", "distance": 0.0, "sametype": "same", "thirdId": "13002", "name": "葫芦岛市新宇汽车销售服务有限公司", "city": "葫芦岛市", "longitude": "13459312.8376", "score": "0.983536", "oldname": "葫芦岛市新宇汽车销售服务有限公司", "address": "辽宁省葫芦岛市龙港区连湾镇玉皇阁村稻池路26-1", "latitude": "4945728.60232", "guid": "0531dbee-bf74-11e7-ba17-6c92bf041d56"}
{"province": "辽宁省", "distance": 0.0, "sametype": "same", "thirdId": "17813", "name": "阜新众智汽车销售服务有限公司", "city": "阜新市", "longitude": "13539135.2075", "score": "0.986146", "oldname": "阜新众智汽车销售服务有限公司", "address": "辽宁省阜新市经济开发区开通街98号", "latitude": "5133578.92228", "guid": "053af72e-bf74-11e7-8879-6c92bf041d56"}
{"province": "辽宁省", "distance": 0.0, "sametype": "same", "thirdId": "15309", "name": "阜新北方汽车销售服务有限公司", "city": "阜新市", "longitude": "13539188.7385", "score": "0.959738", "oldname": "阜新北方汽车销售服务有限公司", "address": "辽宁省阜新市经济开发区C路100号", "latitude": "5133621.96573", "guid": "05458702-bf74-11e7-abd9-6c92bf041d56"}
{"province": "辽宁省", "distance": 0.0, "sametype": "same", "thirdId": "17645", "name": "锦州市百观汽车销售服务有限责任公司", "city": "锦州市", "longitude": "13487970.51", "score": "0.962775", "oldname": "锦州市百观汽车销售服务有限责任公司", "address": "辽宁省锦州市凌河区北山里百官分场349号", "latitude": "5005222.3", "guid": "054f7f78-bf74-11e7-bb1f-6c92bf041d56"}
{"province": "吉林省", "distance": 0.0, "sametype": "same", "thirdId": "10561", "name": "吉林省旗瑞汽车销售服务有限公司", "city": "长春市", "longitude": "13946180.0491", "score": "0.982956", "oldname": "吉林省旗瑞汽车销售服务有限公司", "address": "吉林省长春市南阳路965号", "latitude": "5417227.62491", "guid": "05575ae0-bf74-11e7-a927-6c92bf041d56"}
{"province": "吉林省", "distance": 0.0, "sametype": "same", "thirdId": "17143", "name": "吉林瑞宏汽车销售服务有限公司", "city": "长春市", "longitude": "13958862.4119", "score": "0.978398", "oldname": "吉林瑞宏汽车销售服务有限公司", "address": "吉林省长春市经济技术开发区浦东路25号", "latitude": "5414623.23469", "guid": "0560de3a-bf74-11e7-8407-6c92bf041d56"}
{"province": "吉林省", "distance": 0.0, "sametype": "same", "thirdId": "16606", "name": "德惠市嘉成汽车销售服务有限公司", "city": "长春市", "longitude": "13993244.9162", "score": "0.974072", "oldname": "德惠市嘉成汽车销售服务有限公司", "address": "德惠市西九道街公园右侧", "latitude": "5518614.54337", "guid": "05698d3c-bf74-11e7-81eb-6c92bf041d56"}
{"province": "吉林省", "distance": 0.0, "sametype": "same", "thirdId": "11187", "name": "长春市双阳区天力进口汽车维修中心", "city": "长春市", "longitude": "13989518.9497", "score": "0.982156", "oldname": "长春市双阳区天力进口汽车维修中心", "address": "吉林省长春市双阳区长春路16号（原肉联厂院内）天力汽修理", "latitude": "5364793.33048", "guid": "05722686-bf74-11e7-a3c0-6c92bf041d56"}
{"province": "吉林省", "distance": 0.0, "sametype": "same", "thirdId": "18167", "name": "吉林省久瑞汽车销售服务有限公司", "city": "吉林市", "longitude": "14087943.0438", "score": "0.984638", "oldname": "吉林省久瑞汽车销售服务有限公司", "address": "吉林省吉林市高新技术开发区三亚路88号中华景苑二期A#商业用房0单元1层003号", "latitude": "5407971.92264", "guid": "057c3ff4-bf74-11e7-a747-6c92bf041d56"}
{"province": "吉林省", "distance": 0.0, "sametype": "same", "thirdId": "12326", "name": "吉林省久奇汽车销售服务有限公司", "city": "吉林市", "longitude": "14081488.3", "score": "0.984087", "oldname": "吉林省久奇汽车销售服务有限公司", "address": "吉林省吉林市船营区迎宾大路63号", "latitude": "5416247.6", "guid": "05848394-bf74-11e7-99e5-6c92bf041d56"}
{"province": "吉林省", "distance": 0.0, "sametype": "same", "thirdId": "13346", "name": "四平市鑫泰汽车销售有限公司", "city": "四平市", "longitude": "13848313.7358", "score": "0.984075", "oldname": "四平市鑫泰汽车销售有限公司", "address": "吉林省四平市铁东区北一经街1943号", "latitude": "5311632.226", "guid": "058e9d70-bf74-11e7-90e6-6c92bf041d56"}
{"province": "吉林省", "distance": 0.0, "sametype": "same", "thirdId": "17683", "name": "辽源市龙山区佳利汽车销售有限公司", "city": "辽源市", "longitude": "13936495.01", "score": "0.977859", "oldname": "辽源市龙山区佳利汽车销售有限公司", "address": "吉林省辽源市龙山区工农乡红五星公交站东（福镇大路北）", "latitude": "5264915.08", "guid": "05975ab4-bf74-11e7-8c93-6c92bf041d56"}
{"province": "吉林省", "distance": 0.0, "sametype": "same", "thirdId": "15303", "name": "通化市长久旗瑞汽车销售服务有限公司", "city": "通化市", "longitude": "14022267.7", "score": "0.973178", "oldname": "通化市长久旗瑞汽车销售服务有限公司", "address": "通化市东昌区新胜北路928号", "latitude": "5096326.1", "guid": "05a135fc-bf74-11e7-9899-6c92bf041d56"}
{"province": "吉林省", "distance": 0.0, "sametype": "same", "thirdId": "11204", "name": "通化市威风汽车配件修理有限公司", "city": "通化市", "longitude": "14022197.3017", "score": "0.971119", "oldname": "通化市威风汽车配件修理有限公司", "address": "吉林省通化市新胜北路1118号", "latitude": "5096491.90701", "guid": "05a908f4-bf74-11e7-8181-6c92bf041d56"}
{"province": "吉林省", "distance": 0.0, "sametype": "same", "thirdId": "17077", "name": "松原市子余汽车销售有限公司", "city": "松原市", "longitude": "13892547.0256", "score": "0.983915", "oldname": "松原市子余汽车销售有限公司", "address": "吉林省松原市经济技术开发区镜湖区青年大街1950号", "latitude": "5611119.10353", "guid": "05b0096a-bf74-11e7-ba84-6c92bf041d56"}
{"province": "吉林省", "distance": 0.0, "sametype": "same", "thirdId": "16972", "name": "白城市润达汽车销售服务有限公司", "city": "白城市", "longitude": "13674381.3531", "score": "0.981233", "oldname": "白城市润达汽车销售服务有限公司", "address": "吉林省白城市幸福南大街57号", "latitude": "5687681.55794", "guid": "05b81858-bf74-11e7-997a-6c92bf041d56"}
{"province": "吉林省", "distance": 0.0, "sametype": "same", "thirdId": "10336", "name": "延边庄园机电贸易有限公司", "city": "延边市", "longitude": "14417708.0", "score": "0.982144", "oldname": "延边庄园机电贸易有限公司", "address": "吉林省延吉市局子街3632号", "latitude": "5273189.5", "guid": "05c20dc2-bf74-11e7-94ae-6c92bf041d56"}
{"province": "吉林省", "distance": 0.0, "sametype": "same", "thirdId": "18020", "name": "白山市城东名车销售服务有限公司", "city": "白山市", "longitude": "14074397.668", "score": "0.981532", "oldname": "白山市城东名车销售服务有限公司", "address": "白山市北安大街288号", "latitude": "5126092.56995", "guid": "05c78a9a-bf74-11e7-82b2-6c92bf041d56"}
{"province": "黑龙江省", "distance": 0.0, "sametype": "same", "thirdId": "10056", "name": "哈尔滨龙飞汽车销售服务有限公司", "city": "哈尔滨市", "longitude": "14086747.2088", "score": "0.934870", "oldname": "哈尔滨龙飞汽车销售服务有限公司", "address": "黑龙江省哈尔滨市道里区阳明滩环城汽车城D1-D2奇瑞4S店（机场高速与阳明滩大桥交口）", "latitude": "5702241.65595", "guid": "05d0c4b6-bf74-11e7-89d4-6c92bf041d56"}
{"province": "黑龙江省", "distance": 0.0, "sametype": "same", "thirdId": "10173", "name": "哈尔滨哈得力汽车维修服务有限公司", "city": "哈尔滨市", "longitude": "14108231.851", "score": "0.968947", "oldname": "哈尔滨哈得力汽车维修服务有限公司", "address": "黑龙江省哈尔滨市先锋路99-101号", "latitude": "5714004.56439", "guid": "05da1390-bf74-11e7-aed7-6c92bf041d56"}
{"province": "黑龙江省", "distance": 0.0, "sametype": "same", "thirdId": "14055", "name": "黑龙江哈得力商贸集团有限公司", "city": "哈尔滨市", "longitude": "14086891.0334", "score": "0.975759", "oldname": "黑龙江哈得力商贸集团有限公司", "address": "哈尔滨市道里区阳明滩大道环城汽车C5", "latitude": "5702271.01116", "guid": "05e08216-bf74-11e7-bebf-6c92bf041d56"}
{"province": "黑龙江省", "distance": 0.0, "sametype": "same", "thirdId": "10105", "name": "齐齐哈尔新华夏华光汽车连锁有限公司", "city": "齐齐哈尔市", "longitude": "13797882.9899", "score": "0.970088", "oldname": "齐齐哈尔新华夏华光汽车连锁有限公司", "address": "黑龙江省齐齐哈尔市龙沙区永安大街一厂群英1号楼", "latitude": "5965499.97817", "guid": "05e81d82-bf74-11e7-b9a2-6c92bf041d56"}
{"province": "黑龙江省", "distance": 0.0, "sametype": "same", "thirdId": "17862", "name": "齐齐哈尔铭泰汽车销售有限公司", "city": "齐齐哈尔市", "longitude": "13812904.124", "score": "0.985341", "oldname": "齐齐哈尔铭泰汽车销售有限公司", "address": "黑龙江省齐齐哈尔市铁峰区联通大道汽贸城内（II-A-13）", "latitude": "5967542.27491", "guid": "05f071e4-bf74-11e7-8587-6c92bf041d56"}
{"province": "黑龙江省", "distance": 0.0, "sametype": "same", "thirdId": "17809", "name": "绥化大正汽车销售有限公司", "city": "鹤岗市", "longitude": "14502530.2709", "score": "0.987747", "oldname": "绥化大正汽车销售有限公司", "address": "黑龙江省鹤岗市南山区北红旗路邮政家属楼", "latitude": "5960436.23044", "guid": "05f83712-bf74-11e7-ab1f-6c92bf041d56"}
{"province": "黑龙江省", "distance": 0.0, "sametype": "same", "thirdId": "17465", "name": "黑龙江宇宏汽车销售服务有限公司", "city": "佳木斯市", "longitude": "14503388.12", "score": "0.991655", "oldname": "黑龙江宇宏汽车销售服务有限公司", "address": "佳木斯市郊区友谊路956号", "latitude": "5880279.38", "guid": "06035016-bf74-11e7-9b49-6c92bf041d56"}
{"province": "黑龙江省", "distance": 0.0, "sametype": "same", "thirdId": "12255", "name": "佳木斯市鹰翔汽车维修有限公司", "city": "佳木斯市", "longitude": "14509056.6893", "score": "0.987704", "oldname": "佳木斯市鹰翔汽车维修有限公司", "address": "黑龙江省佳木斯市红旗路208号", "latitude": "5880783.59225", "guid": "060e07cc-bf74-11e7-a8b4-6c92bf041d56"}
{"province": "黑龙江省", "distance": 0.0, "sametype": "same", "thirdId": "15707", "name": "牡丹江腾宇汽车销售服务有限公司", "city": "牡丹江市", "longitude": "14432329.5551", "score": "0.983045", "oldname": "牡丹江腾宇汽车销售服务有限公司", "address": "黑龙江省牡丹江市光华街阳明一路60号", "latitude": "5528857.35614", "guid": "0616a634-bf74-11e7-b918-6c92bf041d56"}
{"province": "黑龙江省", "distance": 0.0, "sametype": "same", "thirdId": "17553", "name": "黑河市腾鑫汽车销售有限公司", "city": "黑河市", "longitude": "14194423.4411", "score": "0.971846", "oldname": "黑河市腾鑫汽车销售有限公司", "address": "黑河市铁路街358号", "latitude": "6454471.16082", "guid": "0622d2ce-bf74-11e7-8d00-6c92bf041d56"}
{"province": "黑龙江省", "distance": 0.0, "sametype": "same", "thirdId": "17556", "name": "绥化大正汽车销售有限公司", "city": "绥化市", "longitude": "14136515.16", "score": "0.987747", "oldname": "绥化大正汽车销售有限公司", "address": "黑龙江省绥化市开发区汽配城B2-18号", "latitude": "5853127.9", "guid": "0629b828-bf74-11e7-a83a-6c92bf041d56"}
{"province": "上海市", "distance": 0.0, "sametype": "same", "thirdId": "10120", "name": "上海联海沪西汽车销售有限公司", "city": "上海市", "longitude": "13520018.6315", "score": "0.982014", "oldname": "上海联海沪西汽车销售有限公司", "address": "上海市宝山区宝杨路3050号", "latitude": "3660100.60823", "guid": "06332430-bf74-11e7-8bee-6c92bf041d56"}
{"province": "上海市", "distance": 0.0, "sametype": "same", "thirdId": "14927", "name": "上海瑞杰汽车销售服务有限公司", "city": "上海市", "longitude": "13499029.5323", "score": "0.981659", "oldname": "上海瑞杰汽车销售服务有限公司", "address": "上海市松江区美能达路503号", "latitude": "3614487.69219", "guid": "063a926a-bf74-11e7-815f-6c92bf041d56"}
{"province": "上海市", "distance": 0.0, "sametype": "same", "thirdId": "17078", "name": "上海鸿翎汽车销售服务有限公司", "city": "上海市", "longitude": "13536202.1973", "score": "0.981719", "oldname": "上海鸿翎汽车销售服务有限公司", "address": "上海市浦东区新区沪南公路4789弄290号", "latitude": "3620371.34587", "guid": "06443fcc-bf74-11e7-b547-6c92bf041d56"}
{"province": "上海市", "distance": 0.0, "sametype": "same", "thirdId": "17739", "name": "上海二茆汽车销售服务有限公司", "city": "上海市", "longitude": "13513907.0343", "score": "0.982297", "oldname": "上海二茆汽车销售服务有限公司", "address": "上海市普陀区金沙江路1146号", "latitude": "3641232.63117", "guid": "064b399e-bf74-11e7-9bd9-6c92bf041d56"}
{"province": "上海市", "distance": 0.0, "sametype": "same", "thirdId": "17816", "name": "上海弘怡汽车销售服务有限公司", "city": "上海市", "longitude": "13517118.9481", "score": "0.952308", "oldname": "上海弘怡汽车销售服务有限公司", "address": "上海市闵行区沪青公路1218号", "latitude": "3622633.41868", "guid": "06550b22-bf74-11e7-abec-6c92bf041d56"}
{"province": "上海市", "distance": 0.0, "sametype": "same", "thirdId": "17846", "name": "上海英枫汽车销售服务有限公司", "city": "上海市", "longitude": "13471972.1382", "score": "0.985286", "oldname": "上海英枫汽车销售服务有限公司", "address": "上海市金山区枫泾镇朱枫公路9135号", "latitude": "3597615.61543", "guid": "0660089c-bf74-11e7-bdf7-6c92bf041d56"}
{"province": "上海市", "distance": 0.0, "sametype": "same", "thirdId": "10520", "name": "新余市继恒新华夏汽车销售运输连锁有限公司", "city": "上海市", "longitude": "13513665.9055", "score": "0.952338", "oldname": "新余市继恒新华夏汽车销售运输连锁有限公司", "address": "上海市闵行区颛桥镇光华路525号", "latitude": "3620149.15997", "guid": "0666df00-bf74-11e7-8361-6c92bf041d56"}
{"province": "上海市", "distance": 0.0, "sametype": "same", "thirdId": "17911", "name": "上海万帮之星汽车销售服务有限公司", "city": "上海市", "longitude": "13532372.2249", "score": "0.963929", "oldname": "上海万帮之星汽车销售服务有限公司", "address": "上海市浦东新区御桥路1133号", "latitude": "3631398.09627", "guid": "06701ae8-bf74-11e7-837d-6c92bf041d56"}
{"province": "上海市", "distance": 0.0, "sametype": "same", "thirdId": "15058", "name": "上海志伟汽车销售服务有限公司", "city": "上海市", "longitude": "13494282.0541", "score": "0.987555", "oldname": "上海志伟汽车销售服务有限公司", "address": "上海市青浦区华腾路1388号(近嘉松中路)", "latitude": "3641882.1544", "guid": "067a37a8-bf74-11e7-ba91-6c92bf041d56"}
{"province": "上海市", "distance": 0.0, "sametype": "same", "thirdId": "15006", "name": "上海弘汇汽车销售服务有限公司", "city": "上海市", "longitude": "13545404.0", "score": "0.982038", "oldname": "上海弘汇汽车销售服务有限公司", "address": "上海市浦东新区新场镇沪南公路7866号", "latitude": "3615649.0", "guid": "0683c016-bf74-11e7-b95d-6c92bf041d56"}
{"province": "上海市", "distance": 0.0, "sametype": "same", "thirdId": "17823", "name": "上海众骁汽车销售服务有限公司", "city": "上海市", "longitude": "13523176.4", "score": "0.967214", "oldname": "上海众骁汽车销售服务有限公司", "address": "上海市浦东新区国展路189号二期B2-1.2.3.5号", "latitude": "3634415.9", "guid": "068e7d44-bf74-11e7-aee7-6c92bf041d56"}
{"province": "江苏省", "distance": 0.0, "sametype": "same", "thirdId": "14284", "name": "南京金瑞汽车销售服务有限公司", "city": "南京市", "longitude": "13229554.4723", "score": "0.969026", "oldname": "南京金瑞汽车销售服务有限公司", "address": "江苏省南京市东方城68号", "latitude": "3752869.67389", "guid": "069755fe-bf74-11e7-b34c-6c92bf041d56"}
{"province": "江苏省", "distance": 0.0, "sametype": "same", "thirdId": "14285", "name": "江苏长菱汽车集团有限公司", "city": "南京市", "longitude": "13233709.6849", "score": "0.940621", "oldname": "江苏长菱汽车集团有限公司", "address": "江苏省南京市江宁区东麒路汽车4S园润麒路27号", "latitude": "3738937.37013", "guid": "069f1910-bf74-11e7-8843-6c92bf041d56"}
{"province": "江苏省", "distance": 0.0, "sametype": "same", "thirdId": "10144", "name": "无锡市飞亚汽贸有限公司", "city": "无锡市", "longitude": "13405153.1174", "score": "0.971190", "oldname": "无锡市飞亚汽贸有限公司", "address": "江苏省无锡市新区梅村镇泰伯大道丰西路1号奇瑞4S店", "latitude": "3682703.68704", "guid": "06a7ef9a-bf74-11e7-9501-6c92bf041d56"}
{"province": "江苏省", "distance": 0.0, "sametype": "same", "thirdId": "10431", "name": "江阴市扬名汽车贸易有限公司", "city": "无锡市", "longitude": "13393554.23", "score": "0.990450", "oldname": "江阴市扬名汽车贸易有限公司", "address": "江苏省江阴市澄杨路50号", "latitude": "3726242.05", "guid": "06b0e3d4-bf74-11e7-9967-6c92bf041d56"}
{"province": "江苏省", "distance": 0.0, "sametype": "same", "thirdId": "11276", "name": "宜兴市广通汽车销售有限公司", "city": "无锡市", "longitude": "13335305.28", "score": "0.963318", "oldname": "宜兴市广通汽车销售有限公司", "address": "江苏省宜兴市融达汽车城4幢", "latitude": "3661182.74", "guid": "06ba87a4-bf74-11e7-be41-6c92bf041d56"}
{"province": "江苏省", "distance": 0.0, "sametype": "same", "thirdId": "15146", "name": "无锡市大明汽车贸易有限公司", "city": "无锡市", "longitude": "13400866.9303", "score": "0.990758", "oldname": "无锡市大明汽车贸易有限公司", "address": "江苏省无锡市芙蓉五路8号", "latitude": "3692080.34447", "guid": "06c32d78-bf74-11e7-b908-6c92bf041d56"}
{"province": "江苏省", "distance": 0.0, "sametype": "same", "thirdId": "15807", "name": "邳州市捷奥汽车销售有限公司", "city": "徐州市", "longitude": "13125255.373", "score": "0.974928", "oldname": "邳州市捷奥汽车销售有限公司", "address": "江苏省邳州市徐海一级公路008号（新车管所西侧）", "latitude": "4048248.22862", "guid": "06cbe8c8-bf74-11e7-a237-6c92bf041d56"}
{"province": "江苏省", "distance": 0.0, "sametype": "same", "thirdId": "17055", "name": "徐州瑞彩汽车销售服务有限公司", "city": "徐州市", "longitude": "13051851.1", "score": "0.974018", "oldname": "徐州瑞彩汽车销售服务有限公司", "address": "江苏省徐州市经济技术开发区三环东路53号", "latitude": "4043484.6", "guid": "06d654f2-bf74-11e7-8d95-6c92bf041d56"}
{"province": "江苏省", "distance": 0.0, "sametype": "same", "thirdId": "17922", "name": "徐州瑞彩汽车销售服务有限公司云龙分公司", "city": "徐州市", "longitude": "13050398.3", "score": "0.979094", "oldname": "徐州瑞彩汽车销售服务有限公司云龙分公司", "address": "江苏省徐州市云龙区食品城万安路1号苏海车城H1-3", "latitude": "4036033.8", "guid": "06e21e40-bf74-11e7-9f33-6c92bf041d56"}
{"province": "江苏省", "distance": 0.0, "sametype": "same", "thirdId": "17753", "name": "常州瑞彩汽车销售服务有限公司", "city": "常州市", "longitude": "13357237.3585", "score": "0.970389", "oldname": "常州瑞彩汽车销售服务有限公司", "address": "江苏省新北区通江中路613号", "latitude": "3720408.33606", "guid": "06eb2418-bf74-11e7-ac03-6c92bf041d56"}
{"province": "江苏省", "distance": 0.0, "sametype": "same", "thirdId": "10586", "name": "昆山市永达汽车销售服务有限公司", "city": "苏州市", "longitude": "13468032.3969", "score": "0.970814", "oldname": "昆山市永达汽车销售服务有限公司", "address": "江苏省昆山市长江北路388号", "latitude": "3665899.33577", "guid": "06f4a8f8-bf74-11e7-8188-6c92bf041d56"}
{"province": "江苏省", "distance": 0.0, "sametype": "same", "thirdId": "10547", "name": "常熟市中天汽车销售服务有限公司", "city": "苏州市", "longitude": "13447933.1535", "score": "0.975781", "oldname": "常熟市中天汽车销售服务有限公司", "address": "江苏省常熟市青墩塘路188号", "latitude": "3693947.7357", "guid": "06fc512a-bf74-11e7-9f9e-6c92bf041d56"}
{"province": "江苏省", "distance": 0.0, "sametype": "same", "thirdId": "10697", "name": "苏州苏丰汽车销售服务有限公司", "city": "苏州市", "longitude": "13420039.0439", "score": "0.959281", "oldname": "苏州苏丰汽车销售服务有限公司", "address": "江苏省苏州市木渎中山东路168号", "latitude": "3644722.31199", "guid": "07065904-bf74-11e7-8860-6c92bf041d56"}
{"province": "江苏省", "distance": 0.0, "sametype": "same", "thirdId": "17376", "name": "苏州瀚明汽车销售服务有限公司", "city": "苏州市", "longitude": "13419198.1699", "score": "0.976752", "oldname": "苏州瀚明汽车销售服务有限公司", "address": "苏州高新区华山路125号", "latitude": "3651746.50562", "guid": "07108b4a-bf74-11e7-bf5e-6c92bf041d56"}
{"province": "江苏省", "distance": 0.0, "sametype": "same", "thirdId": "15113", "name": "太仓鑫瑞汽车销售有限公司", "city": "苏州市", "longitude": "13479265.3423", "score": "0.978639", "oldname": "太仓鑫瑞汽车销售有限公司", "address": "江苏省太仓市城厢镇弇山西路132号", "latitude": "3669321.69069", "guid": "07194c94-bf74-11e7-8877-6c92bf041d56"}
{"province": "江苏省", "distance": 0.0, "sametype": "same", "thirdId": "18362", "name": "苏州恒众汽车销售服务有限公司", "city": "苏州市", "longitude": "13428196.9087", "score": "0.976548", "oldname": "苏州恒众汽车销售服务有限公司", "address": "江苏省苏州市太阳路汽车城3027号", "latitude": "3664564.22409", "guid": "07202a78-bf74-11e7-8a6b-6c92bf041d56"}
{"province": "江苏省", "distance": 0.0, "sametype": "same", "thirdId": "18356", "name": "海门乾顺汽车销售服务有限公司", "city": "南通市", "longitude": "13484613.2661", "score": "0.981857", "oldname": "海门乾顺汽车销售服务有限公司", "address": "江苏省海门市人民西路1700号三和汽车广场", "latitude": "3726196.92661", "guid": "072860ee-bf74-11e7-b291-6c92bf041d56"}
{"province": "江苏省", "distance": 0.0, "sametype": "same", "thirdId": "14635", "name": "南通和奇祥汽车销售服务有限公司", "city": "南通市", "longitude": "13458786.3194", "score": "0.974209", "oldname": "南通和奇祥汽车销售服务有限公司", "address": "江苏省南通市城港路309号", "latitude": "3735833.19496", "guid": "07323f92-bf74-11e7-840f-6c92bf041d56"}
{"province": "江苏省", "distance": 0.0, "sametype": "same", "thirdId": "15997", "name": "南通乾通汽车销售有限公司", "city": "南通市", "longitude": "13458786.3194", "score": "0.982539", "oldname": "南通乾通汽车销售有限公司", "address": "江苏省南通市城港路198号", "latitude": "3735833.19496", "guid": "073e1ee8-bf74-11e7-8003-6c92bf041d56"}
{"province": "江苏省", "distance": 0.0, "sametype": "same", "thirdId": "12637", "name": "如皋市广益汽车销售有限公司", "city": "南通市", "longitude": "13421640.5162", "score": "0.977093", "oldname": "如皋市广益汽车销售有限公司", "address": "江苏省如皋市如城镇许庄村", "latitude": "3790296.26715", "guid": "07472ce0-bf74-11e7-9bac-6c92bf041d56"}
{"province": "江苏省", "distance": 0.0, "sametype": "same", "thirdId": "12044", "name": "连云港腾瑞汽车销售服务有限公司", "city": "连云港市", "longitude": "13269215.8397", "score": "0.977952", "oldname": "连云港腾瑞汽车销售服务有限公司", "address": "江苏省连云港市新浦区解放东路丁字路口向南500米路东", "latitude": "4088869.30322", "guid": "07536fc8-bf74-11e7-9a52-6c92bf041d56"}
{"province": "江苏省", "distance": 0.0, "sametype": "same", "thirdId": "17619", "name": "连云港腾瑞汽车销售服务有限公司新浦分公司", "city": "连云港市", "longitude": "13271096.1", "score": "0.979784", "oldname": "连云港腾瑞汽车销售服务有限公司新浦分公司", "address": "江苏省连云港市新浦区瀛洲南路宁连高速入口", "latitude": "4083543.1", "guid": "075f93e8-bf74-11e7-8422-6c92bf041d56"}
{"province": "江苏省", "distance": 0.0, "sametype": "same", "thirdId": "14427", "name": "淮安长菱汽车销售服务有限公司", "city": "淮安市", "longitude": "13259500.8", "score": "0.963844", "oldname": "淮安长菱汽车销售服务有限公司", "address": "江苏省淮安市清河新区旺旺大道50号", "latitude": "3953783.6", "guid": "076936d2-bf74-11e7-ba40-6c92bf041d56"}
{"province": "江苏省", "distance": 0.0, "sametype": "same", "thirdId": "15571", "name": "盐城众惠汽车销售服务有限公司", "city": "盐城市", "longitude": "13374048.5393", "score": "0.983391", "oldname": "盐城众惠汽车销售服务有限公司", "address": "江苏省盐城市开创路1号（永宁汽车广场南华兴汽配城B区）", "latitude": "3915737.74622", "guid": "0772c0da-bf74-11e7-88a1-6c92bf041d56"}
{"province": "江苏省", "distance": 0.0, "sametype": "same", "thirdId": "15647", "name": "盐城市瑞天汽车销售服务有限公司", "city": "盐城市", "longitude": "13373918.9297", "score": "0.971234", "oldname": "盐城市瑞天汽车销售服务有限公司", "address": "江苏省盐城市世纪大道288号", "latitude": "3916433.09071", "guid": "077aeb66-bf74-11e7-947f-6c92bf041d56"}
{"province": "江苏省", "distance": 0.0, "sametype": "same", "thirdId": "11133", "name": "扬州市新江南汽车销售服务有限公司", "city": "扬州市", "longitude": "13293407.7867", "score": "0.978707", "oldname": "扬州市新江南汽车销售服务有限公司", "address": "江苏省扬州市祥和路26号", "latitude": "3789230.65079", "guid": "07871ce2-bf74-11e7-9a19-6c92bf041d56"}
{"province": "江苏省", "distance": 0.0, "sametype": "same", "thirdId": "18211", "name": "扬州百瑞杰汽车销售服务有限公司", "city": "扬州市", "longitude": "13327015.8958", "score": "0.991064", "oldname": "扬州百瑞杰汽车销售服务有限公司", "address": "江苏省扬州市江都区国际汽车城内", "latitude": "3812413.3603", "guid": "0790b6e4-bf74-11e7-9479-6c92bf041d56"}
{"province": "江苏省", "distance": 0.0, "sametype": "same", "thirdId": "14177", "name": "丹阳市新时代汽车贸易有限公司", "city": "镇江市", "longitude": "13309396.1", "score": "0.988680", "oldname": "丹阳市新时代汽车贸易有限公司", "address": "江苏省丹阳市锦湖路112号", "latitude": "3742271.5", "guid": "07995a1a-bf74-11e7-aefa-6c92bf041d56"}
{"province": "江苏省", "distance": 0.0, "sametype": "same", "thirdId": "16820", "name": "镇江长菱汽车销售服务有限公司", "city": "镇江市", "longitude": "13304755.3275", "score": "0.965531", "oldname": "镇江长菱汽车销售服务有限公司", "address": "江苏省镇江市丁卯桥路271号", "latitude": "3764647.87575", "guid": "07a11d0e-bf74-11e7-94d0-6c92bf041d56"}
{"province": "江苏省", "distance": 0.0, "sametype": "same", "thirdId": "10138", "name": "泰州市安奇汽车销售服务有限公司", "city": "泰州市", "longitude": "13351566.93", "score": "0.975477", "oldname": "泰州市安奇汽车销售服务有限公司", "address": "江苏省泰州市兴泰公路铁路北侧100米", "latitude": "3823815.97", "guid": "07a99e52-bf74-11e7-8963-6c92bf041d56"}
{"province": "江苏省", "distance": 0.0, "sametype": "same", "thirdId": "17632", "name": "靖江市宝瑞汽车销售服务有限公司", "city": "泰州市", "longitude": "13387044.6924", "score": "0.979471", "oldname": "靖江市宝瑞汽车销售服务有限公司", "address": "靖江市西环南路55号地中海花园18号楼12号", "latitude": "3743787.80352", "guid": "07b0fa44-bf74-11e7-97fa-6c92bf041d56"}
{"province": "江苏省", "distance": 0.0, "sametype": "same", "thirdId": "17377", "name": "宿迁长菱汽车销售服务有限公司", "city": "宿迁市", "longitude": "13163181.9501", "score": "0.963536", "oldname": "宿迁长菱汽车销售服务有限公司", "address": "宿迁市宿城区双庄镇双庄街迅驰路西首5-8号", "latitude": "3997109.64591", "guid": "07b9e316-bf74-11e7-a881-6c92bf041d56"}
{"province": "浙江省", "distance": 0.0, "sametype": "same", "thirdId": "10783", "name": "浙江隆中汽车销售服务有限公司", "city": "杭州市", "longitude": "13382489.6196", "score": "0.984266", "oldname": "浙江隆中汽车销售服务有限公司", "address": "浙江省杭州市江干区艮山西路82号", "latitude": "3518449.82831", "guid": "07c39366-bf74-11e7-888a-6c92bf041d56"}
{"province": "浙江省", "distance": 0.0, "sametype": "same", "thirdId": "12161", "name": "浙江奇祥汽车销售服务有限公司", "city": "杭州市", "longitude": "13380831.8283", "score": "0.974076", "oldname": "浙江奇祥汽车销售服务有限公司", "address": "浙江省杭州市下城区石桥路290号", "latitude": "3523874.21984", "guid": "07ceb66a-bf74-11e7-9ed5-6c92bf041d56"}
{"province": "浙江省", "distance": 0.0, "sametype": "same", "thirdId": "15563", "name": "杭州志勤汽车销售服务有限公司", "city": "杭州市", "longitude": "13393453.6", "score": "0.977921", "oldname": "杭州志勤汽车销售服务有限公司", "address": "浙江省杭州市萧山区新塘街道萧绍东路66号", "latitude": "3503828.4", "guid": "07d9cb4a-bf74-11e7-b5cf-6c92bf041d56"}
{"province": "浙江省", "distance": 0.0, "sametype": "same", "thirdId": "18353", "name": "宁波德瑞汽车销售服务有限公司", "city": "宁波市", "longitude": "13504693.3541", "score": "0.967818", "oldname": "宁波德瑞汽车销售服务有限公司", "address": "浙江省宁波市慈溪市逍林汽车城汽贸大道788号车管所对面", "latitude": "3505231.25313", "guid": "07f1fbe8-bf74-11e7-a243-6c92bf041d56"}
{"province": "浙江省", "distance": 0.0, "sametype": "same", "thirdId": "10103", "name": "宁波宏瑞汽车销售服务有限公司", "city": "宁波市", "longitude": "13536244.2579", "score": "0.969743", "oldname": "宁波宏瑞汽车销售服务有限公司", "address": "浙江省宁波市江东中兴北路86号", "latitude": "3468247.47044", "guid": "07fb6e9e-bf74-11e7-81b1-6c92bf041d56"}
{"province": "浙江省", "distance": 0.0, "sametype": "same", "thirdId": "14104", "name": "余姚市佳达汽车销售服务有限公司", "city": "宁波市", "longitude": "13484037.2233", "score": "0.962372", "oldname": "余姚市佳达汽车销售服务有限公司", "address": "浙江省余姚市兰江街道西环南路555号", "latitude": "3486971.12865", "guid": "08062460-bf74-11e7-bb77-6c92bf041d56"}
{"province": "浙江省", "distance": 0.0, "sametype": "same", "thirdId": "17488", "name": "宁波翔瑞汽车销售服务有限公司", "city": "宁波市", "longitude": "13560762.8518", "score": "0.981202", "oldname": "宁波翔瑞汽车销售服务有限公司", "address": "浙江省宁波市北仑区新契南海路45号1幢1层西首", "latitude": "3472752.52464", "guid": "080d2d46-bf74-11e7-98ad-6c92bf041d56"}
{"province": "浙江省", "distance": 0.0, "sametype": "same", "thirdId": "16883", "name": "慈溪欣瑞汽车销售服务有限公司", "city": "宁波市", "longitude": "13509339.0761", "score": "0.979392", "oldname": "慈溪欣瑞汽车销售服务有限公司", "address": "慈溪市桥头镇工业开发区桥头路473号", "latitude": "3502974.76919", "guid": "0815dc48-bf74-11e7-ab8b-6c92bf041d56"}
{"province": "浙江省", "distance": 0.0, "sametype": "same", "thirdId": "17524", "name": "温州祥凯汽车销售有限公司", "city": "温州市", "longitude": "13433452.1653", "score": "0.984975", "oldname": "温州祥凯汽车销售有限公司", "address": "温州市瓯海区蟠凤汽车城B05", "latitude": "3224722.45629", "guid": "082069ce-bf74-11e7-bbb4-6c92bf041d56"}
{"province": "浙江省", "distance": 0.0, "sametype": "same", "thirdId": "17793", "name": "瑞安市奔迈汽车销售有限公司", "city": "温州市", "longitude": "13433846.0", "score": "0.943980", "oldname": "瑞安市奔迈汽车销售有限公司", "address": "浙江省温州市瑞安市莘塍街道董四村104国道边", "latitude": "3202814.35", "guid": "08299f62-bf74-11e7-9abe-6c92bf041d56"}
{"province": "浙江省", "distance": 0.0, "sametype": "same", "thirdId": "18320", "name": "苍南县鹏瑞汽车销售服务有限公司", "city": "温州市", "longitude": "13407808.4912", "score": "0.977681", "oldname": "苍南县鹏瑞汽车销售服务有限公司", "address": "浙江省温州市苍南县灵溪镇工业园区一路", "latitude": "3170763.77697", "guid": "0833a750-bf74-11e7-84bf-6c92bf041d56"}
{"province": "浙江省", "distance": 0.0, "sametype": "same", "thirdId": "11191", "name": "苍南县大华汽车销售服务有限公司", "city": "温州市", "longitude": "13420748.9648", "score": "0.975474", "oldname": "苍南县大华汽车销售服务有限公司", "address": "浙江省温州市龙港镇龙金大道海港路路口", "latitude": "3176714.65531", "guid": "0843732e-bf74-11e7-a847-6c92bf041d56"}
{"province": "浙江省", "distance": 0.0, "sametype": "same", "thirdId": "10422", "name": "嘉兴市国信加达汽车销售服务有限公司", "city": "嘉兴市", "longitude": "13443791.3077", "score": "0.968002", "oldname": "嘉兴市国信加达汽车销售服务有限公司", "address": "浙江省嘉兴市中环北路平一路口", "latitude": "3583791.91541", "guid": "084c9864-bf74-11e7-adf6-6c92bf041d56"}
{"province": "浙江省", "distance": 0.0, "sametype": "same", "thirdId": "12438", "name": "嘉兴市凯瑞汽车销售服务有限公司", "city": "嘉兴市", "longitude": "13440402.0925", "score": "0.990230", "oldname": "嘉兴市凯瑞汽车销售服务有限公司", "address": "浙江省嘉兴市经济开发区沐阳路349号", "latitude": "3583760.44697", "guid": "08579ba6-bf74-11e7-bdff-6c92bf041d56"}
{"province": "浙江省", "distance": 0.0, "sametype": "same", "thirdId": "17420", "name": "湖州奇祥汽车销售服务有限公司", "city": "湖州市", "longitude": "13367246.5342", "score": "0.978162", "oldname": "湖州奇祥汽车销售服务有限公司", "address": "浙江省湖州二环西路698号-1", "latitude": "3593419.00437", "guid": "0860f76e-bf74-11e7-b5b4-6c92bf041d56"}
{"province": "浙江省", "distance": 0.0, "sametype": "same", "thirdId": "17807", "name": "安吉合丰汽车销售服务有限公司", "city": "湖州市", "longitude": "13323238.8859", "score": "0.981620", "oldname": "安吉合丰汽车销售服务有限公司", "address": "浙江省安吉市昌硕街道恒威路288号", "latitude": "3562228.2486", "guid": "086a4224-bf74-11e7-8166-6c92bf041d56"}
{"province": "浙江省", "distance": 0.0, "sametype": "same", "thirdId": "17447", "name": "诸暨丰瑞汽车销售服务有限公司", "city": "绍兴市", "longitude": "13386622.3734", "score": "0.980194", "oldname": "诸暨丰瑞汽车销售服务有限公司", "address": "浙江省诸暨市暨阳街道环城北路88号", "latitude": "3448467.09367", "guid": "08743c0c-bf74-11e7-b155-6c92bf041d56"}
{"province": "浙江省", "distance": 0.0, "sametype": "same", "thirdId": "17682", "name": "绍兴市裕盛汽车销售服务有限公司", "city": "绍兴市", "longitude": "13426837.1416", "score": "0.971405", "oldname": "绍兴市裕盛汽车销售服务有限公司", "address": "绍兴市越城区袍江康宁路", "latitude": "3494769.6011", "guid": "087d70ec-bf74-11e7-9470-6c92bf041d56"}
{"province": "浙江省", "distance": 0.0, "sametype": "same", "thirdId": "11008", "name": "绍兴市北方汽车贸易有限公司", "city": "绍兴市", "longitude": "13431664.7731", "score": "0.985405", "oldname": "绍兴市北方汽车贸易有限公司", "address": "浙江省绍兴市生态产业园人民东路银桥路口", "latitude": "3482047.2657", "guid": "0886478a-bf74-11e7-9580-6c92bf041d56"}
{"province": "浙江省", "distance": 0.0, "sametype": "same", "thirdId": "10770", "name": "嵊州市普惠汽车修理有限公司", "city": "绍兴市", "longitude": "13451977.2807", "score": "0.987965", "oldname": "嵊州市普惠汽车修理有限公司", "address": "嵊州市兴盛街1258号", "latitude": "3428355.41292", "guid": "088d546c-bf74-11e7-9a44-6c92bf041d56"}
{"province": "浙江省", "distance": 0.0, "sametype": "same", "thirdId": "10081", "name": "金华元瑞汽车销售服务有限公司", "city": "金华市", "longitude": "13324724.54", "score": "0.990938", "oldname": "金华元瑞汽车销售服务有限公司", "address": "浙江省金华市仙桥汽车城西九路奇瑞专卖店", "latitude": "3373253.59", "guid": "089677a4-bf74-11e7-9e86-6c92bf041d56"}
{"province": "浙江省", "distance": 0.0, "sametype": "same", "thirdId": "13045", "name": "永康市奇博汽车销售服务有限公司", "city": "金华市", "longitude": "13360543.5567", "score": "0.982180", "oldname": "永康市奇博汽车销售服务有限公司", "address": "浙江省永康市九铃西路1019号", "latitude": "3343934.9987", "guid": "08a38b06-bf74-11e7-8b10-6c92bf041d56"}
{"province": "浙江省", "distance": 0.0, "sametype": "same", "thirdId": "17860", "name": "东阳和通汽车销售服务有限公司", "city": "金华市", "longitude": "13382211.6", "score": "0.973011", "oldname": "东阳和通汽车销售服务有限公司", "address": "浙江省东阳市白云街道城南西路290号1楼13、14号商铺", "latitude": "3389629.2", "guid": "08ad3a16-bf74-11e7-a506-6c92bf041d56"}
{"province": "浙江省", "distance": 0.0, "sametype": "same", "thirdId": "17949", "name": "义乌市成瑞汽车销售有限公司", "city": "金华市", "longitude": "13366233.2748", "score": "0.971096", "oldname": "义乌市成瑞汽车销售有限公司", "address": "浙江省义乌市北苑街道机场路609号", "latitude": "3396792.63354", "guid": "08b984a6-bf74-11e7-a978-6c92bf041d56"}
{"province": "浙江省", "distance": 0.0, "sametype": "same", "thirdId": "17725", "name": "义乌正瑞汽车销售服务有限公司", "city": "金华市", "longitude": "13366086.226", "score": "0.976707", "oldname": "义乌正瑞汽车销售服务有限公司", "address": "浙江省义乌市贝村路102号-8", "latitude": "3393715.32138", "guid": "08c4fd0e-bf74-11e7-83ad-6c92bf041d56"}
{"province": "浙江省", "distance": 0.0, "sametype": "same", "thirdId": "11175", "name": "东阳市利达汽车修理服务有限公司", "city": "金华市", "longitude": "13382129.8712", "score": "0.978747", "oldname": "东阳市利达汽车修理服务有限公司", "address": "浙江省东阳市白云经济开发区(陶村)", "latitude": "3389861.51377", "guid": "08cbf0fa-bf74-11e7-839c-6c92bf041d56"}
{"province": "浙江省", "distance": 0.0, "sametype": "same", "thirdId": "15741", "name": "衢州市广瑞汽车销售有限公司", "city": "衢州市", "longitude": "13243993.0379", "score": "0.969693", "oldname": "衢州市广瑞汽车销售有限公司", "address": "浙江省衢州市衢江区东迹大道886号", "latitude": "3351929.6339", "guid": "08d678fe-bf74-11e7-9f23-6c92bf041d56"}
{"province": "浙江省", "distance": 0.0, "sametype": "same", "thirdId": "12207", "name": "台州市福马汽车销售有限公司", "city": "台州市", "longitude": "13514078.3209", "score": "0.982156", "oldname": "台州市福马汽车销售有限公司", "address": "浙江省台州市路桥区泰隆街418号", "latitude": "3300966.05389", "guid": "08e1cca4-bf74-11e7-bcb2-6c92bf041d56"}
{"province": "浙江省", "distance": 0.0, "sametype": "same", "thirdId": "13134", "name": "台州宏瑞汽车销售服务有限公司", "city": "台州市", "longitude": "13517576.3698", "score": "0.973233", "oldname": "台州宏瑞汽车销售服务有限公司", "address": "浙江省台州市椒江区开发大道春潮村", "latitude": "3309378.66688", "guid": "08eed82c-bf74-11e7-8750-6c92bf041d56"}
{"province": "浙江省", "distance": 0.0, "sametype": "same", "thirdId": "17701", "name": "台州市天鹰汽车贸易有限公司", "city": "台州市", "longitude": "13513984.5357", "score": "0.980389", "oldname": "台州市天鹰汽车贸易有限公司", "address": "浙江省台州市温岭横山头汽车城a7钱江摩托厂边", "latitude": "3279383.97629", "guid": "08f7d8fa-bf74-11e7-8ed3-6c92bf041d56"}
{"province": "浙江省", "distance": 0.0, "sametype": "same", "thirdId": "15387", "name": "丽水市奥奇汽车销售服务有限公司", "city": "丽水市", "longitude": "13354190.6079", "score": "0.974527", "oldname": "丽水市奥奇汽车销售服务有限公司", "address": "浙江省丽水市岩泉汽车城L地块", "latitude": "3288970.81619", "guid": "08feb38c-bf74-11e7-bc1b-6c92bf041d56"}
{"province": "安徽省", "distance": 0.0, "sametype": "same", "thirdId": "10481", "name": "安徽复兴汽车有限责任公司", "city": "合肥市", "longitude": "13062508.9618", "score": "0.985387", "oldname": "安徽复兴汽车有限责任公司", "address": "安徽省合肥新站区汴河路安徽国际汽车城内", "latitude": "3726211.66941", "guid": "090969c6-bf74-11e7-8d2c-6c92bf041d56"}
{"province": "安徽省", "distance": 0.0, "sametype": "same", "thirdId": "12408", "name": "安徽骋瑞汽车有限责任公司", "city": "合肥市", "longitude": "13061496.27", "score": "0.987665", "oldname": "安徽骋瑞汽车有限责任公司", "address": "安徽省合肥市包河工业区纬一路8号", "latitude": "3714074.06", "guid": "0911035c-bf74-11e7-a3e5-6c92bf041d56"}
{"province": "安徽省", "distance": 0.0, "sametype": "same", "thirdId": "15098", "name": "合肥盈丰奇祥汽车销售服务有限公司", "city": "合肥市", "longitude": "13044833.8359", "score": "0.973328", "oldname": "合肥盈丰奇祥汽车销售服务有限公司", "address": "合肥市蜀山区安徽名车广场1288号", "latitude": "3721890.84754", "guid": "0919ee40-bf74-11e7-9ab8-6c92bf041d56"}
{"province": "安徽省", "distance": 0.0, "sametype": "same", "thirdId": "17360", "name": "合肥巢湖经济开发区盈丰奇祥汽车销售服务有限公司", "city": "合肥市", "longitude": "13126979.54", "score": "0.966968", "oldname": "合肥巢湖经济开发区盈丰奇祥汽车销售服务有限公司", "address": "合肥巢湖经开区金山路东侧亚夏汽车城", "latitude": "3694249.47", "guid": "0922ebe4-bf74-11e7-8e48-6c92bf041d56"}
{"province": "安徽省", "distance": 0.0, "sametype": "same", "thirdId": "12297", "name": "安徽省合肥小汽车维修服务有限责任公司", "city": "合肥市", "longitude": "13060776.4027", "score": "0.960353", "oldname": "安徽省合肥小汽车维修服务有限责任公司", "address": "安徽省合肥市长江东路853号", "latitude": "3723933.37702", "guid": "092f5118-bf74-11e7-bcfa-6c92bf041d56"}
{"province": "安徽省", "distance": 0.0, "sametype": "same", "thirdId": "10554", "name": "安徽省直机关汽车修理厂", "city": "合肥市", "longitude": "13062214.21", "score": "0.990627", "oldname": "安徽省直机关汽车修理厂", "address": "安徽省合肥市徽州大道1186号", "latitude": "3722270.8", "guid": "0939be32-bf74-11e7-9898-6c92bf041d56"}
{"province": "安徽省", "distance": 0.0, "sametype": "same", "thirdId": "10145", "name": "芜湖安奇汽车股份有限公司", "city": "芜湖市", "longitude": "13180854.6199", "score": "0.949160", "oldname": "芜湖安奇汽车股份有限公司", "address": "安徽省芜湖市鸠江区汽车工业园扩大园区", "latitude": "3659564.13645", "guid": "09443308-bf74-11e7-b564-6c92bf041d56"}
{"province": "安徽省", "distance": 0.0, "sametype": "same", "thirdId": "14911", "name": "无为奇祥汽车销售有限公司", "city": "芜湖市", "longitude": "13125198.3636", "score": "0.971889", "oldname": "无为奇祥汽车销售有限公司", "address": "安徽省无为县巢无路交警大队隔壁", "latitude": "3650829.55748", "guid": "09500232-bf74-11e7-b969-6c92bf041d56"}
{"province": "安徽省", "distance": 0.0, "sametype": "same", "thirdId": "11321", "name": "蚌埠市润利汽车销售服务有限公司", "city": "蚌埠市", "longitude": "13086320.45", "score": "0.967481", "oldname": "蚌埠市润利汽车销售服务有限公司", "address": "安徽省蚌埠市迎宾大道国际汽车城北门南50米", "latitude": "3855980.23", "guid": "0958711a-bf74-11e7-9728-6c92bf041d56"}
{"province": "安徽省", "distance": 0.0, "sametype": "same", "thirdId": "15412", "name": "淮南市鑫皇实业有限责任公司汽车贸易分公司", "city": "淮南市", "longitude": "13025233.85", "score": "0.988267", "oldname": "淮南市鑫皇实业有限责任公司汽车贸易分公司", "address": "安徽省淮南市经济技术开发区206国道南侧", "latitude": "3814260.7", "guid": "09627dae-bf74-11e7-b6f6-6c92bf041d56"}
{"province": "安徽省", "distance": 0.0, "sametype": "same", "thirdId": "14275", "name": "安徽省马鞍山市中大汽车贸易有限公司", "city": "马鞍山市", "longitude": "13190302.0116", "score": "0.993352", "oldname": "安徽省马鞍山市中大汽车贸易有限公司", "address": "安徽省马鞍山市雨山开发区九华路西段", "latitude": "3696188.38064", "guid": "096ca70c-bf74-11e7-9845-6c92bf041d56"}
{"province": "安徽省", "distance": 0.0, "sametype": "same", "thirdId": "17925", "name": "马鞍山市中瑞汽车销售服务有限公司", "city": "马鞍山市", "longitude": "13191973.9093", "score": "0.987071", "oldname": "马鞍山市中瑞汽车销售服务有限公司", "address": "马鞍山开发区湖西南路汽博城9-106", "latitude": "3691040.07719", "guid": "09765108-bf74-11e7-866d-6c92bf041d56"}
{"province": "安徽省", "distance": 0.0, "sametype": "same", "thirdId": "14075", "name": "淮北安奇汽车销售服务有限公司", "city": "淮北市", "longitude": "13002189.1", "score": "0.967751", "oldname": "淮北安奇汽车销售服务有限公司", "address": "安徽省淮北市孟山中路85号", "latitude": "3995919.8", "guid": "09818a96-bf74-11e7-bdad-6c92bf041d56"}
{"province": "安徽省", "distance": 0.0, "sametype": "same", "thirdId": "15770", "name": "铜陵大地汽车销售服务有限公司", "city": "铜陵市", "longitude": "13123569.65", "score": "0.989434", "oldname": "铜陵大地汽车销售服务有限公司", "address": "安徽省铜陵市狮子山区国际汽车城内", "latitude": "3603405.55", "guid": "098af054-bf74-11e7-bf3a-6c92bf041d56"}
{"province": "安徽省", "distance": 0.0, "sametype": "same", "thirdId": "14835", "name": "安庆市冠豪汽车销售有限公司", "city": "安庆市", "longitude": "13031880.7393", "score": "0.974091", "oldname": "安庆市冠豪汽车销售有限公司", "address": "安徽省安庆市宜秀区石塘湖路10号英德利国际汽车城3号钢构对面4号地块", "latitude": "3555327.93816", "guid": "09934434-bf74-11e7-ad39-6c92bf041d56"}
{"province": "安徽省", "distance": 0.0, "sametype": "same", "thirdId": "14836", "name": "太湖县强瑞汽车修理有限公司", "city": "安庆市", "longitude": "12951589.4881", "score": "0.992384", "oldname": "太湖县强瑞汽车修理有限公司", "address": "安徽省安庆市太湖县经济开发区纬一路2号", "latitude": "3539920.06263", "guid": "099d488a-bf74-11e7-95a5-6c92bf041d56"}
{"province": "安徽省", "distance": 0.0, "sametype": "same", "thirdId": "14290", "name": "黄山兆瑞汽车销售服务有限公司", "city": "黄山市", "longitude": "13165978.4794", "score": "0.980575", "oldname": "黄山兆瑞汽车销售服务有限公司", "address": "安徽省黄山市经济开发区梅林大道", "latitude": "3453816.42234", "guid": "09a7e9fc-bf74-11e7-98f4-6c92bf041d56"}
{"province": "安徽省", "distance": 0.0, "sametype": "same", "thirdId": "14547", "name": "滁州市和奇祥汽车销售服务有限公司", "city": "滁州市", "longitude": "13177798.4", "score": "0.971593", "oldname": "滁州市和奇祥汽车销售服务有限公司", "address": "安徽省滁州经济技术开发区凤阳路", "latitude": "3779592.2", "guid": "09b29afa-bf74-11e7-9bfc-6c92bf041d56"}
{"province": "安徽省", "distance": 0.0, "sametype": "same", "thirdId": "15939", "name": "安徽省诺瑞祥汽车贸易有限公司", "city": "滁州市", "longitude": "13087720.66", "score": "0.991461", "oldname": "安徽省诺瑞祥汽车贸易有限公司", "address": "安徽省滁州市凤阳县府城镇九华路41号", "latitude": "3856858.23", "guid": "09b98f7c-bf74-11e7-9628-6c92bf041d56"}
{"province": "安徽省", "distance": 0.0, "sametype": "same", "thirdId": "18481", "name": "阜阳市迎宾汽车销售服务有限公司", "city": "阜阳市", "longitude": "12897642.6424", "score": "0.983508", "oldname": "阜阳市迎宾汽车销售服务有限公司", "address": "阜阳市经济技术开发区新安大道556号盐业公司一楼", "latitude": "3853371.85057", "guid": "09c1df2e-bf74-11e7-b6d5-6c92bf041d56"}
{"province": "安徽省", "distance": 0.0, "sametype": "same", "thirdId": "15068", "name": "阜阳和奇祥汽车销售服务有限公司", "city": "阜阳市", "longitude": "12898897.521", "score": "0.961346", "oldname": "阜阳和奇祥汽车销售服务有限公司", "address": "安徽省阜阳市经济技术开发区汽贸物流园会展中心对面奇瑞4S店", "latitude": "3851904.34843", "guid": "09c9867a-bf74-11e7-9683-6c92bf041d56"}
{"province": "安徽省", "distance": 0.0, "sametype": "same", "thirdId": "12096", "name": "安徽省顺泰汽车贸易有限公司", "city": "阜阳市", "longitude": "12837368.82", "score": "0.984948", "oldname": "安徽省顺泰汽车贸易有限公司", "address": "安徽省阜阳市临泉县工业园区邢塘三叉路口西500米路北", "latitude": "3875309.4", "guid": "09d469d2-bf74-11e7-9692-6c92bf041d56"}
{"province": "安徽省", "distance": 0.0, "sametype": "same", "thirdId": "17483", "name": "宿州市海磊汽车贸易有限公司", "city": "宿州市", "longitude": "13023263.37", "score": "0.985663", "oldname": "宿州市海磊汽车贸易有限公司", "address": "安徽省宿州市循环经济示范园纬五路", "latitude": "3956245.78", "guid": "09e017c8-bf74-11e7-a4b6-6c92bf041d56"}
{"province": "安徽省", "distance": 0.0, "sametype": "same", "thirdId": "14212", "name": "安徽省亳州市英旗汽车销售服务有限公司", "city": "亳州市", "longitude": "12886332.331", "score": "0.980653", "oldname": "安徽省亳州市英旗汽车销售服务有限公司", "address": "安徽省亳州市药都大道铁路桥东300米路南", "latitude": "3984268.00417", "guid": "09f25c58-bf74-11e7-8671-6c92bf041d56"}
{"province": "安徽省", "distance": 0.0, "sametype": "same", "thirdId": "17859", "name": "蒙城县英旗汽车销售有限公司", "city": "亳州市", "longitude": "12977461.5719", "score": "0.991534", "oldname": "蒙城县英旗汽车销售有限公司", "address": "安徽省亳州市蒙城县庄子大道与政通路交汇处西北处", "latitude": "3904715.01958", "guid": "09fc8b4c-bf74-11e7-931e-6c92bf041d56"}
{"province": "安徽省", "distance": 0.0, "sametype": "same", "thirdId": "12126", "name": "六安市欧亚汽车销售有限公司", "city": "六安市", "longitude": "12973160.7", "score": "0.968676", "oldname": "六安市欧亚汽车销售有限公司", "address": "安徽省六安市皖西东路经济开发区", "latitude": "3709422.9", "guid": "0a047b04-bf74-11e7-9cd6-6c92bf041d56"}
{"province": "安徽省", "distance": 0.0, "sametype": "same", "thirdId": "15080", "name": "六安市祥瑞汽车销售有限责任公司", "city": "六安市", "longitude": "12975141.2037", "score": "0.971620", "oldname": "六安市祥瑞汽车销售有限责任公司", "address": "安徽省六安市佛子岭东路（精美学校旁）", "latitude": "3708876.48319", "guid": "0a0f94e4-bf74-11e7-963a-6c92bf041d56"}
{"province": "安徽省", "distance": 0.0, "sametype": "same", "thirdId": "14292", "name": "宣城祥瑞汽车销售有限公司", "city": "宣城市", "longitude": "13217126.4", "score": "0.976985", "oldname": "宣城祥瑞汽车销售有限公司", "address": "安徽省宣城市开发区宝城路莲花塘(市技术质量监督局隔壁）", "latitude": "3603891.2", "guid": "0a1b6e54-bf74-11e7-9f16-6c92bf041d56"}
{"province": "安徽省", "distance": 0.0, "sametype": "same", "thirdId": "10517", "name": "池州市万众实业有限责任公司", "city": "池州市", "longitude": "13079567.64", "score": "0.987419", "oldname": "池州市万众实业有限责任公司", "address": "安徽省池州市站前区汽车4S店集聚园", "latitude": "3566685.36", "guid": "0a24b39c-bf74-11e7-b036-6c92bf041d56"}
{"province": "福建省", "distance": 0.0, "sametype": "same", "thirdId": "10039", "name": "福建美捷经贸有限公司", "city": "福州市", "longitude": "13287489.89", "score": "0.995501", "oldname": "福建美捷经贸有限公司", "address": "福建省福州市晋安区前横北路238号，（运通丰田斜对面）美捷奇瑞汽车", "latitude": "2991059.34", "guid": "0a2e0118-bf74-11e7-98a0-6c92bf041d56"}
{"province": "福建省", "distance": 0.0, "sametype": "same", "thirdId": "10041", "name": "福州名星汽车销售服务有限公司", "city": "福州市", "longitude": "13286336.93", "score": "0.980945", "oldname": "福州名星汽车销售服务有限公司", "address": "福建省福州市仓山区则徐大道名星汽车城1号楼", "latitude": "2982483.74", "guid": "0a34a2b6-bf74-11e7-83c5-6c92bf041d56"}
{"province": "福建省", "distance": 0.0, "sametype": "same", "thirdId": "12546", "name": "厦门瑞德隆汽车有限公司", "city": "厦门市", "longitude": "13147393.2632", "score": "0.983734", "oldname": "厦门瑞德隆汽车有限公司", "address": "福建省厦门市湖滨北路101号滨北汽车城18BC", "latitude": "2795302.83235", "guid": "0a3d9c18-bf74-11e7-874f-6c92bf041d56"}
{"province": "福建省", "distance": 224.50250003856695, "sametype": "same", "thirdId": "17946", "name": "厦门铂维尔汽车服务有限公司", "city": "厦门市", "longitude": "13153333.3", "score": "0.991540", "oldname": "厦门铂维尔汽车服务有限公司", "address": "福建省厦门市枋湖路751号一楼之六", "latitude": "2799090.0", "guid": "0a607058-bf74-11e7-a9f6-6c92bf041d56"}
{"province": "福建省", "distance": 0.0, "sametype": "same", "thirdId": "15781", "name": "厦门瑞德隆旗云汽车有限公司", "city": "厦门市", "longitude": "13150558.3248", "score": "0.977879", "oldname": "厦门瑞德隆旗云汽车有限公司", "address": "厦门市同安区集安路汽车城", "latitude": "2822160.19703", "guid": "0a4de12c-bf74-11e7-8288-6c92bf041d56"}
{"province": "福建省", "distance": 0.0, "sametype": "same", "thirdId": "18143", "name": "厦门昆祺汽车服务有限公司", "city": "厦门市", "longitude": "13153542.6037", "score": "0.978176", "oldname": "厦门昆祺汽车服务有限公司", "address": "福建省厦门市枋湖南路304号一楼101", "latitude": "2798804.32347", "guid": "0a567dfa-bf74-11e7-a1a8-6c92bf041d56"}
{"province": "福建省", "distance": 0.0, "sametype": "same", "thirdId": "17946", "name": "厦门铂维尔汽车服务有限公司", "city": "厦门市", "longitude": "13153550.3116", "score": "0.991540", "oldname": "厦门铂维尔汽车服务有限公司", "address": "厦门市湖里区枋湖路761-763号第一层", "latitude": "2799147.50946", "guid": "0a607058-bf74-11e7-a9f6-6c92bf041d56"}
{"province": "福建省", "distance": 0.0, "sametype": "same", "thirdId": "17799", "name": "莆田市步峰汽车有限公司", "city": "莆田市", "longitude": "13256074.0453", "score": "0.980435", "oldname": "莆田市步峰汽车有限公司", "address": "福建省莆田市涵江区埭里新涵工业区", "latitude": "2915809.75284", "guid": "0a682258-bf74-11e7-ae0a-6c92bf041d56"}
{"province": "福建省", "distance": 0.0, "sametype": "same", "thirdId": "14223", "name": "三明美捷汽车销售服务有限公司", "city": "三明市", "longitude": "13096804.3238", "score": "0.982752", "oldname": "三明美捷汽车销售服务有限公司", "address": "福建省三明市列西翁墩油库内", "latitude": "3016160.29731", "guid": "0a70e8ca-bf74-11e7-b82e-6c92bf041d56"}
{"province": "福建省", "distance": 0.0, "sametype": "same", "thirdId": "12170", "name": "泉州市国润汽车销售有限公司", "city": "泉州市", "longitude": "13201177.05", "score": "0.974321", "oldname": "泉州市国润汽车销售有限公司", "address": "福建省泉州市南环路经贸学院旁", "latitude": "2844576.51", "guid": "0a78a7ae-bf74-11e7-96de-6c92bf041d56"}
{"province": "福建省", "distance": 0.0, "sametype": "same", "thirdId": "13643", "name": "泉州市恒永盛汽车销售有限公司", "city": "泉州市", "longitude": "13198225.6027", "score": "0.977071", "oldname": "泉州市恒永盛汽车销售有限公司", "address": "福建省泉州市鲤城区清濛开发区鸿盛汽车城奇瑞4s店", "latitude": "2843135.71725", "guid": "0a816d80-bf74-11e7-a8c6-6c92bf041d56"}
{"province": "福建省", "distance": 0.0, "sametype": "same", "thirdId": "15511", "name": "福建骏豪汽车销售服务有限公司", "city": "泉州市", "longitude": "13199562.5154", "score": "0.963115", "oldname": "福建骏豪汽车销售服务有限公司", "address": "福建省晋江市罗山街道缺塘社区汽车市场二期A区", "latitude": "2831677.66073", "guid": "0a8d2e4a-bf74-11e7-b1ba-6c92bf041d56"}
{"province": "福建省", "distance": 0.0, "sametype": "same", "thirdId": "17906", "name": "漳州华骏天瑞汽车贸易有限公司", "city": "漳州市", "longitude": "13104901.9189", "score": "0.991884", "oldname": "漳州华骏天瑞汽车贸易有限公司", "address": "福建省漳州龙文区龙文北路华骏汽车城内", "latitude": "2799644.56673", "guid": "0a960146-bf74-11e7-86ed-6c92bf041d56"}
{"province": "福建省", "distance": 0.0, "sametype": "same", "thirdId": "14308", "name": "漳州瑞德隆汽车销售服务有限公司", "city": "漳州市", "longitude": "13107067.832", "score": "0.978223", "oldname": "漳州瑞德隆汽车销售服务有限公司", "address": "福建省漳州市龙文区迎宾大道与水仙大道交汇处吉马国际汽车城A1-2", "latitude": "2796809.13421", "guid": "0a9d0c8e-bf74-11e7-9ee6-6c92bf041d56"}
{"province": "福建省", "distance": 0.0, "sametype": "same", "thirdId": "17315", "name": "南平市建阳区鑫顺捷车业服务有限公司", "city": "南平市", "longitude": "13146421.8375", "score": "0.976116", "oldname": "南平市建阳区鑫顺捷车业服务有限公司", "address": "福建省南平市建阳区童游南山路口", "latitude": "3156560.21582", "guid": "0aa40836-bf74-11e7-8d15-6c92bf041d56"}
{"province": "福建省", "distance": 0.0, "sametype": "same", "thirdId": "12577", "name": "龙岩鑫鑫汽车销售有限公司", "city": "龙岩市", "longitude": "13020196.414", "score": "0.978224", "oldname": "龙岩鑫鑫汽车销售有限公司", "address": "福建省龙岩市新罗区龙门镇物流大道328号01号店", "latitude": "2870543.61374", "guid": "0aacb71a-bf74-11e7-878e-6c92bf041d56"}
{"province": "福建省", "distance": 0.0, "sametype": "same", "thirdId": "16044", "name": "宁德市揽晟贸易有限公司", "city": "宁德市", "longitude": "13305432.1762", "score": "0.972527", "oldname": "宁德市揽晟贸易有限公司", "address": "福建省宁德市蕉城区涵内路88号2幢1层", "latitude": "3064044.85305", "guid": "0ab46bae-bf74-11e7-b940-6c92bf041d56"}
{"province": "江西省", "distance": 0.0, "sametype": "same", "thirdId": "17870", "name": "江西永瑞汽车销售服务有限公司", "city": "南昌市", "longitude": "12903771.3653", "score": "0.980638", "oldname": "江西永瑞汽车销售服务有限公司", "address": "江西省南昌市青云谱区迎宾大道991号", "latitude": "3305554.79312", "guid": "0abc7f10-bf74-11e7-9f06-6c92bf041d56"}
{"province": "江西省", "distance": 0.0, "sametype": "same", "thirdId": "10630", "name": "江西奇云汽车服务有限公司", "city": "南昌市", "longitude": "12904074.6535", "score": "0.974691", "oldname": "江西奇云汽车服务有限公司", "address": "江西省南昌市京山北路298号运通汽配市场A-0栋", "latitude": "3310611.31113", "guid": "0ac3f358-bf74-11e7-bd1e-6c92bf041d56"}
{"province": "江西省", "distance": 0.0, "sametype": "same", "thirdId": "17405", "name": "江西久恒汽车销售服务有限公司", "city": "南昌市", "longitude": "12903533.7269", "score": "0.984843", "oldname": "江西久恒汽车销售服务有限公司", "address": "南昌市迎宾大道222号", "latitude": "3308920.57864", "guid": "0acb7fc4-bf74-11e7-8fc5-6c92bf041d56"}
{"province": "江西省", "distance": 0.0, "sametype": "same", "thirdId": "17631", "name": "萍乡市洪豪汽车销售服务有限公司", "city": "萍乡市", "longitude": "12677075.63", "score": "0.963780", "oldname": "萍乡市洪豪汽车销售服务有限公司", "address": "江西省萍乡市安源工业园区安源国际汽车城内", "latitude": "3184332.78", "guid": "0ad22e3c-bf74-11e7-a414-6c92bf041d56"}
{"province": "江西省", "distance": 0.0, "sametype": "same", "thirdId": "17147", "name": "九江东神汽车销售服务有限公司", "city": "九江市", "longitude": "12729065.7623", "score": "0.951022", "oldname": "九江东神汽车销售服务有限公司", "address": "江西省九江市港口镇城西汽车大市场内", "latitude": "3387534.10143", "guid": "0add13b0-bf74-11e7-aebb-6c92bf041d56"}
{"province": "江西省", "distance": 0.0, "sametype": "same", "thirdId": "10531", "name": "新余市继恒新华夏汽车销售运输连锁有限公司", "city": "新余市", "longitude": "12793155.4829", "score": "0.952338", "oldname": "新余市继恒新华夏汽车销售运输连锁有限公司", "address": "江西省新余市站前西路延伸段969号", "latitude": "3205736.71335", "guid": "0ae43186-bf74-11e7-9f49-6c92bf041d56"}
{"province": "江西省", "distance": 0.0, "sametype": "same", "thirdId": "17782", "name": "江西康展汽车服务有限公司", "city": "新余市", "longitude": "12796583.8567", "score": "0.988345", "oldname": "江西康展汽车服务有限公司", "address": "江西省新余市渝水区新欣大道九鼎汽车大市场5栋", "latitude": "3209444.77826", "guid": "0aecbc20-bf74-11e7-add0-6c92bf041d56"}
{"province": "江西省", "distance": 0.0, "sametype": "same", "thirdId": "15163", "name": "鹰潭市瑞丰汽车销售服务有限公司", "city": "鹰潭市", "longitude": "13027743.37", "score": "0.988223", "oldname": "鹰潭市瑞丰汽车销售服务有限公司", "address": "江西省鹰潭市瑞和国际602-605店面", "latitude": "3259563.45", "guid": "0af3193a-bf74-11e7-ad93-6c92bf041d56"}
{"province": "江西省", "distance": 0.0, "sametype": "same", "thirdId": "12574", "name": "赣州瑞华汽车销售有限公司", "city": "赣州市", "longitude": "12794746.09", "score": "0.973826", "oldname": "赣州瑞华汽车销售有限公司", "address": "江西省赣州经济技术开发区工业园迎宾大道以南", "latitude": "2961136.59", "guid": "0afd4a90-bf74-11e7-affc-6c92bf041d56"}
{"province": "江西省", "distance": 0.0, "sametype": "same", "thirdId": "15774", "name": "赣州市盈丰实业有限公司", "city": "赣州市", "longitude": "12793173.4", "score": "0.972876", "oldname": "赣州市盈丰实业有限公司", "address": "江西省赣州市章贡区客家大道国际汽车城内赣州奇瑞4S店", "latitude": "2960546.0", "guid": "0b04ada8-bf74-11e7-8f47-6c92bf041d56"}
{"province": "江西省", "distance": 0.0, "sametype": "same", "thirdId": "12150", "name": "宜春市天天汽车销售服务有限公司", "city": "宜春市", "longitude": "12735092.62", "score": "0.979426", "oldname": "宜春市天天汽车销售服务有限公司", "address": "江西省宜春市经济开发区", "latitude": "3205065.37", "guid": "0b0b5f4a-bf74-11e7-8f33-6c92bf041d56"}
{"province": "江西省", "distance": 0.0, "sametype": "same", "thirdId": "14074", "name": "江西东安汽车销售服务有限公司上饶分公司", "city": "上饶市", "longitude": "13126561.8458", "score": "0.978173", "oldname": "江西东安汽车销售服务有限公司上饶分公司", "address": "上饶市三清山西大道19号", "latitude": "3286761.19095", "guid": "0b12bca4-bf74-11e7-b881-6c92bf041d56"}
{"province": "江西省", "distance": 0.0, "sametype": "same", "thirdId": "17724", "name": "婺源县东安汽车销售服务有限公司", "city": "上饶市", "longitude": "13118510.4", "score": "0.976601", "oldname": "婺源县东安汽车销售服务有限公司", "address": "江西省才仕大道14-12、13、14、15号店", "latitude": "3388372.3", "guid": "0b1d93d6-bf74-11e7-adfe-6c92bf041d56"}
{"province": "江西省", "distance": 0.0, "sametype": "same", "thirdId": "15990", "name": "吉安美日汽车销售服务有限公司", "city": "吉安市", "longitude": "12791955.6539", "score": "0.969387", "oldname": "吉安美日汽车销售服务有限公司", "address": "江西省吉安市城南专业市场钓源大道（市交警考试中心对面）", "latitude": "3119899.83185", "guid": "0b25bb92-bf74-11e7-8770-6c92bf041d56"}
{"province": "江西省", "distance": 0.0, "sametype": "same", "thirdId": "17806", "name": "吉安市搭手汽车销售服务有限公司", "city": "吉安市", "longitude": "12704524.0119", "score": "0.987274", "oldname": "吉安市搭手汽车销售服务有限公司", "address": "江西省吉安市井冈山经济技术开发区吉安大道1号", "latitude": "3058384.68691", "guid": "0b2fa206-bf74-11e7-87fc-6c92bf041d56"}
{"province": "江西省", "distance": 0.0, "sametype": "same", "thirdId": "15492", "name": "抚州市鑫锐汽车销售服务有限公司", "city": "抚州市", "longitude": "12957067.1465", "score": "0.970569", "oldname": "抚州市鑫锐汽车销售服务有限公司", "address": "江西省抚州市文昌大道2189号", "latitude": "3223870.62049", "guid": "0b37aef6-bf74-11e7-8651-6c92bf041d56"}
{"province": "江西省", "distance": 0.0, "sametype": "same", "thirdId": "17756", "name": "乐平市国华汽车贸易有限公司", "city": "景德镇市", "longitude": "13042355.5714", "score": "0.988460", "oldname": "乐平市国华汽车贸易有限公司", "address": "乐平市人民东路118号", "latitude": "3351138.52857", "guid": "0b3db60c-bf74-11e7-bd9f-6c92bf041d56"}
{"province": "江西省", "distance": 0.0, "sametype": "same", "thirdId": "18258", "name": "景德镇市安顺贸易有限公司", "city": "景德镇市", "longitude": "13048624.1242", "score": "0.989416", "oldname": "景德镇市安顺贸易有限公司", "address": "江西省景德镇市珠山区昌江大道利强商住楼一层7号店", "latitude": "3394815.80105", "guid": "0b4575ea-bf74-11e7-ba3e-6c92bf041d56"}
{"province": "山东省", "distance": 0.0, "sametype": "same", "thirdId": "16531", "name": "山东瑞诚汽车销售有限公司", "city": "济南市", "longitude": "13017626.9584", "score": "0.980438", "oldname": "山东瑞诚汽车销售有限公司", "address": "山东省济南市槐荫区二环西路3469号山东匡山汽车大世界西区20号展厅", "latitude": "4371023.75973", "guid": "0b4e97d8-bf74-11e7-b7da-6c92bf041d56"}
{"province": "山东省", "distance": 0.0, "sametype": "same", "thirdId": "17839", "name": "济南瑞华汽车销售有限公司", "city": "济南市", "longitude": "13037471.2701", "score": "0.966264", "oldname": "济南瑞华汽车销售有限公司", "address": "山东省济南市历城区工业北路100-2号", "latitude": "4374948.18172", "guid": "0b55c27e-bf74-11e7-8e79-6c92bf041d56"}
{"province": "山东省", "distance": 0.0, "sametype": "same", "thirdId": "12710", "name": "青岛易成汽车销售服务有限公司", "city": "青岛市", "longitude": "13349768.4602", "score": "0.982406", "oldname": "青岛易成汽车销售服务有限公司", "address": "山东省青岛平度市青岛路西端", "latitude": "4382619.05164", "guid": "0b5e162c-bf74-11e7-93df-6c92bf041d56"}
{"province": "山东省", "distance": 0.0, "sametype": "same", "thirdId": "15097", "name": "青岛惠泰汽车销售服务有限公司", "city": "青岛市", "longitude": "13359249.7", "score": "0.971650", "oldname": "青岛惠泰汽车销售服务有限公司", "address": "山东省青岛胶南市海滨五路518号飞宇国际汽车城内", "latitude": "4255922.1", "guid": "0b64a924-bf74-11e7-923f-6c92bf041d56"}
{"province": "山东省", "distance": 0.0, "sametype": "same", "thirdId": "13204", "name": "青岛华泰现代汽车销售有限公司", "city": "青岛市", "longitude": "13402750.325", "score": "0.972249", "oldname": "青岛华泰现代汽车销售有限公司", "address": "山东省青岛市四方区长沙路64号", "latitude": "4293708.10318", "guid": "0b6aff90-bf74-11e7-9ff0-6c92bf041d56"}
{"province": "山东省", "distance": 0.0, "sametype": "same", "thirdId": "16479", "name": "青岛英瑞汽车销售服务有限公司", "city": "青岛市", "longitude": "13404507.581", "score": "0.986478", "oldname": "青岛英瑞汽车销售服务有限公司", "address": "山东省青岛市李沧区重庆中路299号", "latitude": "4298030.9119", "guid": "0b7447bc-bf74-11e7-84b5-6c92bf041d56"}
{"province": "山东省", "distance": 0.0, "sametype": "same", "thirdId": "17750", "name": "青岛华泰现代汽车销售有限公司即墨分公司", "city": "青岛市", "longitude": "13409582.0706", "score": "0.981465", "oldname": "青岛华泰现代汽车销售有限公司即墨分公司", "address": "山东省青岛市即墨市烟青路后东城102号", "latitude": "4329236.19345", "guid": "0b7b83d8-bf74-11e7-8ccc-6c92bf041d56"}
{"province": "山东省", "distance": 0.0, "sametype": "same", "thirdId": "18174", "name": "山东康富商贸有限公司", "city": "淄博市", "longitude": "13141351.78", "score": "0.995289", "oldname": "山东康富商贸有限公司", "address": "山东省淄博市张店区山泉路（王舍汽配城东门）", "latitude": "4383719.38", "guid": "0b82f0e6-bf74-11e7-818e-6c92bf041d56"}
{"province": "山东省", "distance": 0.0, "sametype": "same", "thirdId": "12686", "name": "淄博奥泰汽车销售有限公司", "city": "淄博市", "longitude": "13139633.9", "score": "0.975939", "oldname": "淄博奥泰汽车销售有限公司", "address": "山东省淄博市张店区山泉路146号安泰车城", "latitude": "4379470.9", "guid": "0b8a9a62-bf74-11e7-9f0f-6c92bf041d56"}
{"province": "山东省", "distance": 0.0, "sametype": "same", "thirdId": "16262", "name": "淄博宝悦汽车销售服务有限公司", "city": "淄博市", "longitude": "13144840.3529", "score": "0.972235", "oldname": "淄博宝悦汽车销售服务有限公司", "address": "山东省淄博市高新区金晶大道287-1号", "latitude": "4393476.15102", "guid": "0b935602-bf74-11e7-98bd-6c92bf041d56"}
{"province": "山东省", "distance": 0.0, "sametype": "same", "thirdId": "13424", "name": "滕州市瑞达汽车销售有限公司", "city": "枣庄市", "longitude": "13044438.8", "score": "0.972815", "oldname": "滕州市瑞达汽车销售有限公司", "address": "山东省滕州市益康大道666号鼎源汽车广场", "latitude": "4147528.0", "guid": "0b9acfa4-bf74-11e7-803f-6c92bf041d56"}
{"province": "山东省", "distance": 0.0, "sametype": "same", "thirdId": "17741", "name": "枣庄市星驰汽车销售服务有限公司", "city": "枣庄市", "longitude": "13084780.8549", "score": "0.972269", "oldname": "枣庄市星驰汽车销售服务有限公司", "address": "山东省枣庄市西昌路北首钓鱼台南800米路西", "latitude": "4126301.19224", "guid": "0b9fac7c-bf74-11e7-af21-6c92bf041d56"}
{"province": "山东省", "distance": 0.0, "sametype": "same", "thirdId": "10035", "name": "东营恒基机电设备有限责任公司", "city": "东营市", "longitude": "13199449.1704", "score": "0.987275", "oldname": "东营恒基机电设备有限责任公司", "address": "山东省东营市东营区黄河路北侧(油田东辛采油厂东侧)", "latitude": "4476393.40095", "guid": "0ba8f066-bf74-11e7-aad0-6c92bf041d56"}
{"province": "山东省", "distance": 0.0, "sametype": "same", "thirdId": "15403", "name": "东营恒盛汽车销售有限公司", "city": "东营市", "longitude": "13184399.32", "score": "0.971612", "oldname": "东营恒盛汽车销售有限公司", "address": "山东省东营市广饶县潍高路960号", "latitude": "4418577.59", "guid": "0baf16e4-bf74-11e7-b155-6c92bf041d56"}
{"province": "山东省", "distance": 0.0, "sametype": "same", "thirdId": "10340", "name": "莱州市平安经贸有限公司", "city": "烟台市", "longitude": "13349566.4594", "score": "0.980685", "oldname": "莱州市平安经贸有限公司", "address": "山东省莱州市南苑路1188号", "latitude": "4437013.26029", "guid": "0bb87946-bf74-11e7-8a77-6c92bf041d56"}
{"province": "山东省", "distance": 0.0, "sametype": "same", "thirdId": "12036", "name": "烟台恒邦汽车销售服务有限公司", "city": "烟台市", "longitude": "13510141.4789", "score": "0.988979", "oldname": "烟台恒邦汽车销售服务有限公司", "address": "山东省烟台市福山区机场路597号", "latitude": "4471738.97231", "guid": "0bc00bd4-bf74-11e7-bb85-6c92bf041d56"}
{"province": "山东省", "distance": 0.0, "sametype": "same", "thirdId": "12307", "name": "山东龙口富龙汽车有限公司", "city": "烟台市", "longitude": "13416440.46", "score": "0.977218", "oldname": "山东龙口富龙汽车有限公司", "address": "山东省龙口市环城北路73号", "latitude": "4505758.77", "guid": "0bc94230-bf74-11e7-ad3c-6c92bf041d56"}
{"province": "山东省", "distance": 0.0, "sametype": "same", "thirdId": "13741", "name": "招远市东圣汽车销售服务有限公司", "city": "烟台市", "longitude": "13407151.9", "score": "0.967654", "oldname": "招远市东圣汽车销售服务有限公司", "address": "山东省招远市温泉路99号", "latitude": "4464615.9", "guid": "0bd015d8-bf74-11e7-9da7-6c92bf041d56"}
{"province": "山东省", "distance": 0.0, "sametype": "same", "thirdId": "17471", "name": "烟台市盈丰汽车销售服务有限公司", "city": "烟台市", "longitude": "13506942.0", "score": "0.976758", "oldname": "烟台市盈丰汽车销售服务有限公司", "address": "山东省烟台市芝罘区珠玑西路西1号", "latitude": "4491355.3", "guid": "0bd92ae2-bf74-11e7-9110-6c92bf041d56"}
{"province": "山东省", "distance": 0.0, "sametype": "same", "thirdId": "10600", "name": "潍坊广潍汽车销售服务有限公司", "city": "潍坊市", "longitude": "13262580.9074", "score": "0.936688", "oldname": "潍坊广潍汽车销售服务有限公司", "address": "山东省潍坊市奎文区潍州路369号", "latitude": "4364166.30559", "guid": "0be1375a-bf74-11e7-a67c-6c92bf041d56"}
{"province": "山东省", "distance": 0.0, "sametype": "same", "thirdId": "17740", "name": "山东长劲实业有限公司", "city": "潍坊市", "longitude": "13190349.5708", "score": "0.964855", "oldname": "山东长劲实业有限公司", "address": "山东省潍坊青州市玲珑山北路2359号", "latitude": "4378178.66101", "guid": "0be9140c-bf74-11e7-a781-6c92bf041d56"}
{"province": "山东省", "distance": 0.0, "sametype": "same", "thirdId": "17496", "name": "寿光市盈丰汽车销售服务有限公司", "city": "潍坊市", "longitude": "13229846.0438", "score": "0.975424", "oldname": "寿光市盈丰汽车销售服务有限公司", "address": "山东省寿光市洛城街道东宇鸿翔汽车城", "latitude": "4393511.88987", "guid": "0beee012-bf74-11e7-ac17-6c92bf041d56"}
{"province": "山东省", "distance": 0.0, "sametype": "same", "thirdId": "17546", "name": "高密华泰汽车销售有限公司", "city": "潍坊市", "longitude": "13334295.04", "score": "0.982350", "oldname": "高密华泰汽车销售有限公司", "address": "山东省高密市朝阳社区后埠口夷安大道北凤凰北200米", "latitude": "4330962.6", "guid": "0bf7ebbc-bf74-11e7-8329-6c92bf041d56"}
{"province": "山东省", "distance": 0.0, "sametype": "same", "thirdId": "18205", "name": "诸城市海禄汽车服务有限公司", "city": "潍坊市", "longitude": "13289616.6043", "score": "0.978678", "oldname": "诸城市海禄汽车服务有限公司", "address": "山东省潍坊市诸城市西外环汽车城", "latitude": "4275491.63582", "guid": "0bffbeaa-bf74-11e7-a78e-6c92bf041d56"}
{"province": "山东省", "distance": 0.0, "sametype": "same", "thirdId": "10076", "name": "济宁亚飞汽车销售服务有限公司", "city": "济宁市", "longitude": "12989093.981", "score": "0.955537", "oldname": "济宁亚飞汽车销售服务有限公司", "address": "山东省济宁市高新区同济路39号", "latitude": "4199036.61106", "guid": "0c05969a-bf74-11e7-b158-6c92bf041d56"}
{"province": "山东省", "distance": 0.0, "sametype": "same", "thirdId": "15062", "name": "济宁华顺汽车销售服务有限公司", "city": "济宁市", "longitude": "12974847.9423", "score": "0.966005", "oldname": "济宁华顺汽车销售服务有限公司", "address": "山东省济宁市金宇路与105国道交汇处，金宇汽车汽配城", "latitude": "4198132.66082", "guid": "0c0c2a28-bf74-11e7-8d13-6c92bf041d56"}
{"province": "山东省", "distance": 0.0, "sametype": "same", "thirdId": "15851", "name": "济宁交运恺瑞汽车销售服务有限公司", "city": "济宁市", "longitude": "13022039.7474", "score": "0.986871", "oldname": "济宁交运恺瑞汽车销售服务有限公司", "address": "山东省邹城市中心店镇国宏大道6369号", "latitude": "4199482.18087", "guid": "0c146fc6-bf74-11e7-9988-6c92bf041d56"}
{"province": "山东省", "distance": 0.0, "sametype": "same", "thirdId": "12648", "name": "泰安胜力汽车销售服务有限公司", "city": "泰安市", "longitude": "13048024.333", "score": "0.975429", "oldname": "泰安胜力汽车销售服务有限公司", "address": "山东省泰安市泰山区东部新区（泰前大街东首）", "latitude": "4304373.81058", "guid": "0c1ceade-bf74-11e7-aee1-6c92bf041d56"}
{"province": "山东省", "distance": 0.0, "sametype": "same", "thirdId": "17568", "name": "泰安中楚汽车销售服务有限公司", "city": "泰安市", "longitude": "13026719.3987", "score": "0.971502", "oldname": "泰安中楚汽车销售服务有限公司", "address": "山东省泰安市青春创业开发区国际汽车城泰东路西首", "latitude": "4299158.93024", "guid": "0c261258-bf74-11e7-94dd-6c92bf041d56"}
{"province": "山东省", "distance": 0.0, "sametype": "same", "thirdId": "10197", "name": "威海市银河汽车销售有限公司", "city": "威海市", "longitude": "13599892.2125", "score": "0.976988", "oldname": "威海市银河汽车销售有限公司", "address": "山东省威海市青岛南路198号", "latitude": "4467986.21654", "guid": "0c2c82dc-bf74-11e7-85b5-6c92bf041d56"}
{"province": "山东省", "distance": 0.0, "sametype": "same", "thirdId": "14967", "name": "威海市文登区明信汽车销售有限公司", "city": "威海市", "longitude": "13583308.0073", "score": "0.985093", "oldname": "威海市文登区明信汽车销售有限公司", "address": "山东省文登市米山路249-1号", "latitude": "4438720.73191", "guid": "0c375bda-bf74-11e7-8e45-6c92bf041d56"}
{"province": "山东省", "distance": 0.0, "sametype": "same", "thirdId": "11379", "name": "乳山市青华汽车销售服务有限公司", "city": "威海市", "longitude": "13527661.44", "score": "0.949498", "oldname": "乳山市青华汽车销售服务有限公司", "address": "山东省乳山市胜利街18号（老储运公司院内）", "latitude": "4402108.66", "guid": "0c403e3a-bf74-11e7-9662-6c92bf041d56"}
{"province": "山东省", "distance": 0.0, "sametype": "same", "thirdId": "10791", "name": "日照市东方汽车贸易有限公司", "city": "日照市", "longitude": "13303305.0142", "score": "0.988306", "oldname": "日照市东方汽车贸易有限公司", "address": "山东省日照市海曲东路41号", "latitude": "4196430.17814", "guid": "0c46e3a2-bf74-11e7-863a-6c92bf041d56"}
{"province": "山东省", "distance": 0.0, "sametype": "same", "thirdId": "15463", "name": "日照市正大汽车贸易有限公司", "city": "日照市", "longitude": "13296147.1121", "score": "0.993881", "oldname": "日照市正大汽车贸易有限公司", "address": "山东省日照市奎山汽车城（日照市南昌路北首）", "latitude": "4193183.86256", "guid": "0c4d3b62-bf74-11e7-9409-6c92bf041d56"}
{"province": "山东省", "distance": 0.0, "sametype": "same", "thirdId": "16144", "name": "莱芜市东昇汽车贸易有限公司", "city": "莱芜市", "longitude": "13103405.1", "score": "0.990573", "oldname": "莱芜市东昇汽车贸易有限公司", "address": "山东省莱芜市吕花园工业园（火车站桥洞东168米路北)", "latitude": "4307452.9", "guid": "0c5617fa-bf74-11e7-a588-6c92bf041d56"}
{"province": "山东省", "distance": 0.0, "sametype": "same", "thirdId": "10089", "name": "临沂九州汽车销售有限公司", "city": "临沂市", "longitude": "13174488.5", "score": "0.965614", "oldname": "临沂九州汽车销售有限公司", "address": "山东省临沂市沂蒙路与海关路交汇处北100米路东", "latitude": "4145193.8", "guid": "0c6067be-bf74-11e7-abbf-6c92bf041d56"}
{"province": "山东省", "distance": 0.0, "sametype": "same", "thirdId": "11313", "name": "临沂骏驰汽车销售服务有限公司", "city": "临沂市", "longitude": "13171555.8237", "score": "0.980715", "oldname": "临沂骏驰汽车销售服务有限公司", "address": "山东省临沂市蒙山大道与聚才路交汇处西100米路北", "latitude": "4153363.19142", "guid": "0c6786de-bf74-11e7-9f72-6c92bf041d56"}
{"province": "山东省", "distance": 0.0, "sametype": "same", "thirdId": "13657", "name": "临沂瑞通汽车销售服务有限公司", "city": "临沂市", "longitude": "13175794.1248", "score": "0.971894", "oldname": "临沂瑞通汽车销售服务有限公司", "address": "山东省临沂市沂州路与沂河路交汇处西500米路南", "latitude": "4145576.90167", "guid": "0c6f1ff2-bf74-11e7-a12d-6c92bf041d56"}
{"province": "山东省", "distance": 0.0, "sametype": "same", "thirdId": "18136", "name": "临沂九州顺明汽车销售服务有限公司", "city": "临沂市", "longitude": "13168883.0178", "score": "0.984285", "oldname": "临沂九州顺明汽车销售服务有限公司", "address": "山东省临沂市罗庄区湖东路与沂河路交汇处", "latitude": "4139904.78368", "guid": "0c7770ee-bf74-11e7-881b-6c92bf041d56"}
{"province": "山东省", "distance": 0.0, "sametype": "same", "thirdId": "12059", "name": "蒙阴县九鼎轿车维修中心", "city": "临沂市", "longitude": "13127931.5729", "score": "0.994994", "oldname": "蒙阴县九鼎轿车维修中心", "address": "山东省蒙阴县新城西路67号", "latitude": "4238683.24225", "guid": "0c7d3128-bf74-11e7-a94c-6c92bf041d56"}
{"province": "山东省", "distance": 0.0, "sametype": "same", "thirdId": "17555", "name": "莒南县骏龙汽车销售服务有限公司", "city": "临沂市", "longitude": "13229001.839", "score": "0.988204", "oldname": "莒南县骏龙汽车销售服务有限公司", "address": "山东省临沂市莒南县经济开发区白龙居（南环路南）", "latitude": "4161689.19754", "guid": "0c84b0ce-bf74-11e7-b687-6c92bf041d56"}
{"province": "山东省", "distance": 0.0, "sametype": "same", "thirdId": "12536", "name": "德州瑞诚汽车销售服务有限公司", "city": "德州市", "longitude": "12953409.62", "score": "0.979395", "oldname": "德州瑞诚汽车销售服务有限公司", "address": "山东省德州市德城区新河路南侧河东大街西侧", "latitude": "4475377.88", "guid": "0c8cd9de-bf74-11e7-a04d-6c92bf041d56"}
{"province": "山东省", "distance": 0.0, "sametype": "same", "thirdId": "14213", "name": "山东圣达汽车贸易有限公司", "city": "德州市", "longitude": "12988705.0938", "score": "0.983021", "oldname": "山东圣达汽车贸易有限公司", "address": "山东省德州市齐河县经济技术开发区", "latitude": "4374841.9184", "guid": "0c94df30-bf74-11e7-9e15-6c92bf041d56"}
{"province": "山东省", "distance": 0.0, "sametype": "same", "thirdId": "11281", "name": "聊城金瑞汽车销售服务有限公司", "city": "聊城市", "longitude": "12915970.5296", "score": "0.975218", "oldname": "聊城金瑞汽车销售服务有限公司", "address": "山东省聊城市光岳路南段", "latitude": "4333598.37012", "guid": "0c9c21be-bf74-11e7-9f1b-6c92bf041d56"}
{"province": "山东省", "distance": 0.0, "sametype": "same", "thirdId": "14412", "name": "聊城市新成汽车销售服务有限公司", "city": "聊城市", "longitude": "12917085.2687", "score": "0.976604", "oldname": "聊城市新成汽车销售服务有限公司", "address": "山东省聊城市光岳路北首江北汽车城内", "latitude": "4341931.84187", "guid": "0ca43282-bf74-11e7-9ce8-6c92bf041d56"}
{"province": "山东省", "distance": 0.0, "sametype": "same", "thirdId": "11259", "name": "高唐县亨亚汽车销售服务有限公司", "city": "聊城市", "longitude": "12943271.4", "score": "0.985183", "oldname": "高唐县亨亚汽车销售服务有限公司", "address": "山东省聊城市高唐县盛世路（东环路）路东", "latitude": "4394455.3", "guid": "0cad08a8-bf74-11e7-92bf-6c92bf041d56"}
{"province": "山东省", "distance": 0.0, "sametype": "same", "thirdId": "10723", "name": "山东滨州汇源工贸有限责任公司", "city": "滨州市", "longitude": "13138590.0319", "score": "0.991712", "oldname": "山东滨州汇源工贸有限责任公司", "address": "山东省滨州市渤海五路888号(油建二部北一公里路东)", "latitude": "4473080.10925", "guid": "0cb4b878-bf74-11e7-b666-6c92bf041d56"}
{"province": "山东省", "distance": 0.0, "sametype": "same", "thirdId": "17330", "name": "惠民县汇翔汽车销售有限公司", "city": "滨州市", "longitude": "13085010.5042", "score": "0.989956", "oldname": "惠民县汇翔汽车销售有限公司", "address": "山东省滨州市惠民县鲁北大街东关转盘以北500米路西", "latitude": "4482678.45937", "guid": "0cbdec18-bf74-11e7-be1b-6c92bf041d56"}
{"province": "山东省", "distance": 0.0, "sametype": "same", "thirdId": "11152", "name": "菏泽电力丰源汽贸有限责任公司", "city": "菏泽市", "longitude": "12865222.3931", "score": "0.984799", "oldname": "菏泽电力丰源汽贸有限责任公司", "address": "山东省菏泽市开发区黄河东路666号", "latitude": "4175901.59955", "guid": "0cc4cc54-bf74-11e7-97be-6c92bf041d56"}
{"province": "山东省", "distance": 0.0, "sametype": "same", "thirdId": "13303", "name": "菏泽金溢车业有限公司", "city": "菏泽市", "longitude": "12849589.3004", "score": "0.983050", "oldname": "菏泽金溢车业有限公司", "address": "山东省菏泽市昆明路与长城路交叉口东北角", "latitude": "4178131.48269", "guid": "0ccbddbe-bf74-11e7-b64e-6c92bf041d56"}
{"province": "河南省", "distance": 0.0, "sametype": "same", "thirdId": "18182", "name": "河南道信汽车销售有限公司", "city": "郑州市", "longitude": "12656777.5295", "score": "0.973961", "oldname": "河南道信汽车销售有限公司", "address": "郑州市金水区中州大道桑园汽车城", "latitude": "4117530.57516", "guid": "0cd35a08-bf74-11e7-a475-6c92bf041d56"}
{"province": "河南省", "distance": 0.0, "sametype": "same", "thirdId": "18152", "name": "郑州盈丰奇祥汽车销售服务有限公司花园北路分公司", "city": "郑州市", "longitude": "12655160.7816", "score": "0.982602", "oldname": "郑州盈丰奇祥汽车销售服务有限公司花园北路分公司", "address": "河南省郑州市惠济区花园路与开元路交叉口省汽贸中心院内", "latitude": "4121429.43347", "guid": "0cd8d348-bf74-11e7-a2e5-6c92bf041d56"}
{"province": "河南省", "distance": 0.0, "sametype": "same", "thirdId": "18474", "name": "河南瑞庆汽车销售服务有限公司", "city": "郑州市", "longitude": "12660117.5093", "score": "0.976224", "oldname": "河南瑞庆汽车销售服务有限公司", "address": "河南省新郑市郑韩路汽车城", "latitude": "4059772.25093", "guid": "0ce01fd6-bf74-11e7-9019-6c92bf041d56"}
{"province": "河南省", "distance": 0.0, "sametype": "same", "thirdId": "17275", "name": "郑州盈丰奇祥汽车销售服务有限公司", "city": "郑州市", "longitude": "12652397.8", "score": "0.962871", "oldname": "郑州盈丰奇祥汽车销售服务有限公司", "address": "河南省郑州市北环路与丰庆路交叉口西50米", "latitude": "4114694.2", "guid": "0ce6cf20-bf74-11e7-ba48-6c92bf041d56"}
{"province": "河南省", "distance": 0.0, "sametype": "same", "thirdId": "17599", "name": "河南和邦汽车贸易有限公司", "city": "郑州市", "longitude": "12648269.5", "score": "0.981362", "oldname": "河南和邦汽车贸易有限公司", "address": "河南省荥阳市中原路与京城路交叉口向南100米", "latitude": "4111419.6", "guid": "0cef6540-bf74-11e7-8d8b-6c92bf041d56"}
{"province": "河南省", "distance": 0.0, "sametype": "same", "thirdId": "18182", "name": "河南道信汽车销售有限公司", "city": "郑州市", "longitude": "12656174.2", "score": "0.973961", "oldname": "河南道信汽车销售有限公司", "address": "郑州市金水区天荣国际汽车公园桑园大卖场主路中段C03号", "latitude": "4117412.3", "guid": "0cf717c2-bf74-11e7-ac99-6c92bf041d56"}
{"province": "河南省", "distance": 0.0, "sametype": "same", "thirdId": "14933", "name": "开封市万宝实业有限公司", "city": "开封市", "longitude": "12724479.0226", "score": "0.979799", "oldname": "开封市万宝实业有限公司", "address": "河南省开封市宋城大道18号", "latitude": "4111170.18505", "guid": "0cfe99d4-bf74-11e7-9d5e-6c92bf041d56"}
{"province": "河南省", "distance": 0.0, "sametype": "same", "thirdId": "17788", "name": "开封瑞鼎汽车销售服务有限公司", "city": "开封市", "longitude": "12723619.47", "score": "0.953003", "oldname": "开封瑞鼎汽车销售服务有限公司", "address": "河南省开封市集英街1号（开封安利达金属工程有限公司院内）", "latitude": "4110415.89", "guid": "0d064b02-bf74-11e7-8e03-6c92bf041d56"}
{"province": "河南省", "distance": 0.0, "sametype": "same", "thirdId": "11381", "name": "洛阳众瑞汽车销售服务有限公司", "city": "洛阳市", "longitude": "12524898.1425", "score": "0.985163", "oldname": "洛阳众瑞汽车销售服务有限公司", "address": "河南省洛阳市廛河区九都路名车苑", "latitude": "4096703.43906", "guid": "0d0e1332-bf74-11e7-a9c9-6c92bf041d56"}
{"province": "河南省", "distance": 0.0, "sametype": "same", "thirdId": "17396", "name": "洛阳喜瑞汽车销售服务有限公司", "city": "洛阳市", "longitude": "12510617.6476", "score": "0.984602", "oldname": "洛阳喜瑞汽车销售服务有限公司", "address": "河南省洛阳市洛龙区科技园园西大道众德慧汽车城18号", "latitude": "4082893.52939", "guid": "0d15de78-bf74-11e7-b40f-6c92bf041d56"}
{"province": "河南省", "distance": 0.0, "sametype": "same", "thirdId": "17692", "name": "平顶山市盛世德瑞汽车销售有限公司", "city": "平顶山市", "longitude": "12622274.7592", "score": "0.972515", "oldname": "平顶山市盛世德瑞汽车销售有限公司", "address": "河南省平顶山市建设路与青桐街交叉口西50米路南", "latitude": "3969874.66303", "guid": "0d1d7638-bf74-11e7-8dd5-6c92bf041d56"}
{"province": "河南省", "distance": 0.0, "sametype": "same", "thirdId": "10003", "name": "安阳市广丰汽车销售服务有限公司", "city": "安阳市", "longitude": "12752004.7492", "score": "0.975817", "oldname": "安阳市广丰汽车销售服务有限公司", "address": "河南省安阳市滑县新区妇幼保健院向西100米路北", "latitude": "4213971.23813", "guid": "0d2395cc-bf74-11e7-8d84-6c92bf041d56"}
{"province": "河南省", "distance": 0.0, "sametype": "same", "thirdId": "14963", "name": "安阳市瑞祥汽车贸易有限公司", "city": "安阳市", "longitude": "12737297.7974", "score": "0.985318", "oldname": "安阳市瑞祥汽车贸易有限公司", "address": "河南省安阳市文峰区弦路大道东段东外环汽车市场北门", "latitude": "4283368.9184", "guid": "0d2c851a-bf74-11e7-8d3b-6c92bf041d56"}
{"province": "河南省", "distance": 0.0, "sametype": "same", "thirdId": "17781", "name": "鹤壁市盛鸿汽车销售服务有限公司", "city": "鹤壁市", "longitude": "12725273.6", "score": "0.988393", "oldname": "鹤壁市盛鸿汽车销售服务有限公司", "address": "河南省鹤壁市淇滨区黎阳路东段永兴汽车城院内", "latitude": "4243134.7", "guid": "0d35c742-bf74-11e7-b78e-6c92bf041d56"}
{"province": "河南省", "distance": 0.0, "sametype": "same", "thirdId": "10151", "name": "新乡市诚信汽车经贸有限公司", "city": "新乡市", "longitude": "12680216.49", "score": "0.987826", "oldname": "新乡市诚信汽车经贸有限公司", "address": "河南省新乡市新飞大道与南二环交叉口西北角南环汽车广场内", "latitude": "4175390.78", "guid": "0d3cbe4e-bf74-11e7-a282-6c92bf041d56"}
{"province": "河南省", "distance": 0.0, "sametype": "same", "thirdId": "15828", "name": "新乡市诚达汽车商务有限公司", "city": "新乡市", "longitude": "12680170.47", "score": "0.992219", "oldname": "新乡市诚达汽车商务有限公司", "address": "河南省新乡市新飞大道与南二环交叉口西北角", "latitude": "4185534.23", "guid": "0d447c92-bf74-11e7-9528-6c92bf041d56"}
{"province": "河南省", "distance": 0.0, "sametype": "same", "thirdId": "17605", "name": "长垣县诚翔汽车贸易有限公司", "city": "新乡市", "longitude": "12767655.9028", "score": "0.994450", "oldname": "长垣县诚翔汽车贸易有限公司", "address": "河南省新乡市长垣县蒲东办事处S308线南（金色阳光汽车城）", "latitude": "4163869.14177", "guid": "0d4d3bb6-bf74-11e7-be11-6c92bf041d56"}
{"province": "河南省", "distance": 0.0, "sametype": "same", "thirdId": "17642", "name": "焦作众瑞汽车销售服务有限公司", "city": "焦作市", "longitude": "12608111.2", "score": "0.993350", "oldname": "焦作众瑞汽车销售服务有限公司", "address": "河南省焦作市高新区南海路中段888号附3号", "latitude": "4164948.3", "guid": "0d545eaa-bf74-11e7-87ad-6c92bf041d56"}
{"province": "河南省", "distance": 0.0, "sametype": "same", "thirdId": "17606", "name": "濮阳市龙鑫汽车销售服务有限公司", "city": "濮阳市", "longitude": "12812691.8653", "score": "0.970259", "oldname": "濮阳市龙鑫汽车销售服务有限公司", "address": "河南省濮阳市苏北路与106国道交叉口北150米路东", "latitude": "4246455.5709", "guid": "0d59ab6c-bf74-11e7-9f75-6c92bf041d56"}
{"province": "河南省", "distance": 0.0, "sametype": "same", "thirdId": "17279", "name": "禹州市众智汽车销售服务有限公司", "city": "许昌市", "longitude": "12632663.4845", "score": "0.988795", "oldname": "禹州市众智汽车销售服务有限公司", "address": "河南省许昌市禹州市颍川办事处阳翟大道与画圣路交叉口", "latitude": "4023691.29901", "guid": "0d5f27f4-bf74-11e7-820a-6c92bf041d56"}
{"province": "河南省", "distance": 0.0, "sametype": "same", "thirdId": "17792", "name": "许昌市车之园汽车销售有限公司", "city": "许昌市", "longitude": "12672870.9935", "score": "0.991883", "oldname": "许昌市车之园汽车销售有限公司", "address": "河南省许昌市许由路西段2732号（许由路汽车一条街）", "latitude": "4005954.04055", "guid": "0d69da3c-bf74-11e7-ba8e-6c92bf041d56"}
{"province": "河南省", "distance": 0.0, "sametype": "same", "thirdId": "17792", "name": "许昌市车之园汽车销售有限公司", "city": "许昌市", "longitude": "12672870.9935", "score": "0.991883", "oldname": "许昌市车之园汽车销售有限公司", "address": "许昌市许由路西段2732号", "latitude": "4005954.04055", "guid": "0d69da3c-bf74-11e7-ba8e-6c92bf041d56"}
{"province": "河南省", "distance": 0.0, "sametype": "same", "thirdId": "12209", "name": "漯河市源发汽车销售服务有限公司", "city": "漯河市", "longitude": "12691334.4834", "score": "0.993799", "oldname": "漯河市源发汽车销售服务有限公司", "address": "河南省漯河市源汇区桂江路与107国道交叉口西200米", "latitude": "3946062.57784", "guid": "0d6ff0c0-bf74-11e7-8a71-6c92bf041d56"}
{"province": "河南省", "distance": 0.0, "sametype": "same", "thirdId": "12733", "name": "漯河陵瑞汽车销售服务有限公司", "city": "漯河市", "longitude": "12690181.5915", "score": "0.987689", "oldname": "漯河陵瑞汽车销售服务有限公司", "address": "河南省漯河市源汇区产业聚集区纬中路中段", "latitude": "3945903.85656", "guid": "0d772f20-bf74-11e7-a6cc-6c92bf041d56"}
{"province": "河南省", "distance": 0.0, "sametype": "same", "thirdId": "17570", "name": "三门峡市铁龙汽车贸易有限责任公司", "city": "三门峡市", "longitude": "12376776.15", "score": "0.991513", "oldname": "三门峡市铁龙汽车贸易有限责任公司", "address": "河南省三门峡市开发区机动车交易市长西南区", "latitude": "4109872.45", "guid": "0d7e156a-bf74-11e7-b4c1-6c92bf041d56"}
{"province": "河南省", "distance": 0.0, "sametype": "same", "thirdId": "14105", "name": "南阳市博德祥汽车销售服务有限公司", "city": "南阳市", "longitude": "12534718.32", "score": "0.982946", "oldname": "南阳市博德祥汽车销售服务有限公司", "address": "河南省南阳市312国道与独山大道交叉口向东一千米路北", "latitude": "3875832.82", "guid": "0d850e1a-bf74-11e7-8188-6c92bf041d56"}
{"province": "河南省", "distance": 0.0, "sametype": "same", "thirdId": "17561", "name": "南阳市成功汽车销售有限公司 ", "city": "南阳市", "longitude": "12523681.8234", "score": "0.862020", "oldname": "南阳市成功汽车销售有限公司 ", "address": "河南省南阳市北京路与信臣路交叉口向西150米", "latitude": "3876335.33632", "guid": "0d8bc1e2-bf74-11e7-8396-6c92bf041d56"}
{"province": "河南省", "distance": 0.0, "sametype": "same", "thirdId": "17633", "name": "邓州市鸿大汽车销售服务有限公司", "city": "南阳市", "longitude": "12484926.3527", "score": "0.978719", "oldname": "邓州市鸿大汽车销售服务有限公司", "address": "河南省邓州市张楼乡207国道南侧茶庵村", "latitude": "3834648.10299", "guid": "0d918a8c-bf74-11e7-b987-6c92bf041d56"}
{"province": "河南省", "distance": 0.0, "sametype": "same", "thirdId": "17851", "name": "永城瑞华汽车销售服务有限公司", "city": "商丘市", "longitude": "12950023.5594", "score": "0.964596", "oldname": "永城瑞华汽车销售服务有限公司", "address": "河南省商丘市永城市天联汽车城02号", "latitude": "4000947.52699", "guid": "0d97a4bc-bf74-11e7-964c-6c92bf041d56"}
{"province": "河南省", "distance": 0.0, "sametype": "same", "thirdId": "18156", "name": "商丘市联盛汽车销售服务有限公司", "city": "商丘市", "longitude": "12869391.45", "score": "0.979285", "oldname": "商丘市联盛汽车销售服务有限公司", "address": "河南省梁园区民主西路北富康路中原车城F10栋1-2层门面", "latitude": "4064739.44", "guid": "0d9e3ffc-bf74-11e7-ad25-6c92bf041d56"}
{"province": "河南省", "distance": 0.0, "sametype": "same", "thirdId": "17851", "name": "永城瑞华汽车销售服务有限公司", "city": "商丘市", "longitude": "12962171.2887", "score": "0.964596", "oldname": "永城瑞华汽车销售服务有限公司", "address": "永城市产业集聚区化工路北", "latitude": "3990562.91883", "guid": "0da57a38-bf74-11e7-bfbc-6c92bf041d56"}
{"province": "河南省", "distance": 0.0, "sametype": "same", "thirdId": "14580", "name": "信阳市瑞龙汽车销售服务有限公司", "city": "信阳市", "longitude": "12706043.18", "score": "0.973734", "oldname": "信阳市瑞龙汽车销售服务有限公司", "address": "河南省信阳市平桥区312过大柏树旁", "latitude": "3780740.1", "guid": "0dac5a4c-bf74-11e7-8f15-6c92bf041d56"}
{"province": "河南省", "distance": 0.0, "sametype": "same", "thirdId": "15683", "name": "信阳新东方汽车销售服务有限公司", "city": "信阳市", "longitude": "12724354.7411", "score": "0.958858", "oldname": "信阳新东方汽车销售服务有限公司", "address": "河南省信阳市迎宾大道高铁桥西50米", "latitude": "3783664.09493", "guid": "0db5ccbc-bf74-11e7-a6e5-6c92bf041d56"}
{"province": "河南省", "distance": 0.0, "sametype": "same", "thirdId": "14141", "name": "济源市瑞兴汽车销售服务有限公司", "city": "济源市", "longitude": "12539387.3804", "score": "0.985036", "oldname": "济源市瑞兴汽车销售服务有限公司", "address": "河南省济源市交警支队西300米路南", "latitude": "4151820.05836", "guid": "0dbc46d2-bf74-11e7-b514-6c92bf041d56"}
{"province": "河南省", "distance": 0.0, "sametype": "same", "thirdId": "14817", "name": "周口市舒翔汽车销售服务有限公司", "city": "周口市", "longitude": "12763375.12", "score": "0.972067", "oldname": "周口市舒翔汽车销售服务有限公司", "address": "河南省周口市北环路与大庆路交叉口东200米", "latitude": "3954511.68", "guid": "0dc2c688-bf74-11e7-94ce-6c92bf041d56"}
{"province": "河南省", "distance": 0.0, "sametype": "same", "thirdId": "14579", "name": "驻马店市豫园汽贸有限公司", "city": "驻马店市", "longitude": "12697058.8", "score": "0.995910", "oldname": "驻马店市豫园汽贸有限公司", "address": "河南省驻马店市前进大道北段（周庄）", "latitude": "3873706.0", "guid": "0dc99fd0-bf74-11e7-b230-6c92bf041d56"}
{"province": "河南省", "distance": 0.0, "sametype": "same", "thirdId": "18354", "name": "驻马店瑞通汽车销售服务有限公司", "city": "驻马店市", "longitude": "12698519.4714", "score": "0.985455", "oldname": "驻马店瑞通汽车销售服务有限公司", "address": "河南省驻马店市驿城大道与纬一东路交叉口向西车管所北门斜对面", "latitude": "3864045.98602", "guid": "0dd0c7a6-bf74-11e7-8c93-6c92bf041d56"}
{"province": "湖北省", "distance": 0.0, "sametype": "same", "thirdId": "13713", "name": "湖北东瑞汽车有限公司", "city": "武汉市", "longitude": 0, "score": "0.975905", "oldname": "湖北东瑞汽车有限公司", "address": "主店：湖北省武汉市洪山区青菱乡红霞村（白沙洲大道9号）奇瑞汽车\n湖北省武汉市汉阳区汉阳大道汉蔡路特8号红太阳汽车城奇瑞4S店", "latitude": 0, "guid": "0dd7fd5a-bf74-11e7-8d76-6c92bf041d56"}
{"province": "湖北省", "distance": 0.0, "sametype": "same", "thirdId": "17952", "name": "湖北东瑞汽车有限公司汉阳分公司", "city": "武汉市", "longitude": "12714180.3117", "score": "0.968805", "oldname": "湖北东瑞汽车有限公司汉阳分公司", "address": "湖北省武汉市汉阳区汉阳大道蔡路特8号", "latitude": "3555057.04192", "guid": "0de09e4c-bf74-11e7-894f-6c92bf041d56"}
{"province": "湖北省", "distance": 0.0, "sametype": "same", "thirdId": "15680", "name": "武汉顺祥晓晖汽车贸易有限公司", "city": "武汉市", "longitude": "12727259.41", "score": "0.994357", "oldname": "武汉顺祥晓晖汽车贸易有限公司", "address": "湖北省武汉市汉口北汽车大世界W1", "latitude": "3573392.32", "guid": "0de71c4a-bf74-11e7-b3b9-6c92bf041d56"}
{"province": "湖北省", "distance": 0.0, "sametype": "same", "thirdId": "17897", "name": "武汉市瑞泽永泰汽车销售服务有限公司", "city": "武汉市", "longitude": "12736645.4361", "score": "0.988389", "oldname": "武汉市瑞泽永泰汽车销售服务有限公司", "address": "武汉市黄陂区前川街顺河村地边王湾10号", "latitude": "3596268.37435", "guid": "0dedbcb2-bf74-11e7-bfba-6c92bf041d56"}
{"province": "湖北省", "distance": 0.0, "sametype": "same", "thirdId": "15197", "name": "湖北捷运汽车销售服务有限公司", "city": "武汉市", "longitude": "12717194.7", "score": "0.987602", "oldname": "湖北捷运汽车销售服务有限公司", "address": "湖北省武汉市汉阳区墨水湖北路101号", "latitude": "3553592.9", "guid": "0df3e862-bf74-11e7-8089-6c92bf041d56"}
{"province": "湖北省", "distance": 0.0, "sametype": "same", "thirdId": "16654", "name": "黄石东瑞汽车销售服务有限公司", "city": "黄石市", "longitude": "12807091.9988", "score": "0.970486", "oldname": "黄石东瑞汽车销售服务有限公司", "address": "湖北省黄石市鄂城大道22号（鄂东国际汽车城）", "latitude": "3516687.44759", "guid": "0df9e2ee-bf74-11e7-949c-6c92bf041d56"}
{"province": "湖北省", "distance": 0.0, "sametype": "same", "thirdId": "14556", "name": "十堰市东风贸联发展有限公司", "city": "十堰市", "longitude": "12339421.8879", "score": "0.983061", "oldname": "十堰市东风贸联发展有限公司", "address": "湖北省十堰市东风大道17号", "latitude": "3820321.17908", "guid": "0dff29e8-bf74-11e7-9ba9-6c92bf041d56"}
{"province": "湖北省", "distance": 0.0, "sametype": "same", "thirdId": "18259", "name": "十堰市奇达汽车销售服务有限公司", "city": "十堰市", "longitude": "12332770.03", "score": "0.979478", "oldname": "十堰市奇达汽车销售服务有限公司", "address": "湖北省十堰市茅箭区浙江中路60-62号", "latitude": "3819833.7", "guid": "0e0605d8-bf74-11e7-b472-6c92bf041d56"}
{"province": "湖北省", "distance": 0.0, "sametype": "same", "thirdId": "15937", "name": "宜昌东英汽车销售服务有限公司", "city": "宜昌市", "longitude": "12395821.711", "score": "0.972880", "oldname": "宜昌东英汽车销售服务有限公司", "address": "湖北省宜昌市夷陵区发展大道博大家私一楼", "latitude": "3581933.77897", "guid": "0e0d5298-bf74-11e7-ab00-6c92bf041d56"}
{"province": "湖北省", "distance": 0.0, "sametype": "same", "thirdId": "17795", "name": "宜昌九宝汽车销售服务有限公司", "city": "宜昌市", "longitude": "12405024.31", "score": "0.982944", "oldname": "宜昌九宝汽车销售服务有限公司", "address": "湖北省宜昌市猇亭区先锋路179号", "latitude": "3552724.65", "guid": "0e14566a-bf74-11e7-8272-6c92bf041d56"}
{"province": "湖北省", "distance": 0.0, "sametype": "same", "thirdId": "14159", "name": "湖北英驰汽车集团有限公司", "city": "襄阳市", "longitude": "12488445.5", "score": "0.956414", "oldname": "湖北英驰汽车集团有限公司", "address": "湖北省襄樊市邓城大道云湾段", "latitude": "3753416.0", "guid": "0e1a2298-bf74-11e7-81d3-6c92bf041d56"}
{"province": "湖北省", "distance": 0.0, "sametype": "same", "thirdId": "17552", "name": "襄阳东凯汽车销售有限公司", "city": "襄阳市", "longitude": "12497697.5", "score": "0.985185", "oldname": "襄阳东凯汽车销售有限公司", "address": "湖北省襄阳市深圳工业园（富康大道）奇瑞4S店", "latitude": "3758466.6", "guid": "0e1f30bc-bf74-11e7-bb05-6c92bf041d56"}
{"province": "湖北省", "distance": 0.0, "sametype": "same", "thirdId": "17154", "name": "荆门市汭鑫汽车贸易有限公司", "city": "荆门市", "longitude": "12495034.694", "score": "0.993316", "oldname": "荆门市汭鑫汽车贸易有限公司", "address": "湖北省荆门市掇刀区月亮湖路78号1栋", "latitude": "3617099.11455", "guid": "0e266026-bf74-11e7-8e7a-6c92bf041d56"}
{"province": "湖北省", "distance": 0.0, "sametype": "same", "thirdId": "14500", "name": "孝感汇众汽车服务有限公司", "city": "孝感市", "longitude": "12688043.1958", "score": "0.987050", "oldname": "孝感汇众汽车服务有限公司", "address": "湖北省孝感市孝南经济开发区澴川路356号", "latitude": "3598983.35119", "guid": "0e2c93e2-bf74-11e7-b676-6c92bf041d56"}
{"province": "湖北省", "distance": 0.0, "sametype": "same", "thirdId": "14833", "name": "荆州东瑞汽车有限公司", "city": "荆州市", "longitude": "12496206.7", "score": "0.969404", "oldname": "荆州东瑞汽车有限公司", "address": "湖北省荆州市荆沙大道308号", "latitude": "3526621.0", "guid": "0e333cce-bf74-11e7-a672-6c92bf041d56"}
{"province": "湖北省", "distance": 0.0, "sametype": "same", "thirdId": "14550", "name": "黄冈市益泰汽车销售有限公司", "city": "黄冈市", "longitude": "12790017.9234", "score": "0.988088", "oldname": "黄冈市益泰汽车销售有限公司", "address": "湖北省黄冈市沿江路39号", "latitude": "3537174.0214", "guid": "0e39eee8-bf74-11e7-a289-6c92bf041d56"}
{"province": "湖北省", "distance": 0.0, "sametype": "same", "thirdId": "17785", "name": "黄冈市安泰顺汽车销售有限公司", "city": "黄冈市", "longitude": "12798300.5931", "score": "0.960801", "oldname": "黄冈市安泰顺汽车销售有限公司", "address": "湖北省黄冈市南湖路38号", "latitude": "3539428.78302", "guid": "0e418504-bf74-11e7-aaf9-6c92bf041d56"}
{"province": "湖北省", "distance": 0.0, "sametype": "same", "thirdId": "14834", "name": "随州东瑞汽车销售服务有限公司", "city": "随州市", "longitude": "12625472.7593", "score": "0.972432", "oldname": "随州东瑞汽车销售服务有限公司", "address": "湖北省随州市曾都经济技术开发区星光一路金华汽车市场", "latitude": "3701292.53403", "guid": "0e4aa594-bf74-11e7-921d-6c92bf041d56"}
{"province": "湖北省", "distance": 0.0, "sametype": "same", "thirdId": "14698", "name": "恩施九宝汽车销售服务有限公司", "city": "恩施市", "longitude": "12189920.9593", "score": "0.981755", "oldname": "恩施九宝汽车销售服务有限公司", "address": "湖北省恩施市金桂大道汽车商贸城", "latitude": "3523936.20871", "guid": "0e5078ca-bf74-11e7-abed-6c92bf041d56"}
{"province": "湖北省", "distance": 0.0, "sametype": "same", "thirdId": "17490", "name": "天门市东瑞汽车销售服务有限公司", "city": "天门市", "longitude": "12601441.4987", "score": "0.984590", "oldname": "天门市东瑞汽车销售服务有限公司", "address": "湖北省天门市承天国际车城C3-2", "latitude": "3568910.0055", "guid": "0e576b08-bf74-11e7-8c9a-6c92bf041d56"}
{"province": "湖北省", "distance": 0.0, "sametype": "same", "thirdId": "17936", "name": "潜江市奇佳汽车销售有限公司", "city": "潜江市", "longitude": "12564959.4708", "score": "0.977144", "oldname": "潜江市奇佳汽车销售有限公司", "address": "湖北省潜江市园林办事处潜阳西路39号", "latitude": "3535870.60739", "guid": "0e6038f0-bf74-11e7-b000-6c92bf041d56"}
{"province": "湖南省", "distance": 0.0, "sametype": "same", "thirdId": "10491", "name": "长沙泰阳汽车贸易服务有限公司", "city": "长沙市", "longitude": "12587592.1901", "score": "0.981664", "oldname": "长沙泰阳汽车贸易服务有限公司", "address": "湖南省长沙中南汽车世界物贸路J区14栋", "latitude": "3259274.18563", "guid": "0e67b4d6-bf74-11e7-aa6d-6c92bf041d56"}
{"province": "湖南省", "distance": 0.0, "sametype": "same", "thirdId": "12379", "name": "长沙金塔汽车贸易有限公司", "city": "长沙市", "longitude": "12587007.3001", "score": "0.986057", "oldname": "长沙金塔汽车贸易有限公司", "address": "湖南省长沙中南汽车世界H05栋", "latitude": "3258695.77923", "guid": "0e6ce67c-bf74-11e7-99d8-6c92bf041d56"}
{"province": "湖南省", "distance": 0.0, "sametype": "same", "thirdId": "15911", "name": "湖南嘉杰汽车销售服务有限公司", "city": "长沙市", "longitude": "12580527.5", "score": "0.986632", "oldname": "湖南嘉杰汽车销售服务有限公司", "address": "湖南省长沙市雨花区南二环线一段321号", "latitude": "3248103.4", "guid": "0e73206e-bf74-11e7-968a-6c92bf041d56"}
{"province": "湖南省", "distance": 0.0, "sametype": "same", "thirdId": "17324", "name": "长沙福宇汽车销售服务有限公司", "city": "长沙市", "longitude": "12570485.8514", "score": "0.974555", "oldname": "长沙福宇汽车销售服务有限公司", "address": "湖南省长沙市岳麓区望城坡街道岳麓大道745号", "latitude": "3256425.484", "guid": "0e783360-bf74-11e7-84ba-6c92bf041d56"}
{"province": "湖南省", "distance": 0.0, "sametype": "same", "thirdId": "17784", "name": "长沙瑞瀚汽车贸易有限公司", "city": "长沙市", "longitude": "12564536.9808", "score": "0.988309", "oldname": "长沙瑞瀚汽车贸易有限公司", "address": "湖南省长沙市高新开发区麓谷汽车世界B4栋", "latitude": "3254992.27683", "guid": "0e7f9592-bf74-11e7-ba1a-6c92bf041d56"}
{"province": "湖南省", "distance": 0.0, "sametype": "same", "thirdId": "17889", "name": "湖南兰天瑞泽汽车销售有限公司", "city": "长沙市", "longitude": "12604673.97", "score": "0.983639", "oldname": "湖南兰天瑞泽汽车销售有限公司", "address": "广东省中山市小榄镇菊城大道西218号（九州LED城马路对面）", "latitude": "2573174.87378", "guid": "0e86cefc-bf74-11e7-9971-6c92bf041d56"}
{"province": "湖南省", "distance": 0.0, "sametype": "same", "thirdId": "17889", "name": "湖南兰天瑞泽汽车销售有限公司", "city": "长沙市", "longitude": "12575685.62", "score": "0.983639", "oldname": "湖南兰天瑞泽汽车销售有限公司", "address": "长沙市岳麓大道3599号", "latitude": "3257860.2", "guid": "0e8fe6c2-bf74-11e7-a80f-6c92bf041d56"}
{"province": "湖南省", "distance": 0.0, "sametype": "same", "thirdId": "14585", "name": "株洲市奇骏汽车销售服务有限公司", "city": "株洲市", "longitude": "12593507.0652", "score": "0.969185", "oldname": "株洲市奇骏汽车销售服务有限公司", "address": "湖南省株洲市天元区庐山路", "latitude": "3208430.16964", "guid": "0e95d12c-bf74-11e7-b941-6c92bf041d56"}
{"province": "湖南省", "distance": 0.0, "sametype": "same", "thirdId": "10570", "name": "湖南三鑫车业有限公司", "city": "湘潭市", "longitude": "12574738.7368", "score": "0.975619", "oldname": "湖南三鑫车业有限公司", "address": "湖南省湘潭市岳塘区河东大道168号湘潭汽车城奇瑞4S店 ", "latitude": "3210389.31154", "guid": "0e9f1840-bf74-11e7-924b-6c92bf041d56"}
{"province": "湖南省", "distance": 0.0, "sametype": "same", "thirdId": "17783", "name": "湘潭泽瑞车业有限公司", "city": "湘潭市", "longitude": "12575472.35", "score": "0.989964", "oldname": "湘潭泽瑞车业有限公司", "address": "湖南省湘潭市九华经济开发区湘望路九城置业3栋1，2号", "latitude": "3225065.63", "guid": "0ea49248-bf74-11e7-9fb7-6c92bf041d56"}
{"province": "湖南省", "distance": 0.0, "sametype": "same", "thirdId": "10065", "name": "衡阳市顺成汽车贸易有限公司", "city": "衡阳市", "longitude": "12533126.1", "score": "0.994842", "oldname": "衡阳市顺成汽车贸易有限公司", "address": "湖南省衡阳市蒸湘区西外环杨柳收费站旁", "latitude": "3090901.0", "guid": "0eaafad4-bf74-11e7-95a0-6c92bf041d56"}
{"province": "湖南省", "distance": 0.0, "sametype": "same", "thirdId": "11421", "name": "邵阳市巨龙汽车销售服务有限公司", "city": "邵阳市", "longitude": "12414819.0422", "score": "0.994288", "oldname": "邵阳市巨龙汽车销售服务有限公司", "address": "湖南省邵阳市宝庆东路169号", "latitude": "3135273.79411", "guid": "0eb29c94-bf74-11e7-a480-6c92bf041d56"}
{"province": "湖南省", "distance": 0.0, "sametype": "same", "thirdId": "13269", "name": "岳阳瑞宏汽车销售有限公司", "city": "岳阳市", "longitude": "12599757.7916", "score": "0.977521", "oldname": "岳阳瑞宏汽车销售有限公司", "address": "湖南省岳阳市经济技术开发区白石岭路168号", "latitude": "3402544.52702", "guid": "0eb90cfa-bf74-11e7-9c89-6c92bf041d56"}
{"province": "湖南省", "distance": 0.0, "sametype": "same", "thirdId": "17549", "name": "岳阳平江大道车业汽车销售有限公司", "city": "岳阳市", "longitude": "12620310.538", "score": "0.989723", "oldname": "岳阳平江大道车业汽车销售有限公司", "address": "湖南省岳阳市平江县城关镇平伍公路快赔中心对面", "latitude": "3327115.30023", "guid": "0ebf1122-bf74-11e7-b332-6c92bf041d56"}
{"province": "湖南省", "distance": 0.0, "sametype": "same", "thirdId": "14822", "name": "常德骏达汽车销售服务有限公司", "city": "常德市", "longitude": "12432673.9249", "score": "0.978055", "oldname": "常德骏达汽车销售服务有限公司", "address": "湖南省常德市新世纪汽车城汽车展厅A-09号展位", "latitude": "3364387.35249", "guid": "0ec43634-bf74-11e7-b9bd-6c92bf041d56"}
{"province": "湖南省", "distance": 0.0, "sametype": "same", "thirdId": "17941", "name": "常德骏诚汽车销售服务有限公司", "city": "常德市", "longitude": "12437356.72", "score": "0.983697", "oldname": "常德骏诚汽车销售服务有限公司", "address": "湖南省常德市柳叶湖旅游度假村七里桥社区常德大道2699号东方美景花园1-07栋", "latitude": "3362344.04", "guid": "0ec9cb30-bf74-11e7-a942-6c92bf041d56"}
{"province": "湖南省", "distance": 0.0, "sametype": "same", "thirdId": "18188", "name": "张家界双星经贸有限公司", "city": "张家界市", "longitude": "12301049.71", "score": "0.970015", "oldname": "张家界双星经贸有限公司", "address": "张家界市永定区鼎泰路19-28号", "latitude": "3365957.05", "guid": "0ed2339c-bf74-11e7-bc4c-6c92bf041d56"}
{"province": "湖南省", "distance": 0.0, "sametype": "same", "thirdId": "14506", "name": "益阳广瑞开元汽车销售服务有限公司", "city": "益阳市", "longitude": "12511054.8067", "score": "0.969608", "oldname": "益阳广瑞开元汽车销售服务有限公司", "address": "益阳市十州路欣苑大厦1楼（大丰天桥小区公交站旁）", "latitude": "3303157.82944", "guid": "0ed7f52a-bf74-11e7-9a56-6c92bf041d56"}
{"province": "湖南省", "distance": 0.0, "sametype": "same", "thirdId": "17794", "name": "益阳广瑞开元汽车销售服务有限公司开元分公司", "city": "益阳市", "longitude": "12506873.07", "score": "0.958755", "oldname": "益阳广瑞开元汽车销售服务有限公司开元分公司", "address": "湖南省益阳市桃花仑路1148号", "latitude": "3303114.97", "guid": "0edd6a78-bf74-11e7-a581-6c92bf041d56"}
{"province": "湖南省", "distance": 0.0, "sametype": "same", "thirdId": "17404", "name": "郴州瑞顺汽车销售有限公司", "city": "郴州市", "longitude": "12574722.3", "score": "0.987972", "oldname": "郴州瑞顺汽车销售有限公司", "address": "湖南省郴州市北湖区安和街道雷大桥村万华汽车城A区A08栋", "latitude": "2949737.5", "guid": "0ee3087a-bf74-11e7-a446-6c92bf041d56"}
{"province": "湖南省", "distance": 0.0, "sametype": "same", "thirdId": "17790", "name": "郴州昊鹏汽车贸易有限公司", "city": "郴州市", "longitude": "12581738.668", "score": "0.992466", "oldname": "郴州昊鹏汽车贸易有限公司", "address": "湖南省郴州市南岭大道郴资桂立交桥下", "latitude": "2955770.21868", "guid": "0ee8560e-bf74-11e7-8421-6c92bf041d56"}
{"province": "湖南省", "distance": 0.0, "sametype": "same", "thirdId": "17436", "name": "永州万顺汽贸有限公司", "city": "永州市", "longitude": "12464867.7254", "score": "0.973820", "oldname": "永州万顺汽贸有限公司", "address": "湖南省永州市祁阳县龙山街道办事处六合岭老刘汽贸", "latitude": "3037059.39537", "guid": "0eee4f6e-bf74-11e7-8a8f-6c92bf041d56"}
{"province": "湖南省", "distance": 0.0, "sametype": "same", "thirdId": "11408", "name": "怀化亚飞汽车连锁有限公司", "city": "怀化市", "longitude": "12243511.6995", "score": "0.949588", "oldname": "怀化亚飞汽车连锁有限公司", "address": "湖南省怀化市迎丰西路345号", "latitude": "3173434.10705", "guid": "0ef44478-bf74-11e7-b498-6c92bf041d56"}
{"province": "湖南省", "distance": 0.0, "sametype": "same", "thirdId": "13003", "name": "娄底市阳光汽贸有限公司", "city": "娄底市", "longitude": "12470665.1816", "score": "0.980217", "oldname": "娄底市阳光汽贸有限公司", "address": "湖南省娄底市万宝新区中南汽车城", "latitude": "3186884.32139", "guid": "0ef95a4e-bf74-11e7-9e0f-6c92bf041d56"}
{"province": "湖南省", "distance": 0.0, "sametype": "same", "thirdId": "17626", "name": "吉首市双星经贸有限责任公司", "city": "湘西市", "longitude": "12219776.5236", "score": "0.986272", "oldname": "吉首市双星经贸有限责任公司", "address": "湖南省吉首市南环城路州移民局对面", "latitude": "3268564.09825", "guid": "0f00e746-bf74-11e7-be22-6c92bf041d56"}
{"province": "广东省", "distance": 0.0, "sametype": "same", "thirdId": "12495", "name": "广州市保瑞汽车有限公司", "city": "广州市", "longitude": "12612585.0549", "score": "0.943428", "oldname": "广州市保瑞汽车有限公司", "address": "广东省广州市白云区黄边北路610号", "latitude": "2642358.55458", "guid": "0f0703c4-bf74-11e7-b66c-6c92bf041d56"}
{"province": "广东省", "distance": 0.0, "sametype": "same", "thirdId": "11205", "name": "广州市众赢汽车维修服务有限公司", "city": "广州市", "longitude": "12603821.7998", "score": "0.977447", "oldname": "广州市众赢汽车维修服务有限公司", "address": "广东省广州市花都区建设北路黄岭路段", "latitude": "2666897.2818", "guid": "0f0ce9ce-bf74-11e7-bd39-6c92bf041d56"}
{"province": "广东省", "distance": 0.0, "sametype": "same", "thirdId": "17419", "name": "广州旺华汽车销售服务有限公司", "city": "广州市", "longitude": "12644186.2493", "score": "0.980885", "oldname": "广州旺华汽车销售服务有限公司", "address": "广东省增城区新塘107国道太平洋工业园太平洋七路一号", "latitude": "2630225.62465", "guid": "0f274580-bf74-11e7-a02f-6c92bf041d56"}
{"province": "广东省", "distance": 0.0, "sametype": "same", "thirdId": "18166", "name": "广州陆高汽车销售服务有限公司", "city": "广州市", "longitude": "12622052.2891", "score": "0.984825", "oldname": "广州陆高汽车销售服务有限公司", "address": "广东省广州市番禺区东环路120号之二", "latitude": "2610150.48438", "guid": "0f2e9dc6-bf74-11e7-a7f4-6c92bf041d56"}
{"province": "广东省", "distance": 0.0, "sametype": "same", "thirdId": "15019", "name": "广州市平益汽车销售服务有限公司", "city": "广州市", "longitude": "12628267.0", "score": "0.969976", "oldname": "广州市平益汽车销售服务有限公司", "address": "广东省广州市中山大道东黄埔塘口南街自编9号之102", "latitude": "2629149.1", "guid": "0f348e70-bf74-11e7-ae84-6c92bf041d56"}
{"province": "广东省", "distance": 0.0, "sametype": "same", "thirdId": "11912", "name": "广州市陆高汽车销售服务有限公司", "city": "广州市", "longitude": "12622052.2891", "score": "0.984029", "oldname": "广州陆高汽车销售服务有限公司", "address": "广东省广州市番禺区东环路120号之二号", "latitude": "2610150.48438", "guid": "0f2e9dc6-bf74-11e7-a7f4-6c92bf041d56"}
{"province": "广东省", "distance": 0.0, "sametype": "same", "thirdId": "15739", "name": "广州市海珠区穗风汽车修配厂", "city": "广州市", "longitude": "12618350.2891", "score": "0.995919", "oldname": "广州市海珠区穗风汽车修配厂", "address": "广东省广州市海珠区华洲路66号及66号之三", "latitude": "2624938.63792", "guid": "0f40d6e4-bf74-11e7-b201-6c92bf041d56"}
{"province": "广东省", "distance": 0.0, "sametype": "same", "thirdId": "14003", "name": "韶关市卓瑞贸易有限公司", "city": "韶关市", "longitude": "12645258.6506", "score": "0.978520", "oldname": "韶关市卓瑞贸易有限公司", "address": "广东省韶关市韶南大道亿华汽车城", "latitude": "2829310.36966", "guid": "0f450b74-bf74-11e7-ab55-6c92bf041d56"}
{"province": "广东省", "distance": 0.0, "sametype": "same", "thirdId": "10126", "name": "深圳市北方鹏程汽车销售服务有限公司", "city": "深圳市", "longitude": "12703598.5073", "score": "0.987360", "oldname": "深圳市北方鹏程汽车销售服务有限公司", "address": "广东省深圳市罗湖区清水河一路与三路交汇处深业车城内A区02/B", "latitude": "2565125.49126", "guid": "0f4cf938-bf74-11e7-bc9e-6c92bf041d56"}
{"province": "广东省", "distance": 0.0, "sametype": "same", "thirdId": "12127", "name": "深圳市东富汽车销售有限公司", "city": "深圳市", "longitude": "12687183.8886", "score": "0.973301", "oldname": "深圳市东富汽车销售有限公司", "address": "广东省深圳市南山区西丽丽山路民企科技园1栋", "latitude": "2566099.58976", "guid": "0f531070-bf74-11e7-b96e-6c92bf041d56"}
{"province": "广东省", "distance": 0.0, "sametype": "same", "thirdId": "14097", "name": "深圳市北方祥麒汽车销售有限公司", "city": "深圳市", "longitude": "12677026.3913", "score": "0.982120", "oldname": "深圳市北方祥麒汽车销售有限公司", "address": "广东省深圳市宝安区西乡宝田二路2号", "latitude": "2567508.68598", "guid": "0f587d08-bf74-11e7-a8a0-6c92bf041d56"}
{"province": "广东省", "distance": 0.0, "sametype": "same", "thirdId": "17884", "name": "深圳市锦昊投资发展有限公司", "city": "深圳市", "longitude": "12691805.275", "score": "0.991363", "oldname": "深圳市锦昊投资发展有限公司", "address": "深圳市龙华新区布龙路359号（元芬工业区旁）", "latitude": "2574649.55", "guid": "0f63a700-bf74-11e7-a1c2-6c92bf041d56"}
{"province": "广东省", "distance": 0.0, "sametype": "same", "thirdId": "17884", "name": "深圳市锦昊投资发展有限公司", "city": "深圳市", "longitude": "12691805.275", "score": "0.991363", "oldname": "深圳市锦昊投资发展有限公司", "address": "广东省深圳市龙华新区布龙路359号（元芬工业区旁）", "latitude": "2574649.55", "guid": "0f63a700-bf74-11e7-a1c2-6c92bf041d56"}
{"province": "广东省", "distance": 0.0, "sametype": "same", "thirdId": "10113", "name": "汕头市汕阳汽车贸易有限公司", "city": "汕头市", "longitude": "12996677.2", "score": "0.978071", "oldname": "汕头市汕阳汽车贸易有限公司", "address": "广东省汕头市长江路98号", "latitude": "2661789.3", "guid": "0f6953c6-bf74-11e7-9069-6c92bf041d56"}
{"province": "广东省", "distance": 0.0, "sametype": "same", "thirdId": "10785", "name": "汕头市福和机电设备有限公司", "city": "汕头市", "longitude": "12995417.0815", "score": "0.988889", "oldname": "汕头市福和机电设备有限公司", "address": "广东省汕头市汕汾路与嵩山路交界处", "latitude": "2664684.94579", "guid": "0f6ee5fc-bf74-11e7-b2bc-6c92bf041d56"}
{"province": "广东省", "distance": 0.0, "sametype": "same", "thirdId": "10037", "name": "佛山市兴协瑞汽车贸易有限公司", "city": "佛山市", "longitude": "12591316.4415", "score": "0.993404", "oldname": "佛山市兴协瑞汽车贸易有限公司", "address": "广东省佛山市禅城区佛山大道佛山车城奇瑞4S店", "latitude": "2616672.14412", "guid": "0f72befc-bf74-11e7-ac78-6c92bf041d56"}
{"province": "广东省", "distance": 0.0, "sametype": "same", "thirdId": "10259", "name": "佛山市安奇汽车销售服务有限公司", "city": "佛山市", "longitude": "12595607.43", "score": "0.978263", "oldname": "佛山市安奇汽车销售服务有限公司", "address": "广东省南海市桂城海八路中心洲", "latitude": "2619671.81", "guid": "0f7704f8-bf74-11e7-85a6-6c92bf041d56"}
{"province": "广东省", "distance": 0.0, "sametype": "same", "thirdId": "17359", "name": "佛山市瑞启汽车销售服务有限公司", "city": "佛山市", "longitude": "12606309.29", "score": "0.977520", "oldname": "佛山市瑞启汽车销售服务有限公司", "address": "广东省佛山市顺德区大良新滘东路1号", "latitude": "2597849.1", "guid": "0f7b583c-bf74-11e7-974a-6c92bf041d56"}
{"province": "广东省", "distance": 0.0, "sametype": "same", "thirdId": "18109", "name": "佛山市顺德区新劲之星汽车维护有限公司", "city": "佛山市", "longitude": "12588176.9119", "score": "0.976517", "oldname": "佛山市顺德区新劲之星汽车维护有限公司", "address": "广东省佛山市顺德区龙江镇龙洲西路72号", "latitude": "2600118.93745", "guid": "0f811308-bf74-11e7-b375-6c92bf041d56"}
{"province": "广东省", "distance": 0.0, "sametype": "same", "thirdId": "16045", "name": "佛山市启顺汽车销售服务有限公司", "city": "佛山市", "longitude": "12606323.9626", "score": "0.985482", "oldname": "佛山市启顺汽车销售服务有限公司", "address": "广东省佛山市顺德区大良新滘四街3号之一", "latitude": "2597829.73871", "guid": "0f86f3b8-bf74-11e7-b748-6c92bf041d56"}
{"province": "广东省", "distance": 0.0, "sametype": "same", "thirdId": "14912", "name": "江门市东富汽车有限公司", "city": "江门市", "longitude": "12587555.1516", "score": "0.986561", "oldname": "江门市东富汽车有限公司", "address": "广东省江门市建设三路与宏兴路交界处", "latitude": "2570536.77658", "guid": "0f8b35c2-bf74-11e7-b387-6c92bf041d56"}
{"province": "广东省", "distance": 0.0, "sametype": "same", "thirdId": "15881", "name": "湛江市东富汽车销售服务有限公司", "city": "湛江市", "longitude": "12284188.7785", "score": "0.987602", "oldname": "湛江市东富汽车销售服务有限公司", "address": "广东省湛江市麻章区瑞云南路", "latitude": "2406969.72699", "guid": "0f8f56a2-bf74-11e7-b054-6c92bf041d56"}
{"province": "广东省", "distance": 0.0, "sametype": "same", "thirdId": "17462", "name": "茂名市腾跃汽车有限公司", "city": "茂名市", "longitude": "12348154.7719", "score": "0.989728", "oldname": "茂名市腾跃汽车有限公司", "address": "广东省茂名市茂南开发区茂名大道一路83号五洲汽车城内中厅", "latitude": "2452246.17741", "guid": "0f944676-bf74-11e7-a975-6c92bf041d56"}
{"province": "广东省", "distance": 0.0, "sametype": "same", "thirdId": "18229", "name": "肇庆旺华汽车销售服务有限公司", "city": "肇庆市", "longitude": "12524499.1374", "score": "0.988771", "oldname": "肇庆旺华汽车销售服务有限公司", "address": "广东省肇庆市端州区肇庆大道119区肇庆学院东侧800米处临时汽车营业厅B幢", "latitude": "2628738.65935", "guid": "0f9a4daa-bf74-11e7-ace8-6c92bf041d56"}
{"province": "广东省", "distance": 0.0, "sametype": "same", "thirdId": "18202", "name": "惠州市宝瑞华汽车销售服务有限公司", "city": "惠州市", "longitude": "12742979.0187", "score": "0.970324", "oldname": "惠州市宝瑞华汽车销售服务有限公司", "address": "广东省惠州市惠阳区桥背永兴路奇瑞4S店", "latitude": "2593053.94368", "guid": "0fa06046-bf74-11e7-8d27-6c92bf041d56"}
{"province": "广东省", "distance": 0.0, "sametype": "same", "thirdId": "12410", "name": "惠州市辉达惠瑞汽车有限公司", "city": "惠州市", "longitude": "12735802.4733", "score": "0.901756", "oldname": "惠州市辉达惠瑞汽车有限公司", "address": "广东省惠州市惠博沿江路金山汽车城内", "latitude": "2632053.37338", "guid": "0fa66de2-bf74-11e7-9383-6c92bf041d56"}
{"province": "广东省", "distance": 0.0, "sametype": "same", "thirdId": "15178", "name": "惠州市辉达汽车贸易有限公司", "city": "惠州市", "longitude": "12737875.03", "score": "0.975560", "oldname": "惠州市辉达汽车贸易有限公司", "address": "广东省惠州市惠城区河南岸汽车大市场内", "latitude": "2623158.23", "guid": "0fab1f72-bf74-11e7-a3bc-6c92bf041d56"}
{"province": "广东省", "distance": 0.0, "sametype": "same", "thirdId": "16445", "name": "梅州市政奋贸易有限公司", "city": "梅州市", "longitude": "12925172.97", "score": "0.937220", "oldname": "梅州市政奋贸易有限公司", "address": "广东省梅州市梅县新城办事处锭子桥华发苑二栋底层1、2号", "latitude": "2771386.22", "guid": "0fb17bec-bf74-11e7-b82e-6c92bf041d56"}
{"province": "广东省", "distance": 0.0, "sametype": "same", "thirdId": "17964", "name": "梅州市华运汽车贸易有限公司", "city": "梅州市", "longitude": "12924815.9998", "score": "0.990974", "oldname": "梅州市华运汽车贸易有限公司", "address": "广东省梅州市城北镇黄留村十二组下山子地质队侧", "latitude": "2775730.49321", "guid": "0fb66d32-bf74-11e7-9650-6c92bf041d56"}
{"province": "广东省", "distance": 0.0, "sametype": "same", "thirdId": "14756", "name": "惠州市辉达汽车贸易有限公司河源分公司", "city": "河源市", "longitude": "12769075.5", "score": "0.986981", "oldname": "惠州市辉达汽车贸易有限公司河源分公司", "address": "广东省河源市源城区河源大道南风光加油正对面", "latitude": "2709936.9", "guid": "0fbc416c-bf74-11e7-8060-6c92bf041d56"}
{"province": "广东省", "distance": 0.0, "sametype": "same", "thirdId": "14017", "name": "阳江市粤隆汽车销售服务有限公司", "city": "阳江市", "longitude": "12466140.04", "score": "0.984251", "oldname": "阳江市粤隆汽车销售服务有限公司", "address": "广东省阳江市康泰路3号", "latitude": "2482585.96851", "guid": "0fc2ad36-bf74-11e7-9573-6c92bf041d56"}
{"province": "广东省", "distance": 0.0, "sametype": "same", "thirdId": "14204", "name": "清远市众合力汽车贸易有限公司", "city": "清远市", "longitude": "12586645.2299", "score": "0.982973", "oldname": "清远市众合力汽车贸易有限公司", "address": "广东省清远市107国道新城东B41号区（远光电缆厂对面）", "latitude": "2694720.50333", "guid": "0fc8d65c-bf74-11e7-9faa-6c92bf041d56"}
{"province": "广东省", "distance": 0.0, "sametype": "same", "thirdId": "18164", "name": "清远市冠荣汽车销售服务有限公司", "city": "清远市", "longitude": "12610854.46", "score": "0.986062", "oldname": "清远市冠荣汽车销售服务有限公司", "address": "广东省清远市新城区广清大道市武警支队旁23号自编09商铺", "latitude": "2669936.15", "guid": "0fce5438-bf74-11e7-a318-6c92bf041d56"}
{"province": "广东省", "distance": 0.0, "sametype": "same", "thirdId": "18155", "name": "东莞市东富实业有限公司塘厦分公司", "city": "东莞市", "longitude": "12702008.3372", "score": "0.978572", "oldname": "东莞市东富实业有限公司塘厦分公司", "address": "广东省东莞市塘厦大道北223号", "latitude": "2597403.30216", "guid": "0fd346c8-bf74-11e7-9b0b-6c92bf041d56"}
{"province": "广东省", "distance": 0.0, "sametype": "same", "thirdId": "10033", "name": "东莞市东富实业有限公司", "city": "东莞市", "longitude": "12674922.7681", "score": "0.963559", "oldname": "东莞市东富实业有限公司", "address": "广东省东莞市寮步新城中心国际汽车城", "latitude": "2617426.38494", "guid": "0fd85d84-bf74-11e7-b9f0-6c92bf041d56"}
{"province": "广东省", "distance": 0.0, "sametype": "same", "thirdId": "11269", "name": "东莞市东瑞汽车有限公司", "city": "东莞市", "longitude": "12659605.9", "score": "0.972159", "oldname": "东莞市东瑞汽车有限公司", "address": "广东省东莞市南城区莞太路袁屋边路段321号", "latitude": "2614611.22", "guid": "0fdd9146-bf74-11e7-a844-6c92bf041d56"}
{"province": "广东省", "distance": 0.0, "sametype": "same", "thirdId": "12791", "name": "中山市中天汽车服务有限公司", "city": "中山市", "longitude": "12618081.92", "score": "0.983336", "oldname": "中山市中天汽车服务有限公司", "address": "广东省中山市西区彩虹大道32号", "latitude": "2562440.92", "guid": "0fe2b7d4-bf74-11e7-8326-6c92bf041d56"}
{"province": "广东省", "distance": 0.0, "sametype": "same", "thirdId": "17716", "name": "中山市利盈汽车销售服务有限公司", "city": "中山市", "longitude": "12617663.3135", "score": "0.943158", "oldname": "中山市利盈汽车销售服务有限公司", "address": "中山市西区彩虹大道89号", "latitude": "2562631.65765", "guid": "0fe6ec14-bf74-11e7-a28a-6c92bf041d56"}
{"province": "广东省", "distance": 0.0, "sametype": "same", "thirdId": "17978", "name": "中山利瑞汽车销售服务有限公司", "city": "中山市", "longitude": "12575685.62", "score": "0.982148", "oldname": "中山利瑞汽车销售服务有限公司", "address": "湖南省长沙市岳麓大道3599号", "latitude": "3257860.2", "guid": "0fee940a-bf74-11e7-93a9-6c92bf041d56"}
{"province": "广东省", "distance": 0.0, "sametype": "same", "thirdId": "17979", "name": "中山市威晟汽车销售服务有限公司", "city": "中山市", "longitude": "12625953.3409", "score": "0.962512", "oldname": "中山市威晟汽车销售服务有限公司", "address": "中山市东区长江北路白沙湾工业区金基汽车城第一幢（东区白沙湾汽车城）", "latitude": "2562714.66703", "guid": "0ff422e4-bf74-11e7-a841-6c92bf041d56"}
{"province": "广东省", "distance": 0.0, "sametype": "same", "thirdId": "13904", "name": "揭阳市宏达汽车贸易有限公司", "city": "揭阳市", "longitude": "12956531.0", "score": "0.982519", "oldname": "揭阳市宏达汽车贸易有限公司", "address": "广东省揭阳市榕城区东山一号路与十一号街交界处", "latitude": "2684266.6", "guid": "0ff9b290-bf74-11e7-a864-6c92bf041d56"}
{"province": "广东省", "distance": 0.0, "sametype": "same", "thirdId": "17430", "name": "珠海市多盈汽车销售服务有限公司", "city": "珠海市", "longitude": "12635266.61", "score": "0.990912", "oldname": "珠海市多盈汽车销售服务有限公司", "address": "广东省珠海市华宇路115号（展厅2西）", "latitude": "2530477.52", "guid": "0ffe6cae-bf74-11e7-ab53-6c92bf041d56"}
{"province": "广东省", "distance": 0.0, "sametype": "same", "thirdId": "18393", "name": "珠海市利盈汽车销售服务有限公司", "city": "珠海市", "longitude": "12615033.1814", "score": "0.969701", "oldname": "珠海市利盈汽车销售服务有限公司", "address": "广东省珠海市斗门区井岸镇西堤路1729号华联汽车城内", "latitude": "2518856.00534", "guid": "1004c6bc-bf74-11e7-a812-6c92bf041d56"}
{"province": "广东省", "distance": 0.0, "sametype": "same", "thirdId": "17898", "name": "云浮市云瑞汽车销售服务有限公司", "city": "云浮市", "longitude": "12480278.1", "score": "0.985913", "oldname": "云浮市云瑞汽车销售服务有限公司", "address": "广东省云浮市云城区罗沙村委稔塘村324国道边（美轮汽车城对面）", "latitude": "2610183.3", "guid": "100cff1c-bf74-11e7-9416-6c92bf041d56"}
{"province": "广东省", "distance": 0.0, "sametype": "same", "thirdId": "17894", "name": "广东骏路宝汽贸有限公司", "city": "潮州市", "longitude": "12981294.56", "score": "0.970658", "oldname": "广东骏路宝汽贸有限公司", "address": "广东省潮州市枫溪区潮汕公路古板头村二支干渠23号厂房", "latitude": "2692004.4", "guid": "10121524-bf74-11e7-8e4c-6c92bf041d56"}
{"province": "广西省", "distance": 0.0, "sametype": "same", "thirdId": "12576", "name": "广西鑫广达旗瑞汽车销售服务有限公司", "city": "南宁市", "longitude": "12053594.8255", "score": "0.992980", "oldname": "广西鑫广达旗瑞汽车销售服务有限公司", "address": "广西省南宁市科园大道55号", "latitude": "2598983.82758", "guid": "101787c0-bf74-11e7-ab14-6c92bf041d56"}
{"province": "广西省", "distance": 0.0, "sametype": "same", "thirdId": "15945", "name": "南宁市海胜汽车销售有限责任公司", "city": "南宁市", "longitude": "12056668.7108", "score": "0.983841", "oldname": "南宁市海胜汽车销售有限责任公司", "address": "广西省南宁市安吉大道安吉园18号", "latitude": "2602237.98819", "guid": "101c746a-bf74-11e7-bd27-6c92bf041d56"}
{"province": "广西省", "distance": 0.0, "sametype": "same", "thirdId": "18185", "name": "南宁瑞义川汽车贸易有限公司", "city": "南宁市", "longitude": "12058065.5248", "score": "0.992459", "oldname": "南宁瑞义川汽车贸易有限公司", "address": "南宁市星光大道191号面向星光大道二层楼", "latitude": "2588847.45053", "guid": "1021df7c-bf74-11e7-b8ee-6c92bf041d56"}
{"province": "广西省", "distance": 0.0, "sametype": "same", "thirdId": "18146", "name": "广西鑫广达旗瑞汽车销售服务有限公司南宁科园分公司", "city": "南宁市", "longitude": "12053594.8255", "score": "0.996894", "oldname": "广西鑫广达旗瑞汽车销售服务有限公司南宁科园分公司", "address": "广西省南宁市科园大道55号", "latitude": "2598983.82758", "guid": "10268f04-bf74-11e7-988f-6c92bf041d56"}
{"province": "广西省", "distance": 0.0, "sametype": "same", "thirdId": "18175", "name": "柳州市德龙汽车销售有限公司", "city": "柳州市", "longitude": "12175442.2863", "score": "0.985599", "oldname": "柳州市德龙汽车销售有限公司", "address": "柳州汽车贸易园汇轮路东区10-3号", "latitude": "2773639.11635", "guid": "102b7ce4-bf74-11e7-8db8-6c92bf041d56"}
{"province": "广西省", "distance": 0.0, "sametype": "same", "thirdId": "14396", "name": "柳州鑫广达旗瑞汽车销售服务有限公司", "city": "柳州市", "longitude": "12175318.2729", "score": "0.995074", "oldname": "柳州鑫广达旗瑞汽车销售服务有限公司", "address": "广西省柳州市汇轮路8-1号（广西汽车贸易园内）", "latitude": "2773780.36095", "guid": "10306326-bf74-11e7-a178-6c92bf041d56"}
{"province": "广西省", "distance": 0.0, "sametype": "same", "thirdId": "17301", "name": "柳州市鹏越汽车销售有限公司", "city": "柳州市", "longitude": "12183584.8324", "score": "0.975161", "oldname": "柳州市鹏越汽车销售有限公司", "address": "广西省柳州市燎原路27号A2", "latitude": "2772224.84603", "guid": "103691ba-bf74-11e7-9888-6c92bf041d56"}
{"province": "广西省", "distance": 0.0, "sametype": "same", "thirdId": "17108", "name": "柳州市鹏晖物资贸易有限公司", "city": "柳州市", "longitude": "12183584.8324", "score": "0.991958", "oldname": "柳州市鹏晖物资贸易有限公司", "address": "广西省柳州市燎原路27号A2/C2", "latitude": "2772224.84603", "guid": "103be084-bf74-11e7-9cd1-6c92bf041d56"}
{"province": "广西省", "distance": 0.0, "sametype": "same", "thirdId": "10869", "name": "桂林市桂路通商贸有限责任公司", "city": "桂林市", "longitude": "12279963.6552", "score": "0.993016", "oldname": "桂林市桂路通商贸有限责任公司", "address": "广西省桂林市灵川县八里街永业汽车城第3栋第B1-3号门面", "latitude": "2900911.6488", "guid": "10412620-bf74-11e7-80d5-6c92bf041d56"}
{"province": "广西省", "distance": 0.0, "sametype": "same", "thirdId": "17732", "name": "桂林大旗汽车贸易有限公司", "city": "桂林市", "longitude": "12271666.17", "score": "0.970535", "oldname": "桂林大旗汽车贸易有限公司", "address": "广西桂林市秀峰区路口村德恒汽车市场（机场路往临桂过高铁桥五百米左侧）", "latitude": "2889809.14", "guid": "1047050e-bf74-11e7-a0ca-6c92bf041d56"}
{"province": "广西省", "distance": 0.0, "sametype": "same", "thirdId": "17818", "name": "桂林灵川县申永达汽车销售有限公司", "city": "桂林市", "longitude": "12282244.1501", "score": "0.983730", "oldname": "桂林灵川县申永达汽车销售有限公司", "address": "广西省桂林市灵川县灵川镇粑粑厂村委西头村民小组", "latitude": "2908363.85246", "guid": "104c0bc6-bf74-11e7-927c-6c92bf041d56"}
{"province": "广西省", "distance": 0.0, "sametype": "same", "thirdId": "17760", "name": "广西鑫广达旗瑞汽车销售服务有限公司梧州分公司", "city": "梧州市", "longitude": "12385279.2158", "score": "0.996242", "oldname": "广西鑫广达旗瑞汽车销售服务有限公司梧州分公司", "address": "广西省梧州市平浪村下坪四级下垌冲A区2号", "latitude": "2677899.98297", "guid": "1050ac08-bf74-11e7-bf6f-6c92bf041d56"}
{"province": "广西省", "distance": 0.0, "sametype": "same", "thirdId": "15577", "name": "北海鑫广达旗瑞汽车销售服务有限公司", "city": "北海市", "longitude": "12152743.0707", "score": "0.994212", "oldname": "北海鑫广达旗瑞汽车销售服务有限公司", "address": "广西省北海市北部湾东路汽车交易市场内", "latitude": "2436100.91293", "guid": "1055d034-bf74-11e7-af12-6c92bf041d56"}
{"province": "广西省", "distance": 0.0, "sametype": "same", "thirdId": "15576", "name": "钦州鑫广达旗瑞汽车销售服务有限公司", "city": "钦州市", "longitude": "12091317.833", "score": "0.990051", "oldname": "钦州鑫广达旗瑞汽车销售服务有限公司", "address": "广西省钦州市北部湾北大道81号", "latitude": "2490179.19358", "guid": "105baf5e-bf74-11e7-8cd3-6c92bf041d56"}
{"province": "广西省", "distance": 0.0, "sametype": "same", "thirdId": "15569", "name": "贵港市鑫广达旗瑞汽车销售服务有限公司", "city": "贵港市", "longitude": "12203960.8886", "score": "0.986310", "oldname": "贵港市鑫广达旗瑞汽车销售服务有限公司", "address": "广西省贵港市金港大道东段绿洲小区临街铺面", "latitude": "2628569.87204", "guid": "10607e76-bf74-11e7-a703-6c92bf041d56"}
{"province": "广西省", "distance": 0.0, "sametype": "same", "thirdId": "15564", "name": "玉林鑫广达汽车销售服务有限公司", "city": "玉林市", "longitude": "12265225.5734", "score": "0.984580", "oldname": "玉林鑫广达汽车销售服务有限公司", "address": "广西省玉林市教育东路351号", "latitude": "2573981.41202", "guid": "10658560-bf74-11e7-8360-6c92bf041d56"}
{"province": "广西省", "distance": 0.0, "sametype": "same", "thirdId": "17504", "name": "贺州广深汽车销售有限公司", "city": "贺州市", "longitude": "12416068.2577", "score": "0.976033", "oldname": "贺州广深汽车销售有限公司", "address": "贺州市八步迎宾大道金龙摩托车城C座4号", "latitude": "2786721.81376", "guid": "106b13c2-bf74-11e7-a0be-6c92bf041d56"}
{"province": "广西省", "distance": 0.0, "sametype": "same", "thirdId": "15755", "name": "百色鑫广达旗瑞汽车销售服务有限公司", "city": "百色市", "longitude": "11874231.6245", "score": "0.994747", "oldname": "百色鑫广达旗瑞汽车销售服务有限公司", "address": "广西省百色市右江区城东路进站大道右侧C片福兴苑1栋", "latitude": "2722570.7533", "guid": "107194e0-bf74-11e7-88f0-6c92bf041d56"}
{"province": "广西省", "distance": 0.0, "sametype": "same", "thirdId": "17800", "name": "百色龙腾汽车销售服务有限公司", "city": "百色市", "longitude": "11875206.0689", "score": "0.978603", "oldname": "百色龙腾汽车销售服务有限公司", "address": "广西省百色市右江区大旺路百色汽车城奇瑞百色龙腾4S店（江淮轿车4S店）", "latitude": "2718913.79426", "guid": "10770bb4-bf74-11e7-80fe-6c92bf041d56"}
{"province": "广西省", "distance": 0.0, "sametype": "same", "thirdId": "17710", "name": "广西鑫广达旗瑞汽车销售服务有限公司河池分公司", "city": "河池市", "longitude": "12033793.0587", "score": "0.996857", "oldname": "广西鑫广达旗瑞汽车销售服务有限公司河池分公司", "address": "广西省河池市金城江区城东路东方水岸汽车城", "latitude": "2820264.27918", "guid": "107c4caa-bf74-11e7-aecb-6c92bf041d56"}
{"province": "广西省", "distance": 0.0, "sametype": "same", "thirdId": "17910", "name": "广西来宾市畅达贸易有限公司", "city": "来宾市", "longitude": "12157101.7226", "score": "0.983678", "oldname": "广西来宾市畅达贸易有限公司", "address": "广西省来宾市华侨大道商圈", "latitude": "2708265.49438", "guid": "1081647e-bf74-11e7-83ab-6c92bf041d56"}
{"province": "海南省", "distance": 0.0, "sametype": "same", "thirdId": "15066", "name": "海南仁通实业有限公司", "city": "海口市", "longitude": "12279545.5", "score": "0.953765", "oldname": "海南仁通实业有限公司", "address": "海南海口龙华区滨涯路10号", "latitude": "2259082.3", "guid": "1086bef6-bf74-11e7-8920-6c92bf041d56"}
{"province": "海南省", "distance": 0.0, "sametype": "same", "thirdId": "17613", "name": "海南和奇祥汽车销售服务有限公司", "city": "海口市", "longitude": "12281203.7466", "score": "0.970897", "oldname": "海南和奇祥汽车销售服务有限公司", "address": "海南省海口市秀英区南海大道208号盛享汽车汽配市场A座第10-12号铺E座铺第1-5铺面", "latitude": "2258473.87736", "guid": "108ba07e-bf74-11e7-bdfc-6c92bf041d56"}
{"province": "重庆市", "distance": 0.0, "sametype": "same", "thirdId": "17634", "name": "重庆市万泰汽车销售有限公司", "city": "重庆市", "longitude": "11789690.5913", "score": "0.968335", "oldname": "重庆市万泰汽车销售有限公司", "address": "重庆市永川区昌州大道中段629号", "latitude": "3401454.34014", "guid": "10909494-bf74-11e7-9ed5-6c92bf041d56"}
{"province": "重庆市", "distance": 0.0, "sametype": "same", "thirdId": "17713", "name": "重庆渝舟昊瑞汽车销售有限公司", "city": "重庆市", "longitude": "11831695.6842", "score": "0.972676", "oldname": "重庆渝舟昊瑞汽车销售有限公司", "address": "重庆市合川区工业园区高阳路与南溪路交叉口", "latitude": "3474773.38655", "guid": "10952c7a-bf74-11e7-aac5-6c92bf041d56"}
{"province": "重庆市", "distance": 0.0, "sametype": "same", "thirdId": "17604", "name": "重庆市南川区新长远汽车销售服务有限公司", "city": "重庆市", "longitude": "11921148.89", "score": "0.976227", "oldname": "重庆市南川区新长远汽车销售服务有限公司", "address": "重庆市南川区长远居委会组", "latitude": "3374812.5", "guid": "109a399a-bf74-11e7-bd1b-6c92bf041d56"}
{"province": "重庆市", "distance": 0.0, "sametype": "same", "thirdId": "11971", "name": "重庆商社强力汽车贸易有限公司", "city": "重庆市", "longitude": "11859589.282", "score": "0.995834", "oldname": "重庆商社强力汽车贸易有限公司", "address": "重庆市渝中区长江一路78号", "latitude": "3424631.37684", "guid": "109f7d24-bf74-11e7-8cb5-6c92bf041d56"}
{"province": "重庆市", "distance": 0.0, "sametype": "same", "thirdId": "14239", "name": "重庆盛联辉瑞汽车销售有限公司", "city": "重庆市", "longitude": "11859770.1262", "score": "0.985743", "oldname": "重庆盛联辉瑞汽车销售有限公司", "address": "重庆市渝北区民安大道447号附22号", "latitude": "3432840.08955", "guid": "10a50ad2-bf74-11e7-b791-6c92bf041d56"}
{"province": "重庆市", "distance": 0.0, "sametype": "same", "thirdId": "14428", "name": "重庆众宜汽车销售有限公司", "city": "重庆市", "longitude": "11855528.6088", "score": "0.980037", "oldname": "重庆众宜汽车销售有限公司", "address": "重庆市九龙坡区科园四路269号", "latitude": "3422150.64801", "guid": "10aae16e-bf74-11e7-9a08-6c92bf041d56"}
{"province": "重庆市", "distance": 0.0, "sametype": "same", "thirdId": "15417", "name": "重庆智鑫汽车销售有限公司", "city": "重庆市", "longitude": "11855216.9", "score": "0.982505", "oldname": "重庆智鑫汽车销售有限公司", "address": "重庆九龙坡区九龙园区翼龙路2号泰亨彩云印象", "latitude": "3420166.44", "guid": "10af541a-bf74-11e7-a07c-6c92bf041d56"}
{"province": "重庆市", "distance": 0.0, "sametype": "same", "thirdId": "15723", "name": "重庆诚锐汽车有限公司", "city": "重庆市", "longitude": "11855216.9", "score": "0.973181", "oldname": "重庆诚锐汽车有限公司", "address": "重庆市九龙坡区九龙园区冀龙路2号（泰亨.彩云印象会所）", "latitude": "3420166.44", "guid": "10b4e66e-bf74-11e7-a1e6-6c92bf041d56"}
{"province": "重庆市", "distance": 0.0, "sametype": "same", "thirdId": "17841", "name": "重庆欣万奇汽车销售服务有限公司", "city": "重庆市", "longitude": "12064632.5974", "score": "0.971070", "oldname": "重庆欣万奇汽车销售服务有限公司", "address": "重庆市万州区双河口永佳路339号", "latitude": "3578303.16748", "guid": "10ba6ea4-bf74-11e7-9498-6c92bf041d56"}
{"province": "重庆市", "distance": 0.0, "sametype": "same", "thirdId": "17918", "name": "重庆众宜驰尚汽车销售服务有限公司", "city": "重庆市", "longitude": "11855588.8944", "score": "0.978770", "oldname": "重庆众宜驰尚汽车销售服务有限公司", "address": "重庆市渝北区龙山街道余松路501号佳居花园3幢1-2", "latitude": "3431164.46891", "guid": "10c03794-bf74-11e7-93b9-6c92bf041d56"}
{"province": "重庆市", "distance": 0.0, "sametype": "same", "thirdId": "17461", "name": "重庆万罡汽车修理有限公司", "city": "重庆市", "longitude": "11921997.4", "score": "0.992373", "oldname": "重庆万罡汽车修理有限公司", "address": "重庆市长寿区桃花东路25号9幢3单元1-1", "latitude": "3462217.0", "guid": "10c50878-bf74-11e7-98ad-6c92bf041d56"}
{"province": "重庆市", "distance": 0.0, "sametype": "same", "thirdId": "17460", "name": "重庆市铜梁区金顺汽车销售有限公司", "city": "重庆市", "longitude": "11808395.9187", "score": "0.983329", "oldname": "重庆市铜梁区金顺汽车销售有限公司", "address": "重庆市铜梁区白土坝工业区中南路838号", "latitude": "3460019.65511", "guid": "10cbcb36-bf74-11e7-9c19-6c92bf041d56"}
{"province": "重庆市", "distance": 0.0, "sametype": "same", "thirdId": "17456", "name": "重庆奇丰汽车销售有限公司", "city": "重庆市", "longitude": "11825851.1936", "score": "0.976771", "oldname": "重庆奇丰汽车销售有限公司", "address": "重庆市璧山区永嘉大道102号", "latitude": "3427483.1645", "guid": "10d14b7e-bf74-11e7-b2f8-6c92bf041d56"}
{"province": "重庆市", "distance": 0.0, "sametype": "same", "thirdId": "17518", "name": "重庆市江辉江诚汽车销售服务有限公司", "city": "重庆市", "longitude": "11872128.6336", "score": "0.987553", "oldname": "重庆市江辉江诚汽车销售服务有限公司", "address": "重庆市綦江区古南街道新山村1号", "latitude": "3358922.9355", "guid": "10d71d06-bf74-11e7-877e-6c92bf041d56"}
{"province": "重庆市", "distance": 0.0, "sametype": "same", "thirdId": "17455", "name": "重庆云瑞汽车销售有限公司", "city": "重庆市", "longitude": "11757953.5938", "score": "0.982013", "oldname": "重庆云瑞汽车销售有限公司", "address": "重庆市荣昌区昌州大道东段9号附1号", "latitude": "3406829.227", "guid": "10dc5c12-bf74-11e7-805f-6c92bf041d56"}
{"province": "重庆市", "distance": 0.0, "sametype": "same", "thirdId": "17708", "name": "重庆奇红汽车销售有限公司", "city": "重庆市", "longitude": "11956755.7403", "score": "0.981426", "oldname": "重庆奇红汽车销售有限公司", "address": "重庆市涪陵区望江路瑞康大厦底楼", "latitude": "3442514.3172", "guid": "10e132aa-bf74-11e7-89b4-6c92bf041d56"}
{"province": "重庆市", "distance": 0.0, "sametype": "same", "thirdId": "17661", "name": "重庆九鑫汽车维修有限公司", "city": "重庆市", "longitude": "12111752.6779", "score": "0.982837", "oldname": "重庆九鑫汽车维修有限公司", "address": "重庆市黔江区正阳工业园区机动车交易中心", "latitude": "3414373.15417", "guid": "10e5d5bc-bf74-11e7-8be7-6c92bf041d56"}
{"province": "重庆市", "distance": 0.0, "sametype": "same", "thirdId": "18112", "name": "彭水县三娃汽车修理厂", "city": "重庆市", "longitude": "12043525.5918", "score": "0.996286", "oldname": "彭水县三娃汽车修理厂", "address": "重庆市彭水县汉关路杏花街40号", "latitude": "3393377.54194", "guid": "10eb2878-bf74-11e7-8ae9-6c92bf041d56"}
{"province": "重庆市", "distance": 0.0, "sametype": "same", "thirdId": "14771", "name": "重庆市万州区卓耀汽车销售有限公司", "city": "重庆市", "longitude": "12066981.3509", "score": "0.966151", "oldname": "重庆市万州区卓耀汽车销售有限公司", "address": "重庆市万州区王牌路778号", "latitude": "3584355.94698", "guid": "10f0b5fe-bf74-11e7-bf47-6c92bf041d56"}
{"province": "重庆市", "distance": 0.0, "sametype": "same", "thirdId": "17646", "name": "重庆渝舟博瑞汽车销售有限公司", "city": "重庆市", "longitude": "11864481.33", "score": "0.982267", "oldname": "重庆渝舟博瑞汽车销售有限公司", "address": "重庆市北部新区经开园金渝大道99号名车广场B7-1", "latitude": "3437084.44", "guid": "10f6f914-bf74-11e7-ba00-6c92bf041d56"}
{"province": "重庆市", "distance": 0.0, "sametype": "same", "thirdId": "12382", "name": "重庆百城汽车维修服务有限公司", "city": "重庆市", "longitude": "11856537.8427", "score": "0.971464", "oldname": "重庆百城汽车维修服务有限公司", "address": "重庆市高新区歇台子渝州路121号", "latitude": "3423509.80749", "guid": "10fb401e-bf74-11e7-99fa-6c92bf041d56"}
{"province": "重庆市", "distance": 0.0, "sametype": "same", "thirdId": "17917", "name": "重庆力瑞汽车销售服务有限公司", "city": "南岸", "longitude": "11864016.3421", "score": "0.977827", "oldname": "重庆力瑞汽车销售服务有限公司", "address": "重庆市南岸区南滨路12号附13号", "latitude": "3424141.56499", "guid": "1102355e-bf74-11e7-bd8b-6c92bf041d56"}
{"province": "重庆市", "distance": 0.0, "sametype": "same", "thirdId": "18216", "name": "重庆盛联名瑞汽车销售服务有限公司", "city": "渝北", "longitude": "11859770.1262", "score": "0.991774", "oldname": "重庆盛联名瑞汽车销售服务有限公司", "address": "重庆市渝北区民安大道447号附4号负1层", "latitude": "3432840.08955", "guid": "11073f22-bf74-11e7-b4c6-6c92bf041d56"}
{"province": "四川省", "distance": 0.0, "sametype": "same", "thirdId": "17733", "name": "彭州市申蓉汽车销售有限公司", "city": "成都市", "longitude": "11570995.7235", "score": "0.975668", "oldname": "彭州市申蓉汽车销售有限公司", "address": "彭州市繁江南路378号", "latitude": "3608332.14689", "guid": "110c00f2-bf74-11e7-a27b-6c92bf041d56"}
{"province": "四川省", "distance": 0.0, "sametype": "same", "thirdId": "17789", "name": "成都兴立汽车销售有限公司", "city": "成都市", "longitude": "11541291.71", "score": "0.981734", "oldname": "成都兴立汽车销售有限公司", "address": "崇州市崇阳街道金盆地343号", "latitude": "3563986.73", "guid": "11107f88-bf74-11e7-8af4-6c92bf041d56"}
{"province": "四川省", "distance": 0.0, "sametype": "same", "thirdId": "17720", "name": "成都鸿宇鑫鸿汽车销售服务有限公司", "city": "成都市", "longitude": "11563384.3053", "score": "0.993673", "oldname": "成都鸿宇鑫鸿汽车销售服务有限公司", "address": "成都郫县郫筒镇洪石村3组", "latitude": "3589795.85029", "guid": "1115849c-bf74-11e7-bbed-6c92bf041d56"}
{"province": "四川省", "distance": 0.0, "sametype": "same", "thirdId": "17624", "name": "成都鹏城汽车销售有限公司", "city": "成都市", "longitude": "11603455.8", "score": "0.986827", "oldname": "成都鹏城汽车销售有限公司", "address": "成都市青白江区华金大道一段238号", "latitude": "3596321.9", "guid": "111bd81a-bf74-11e7-a645-6c92bf041d56"}
{"province": "四川省", "distance": 0.0, "sametype": "same", "thirdId": "17992", "name": "四川明嘉汽车贸易服务有限公司", "city": "成都市", "longitude": "11597252.577", "score": "0.987539", "oldname": "四川明嘉汽车贸易服务有限公司", "address": "四川省成都市成华区三环路二段龙潭苛业园成致路30号", "latitude": "3570360.11256", "guid": "1120bdbc-bf74-11e7-9ec0-6c92bf041d56"}
{"province": "四川省", "distance": 0.0, "sametype": "same", "thirdId": "10590", "name": "四川华星鑫瑞汽车销售服务有限公司", "city": "成都市", "longitude": "11584836.2338", "score": "0.984665", "oldname": "四川华星鑫瑞汽车销售服务有限公司", "address": "四川省成都市高新区站华路3号", "latitude": "3560385.00762", "guid": "1125e864-bf74-11e7-a928-6c92bf041d56"}
{"province": "四川省", "distance": 0.0, "sametype": "same", "thirdId": "11270", "name": "成都建国汽车贸易有限公司", "city": "成都市", "longitude": "11581668.5", "score": "0.985277", "oldname": "成都建国汽车贸易有限公司", "address": "四川省成都市高新区机场路建国段", "latitude": "3558010.0", "guid": "112ac5a0-bf74-11e7-9b6b-6c92bf041d56"}
{"province": "四川省", "distance": 0.0, "sametype": "same", "thirdId": "13829", "name": "成都市精瑞汽车销售服务有限公司", "city": "成都市", "longitude": "11594884.1333", "score": "0.979463", "oldname": "成都市精瑞汽车销售服务有限公司", "address": "四川省成都市龙泉驿区洪河镇三桥村四组", "latitude": "3561968.91161", "guid": "112f96ca-bf74-11e7-a629-6c92bf041d56"}
{"province": "四川省", "distance": 0.0, "sametype": "same", "thirdId": "14283", "name": "成都西物中锐汽车有限公司", "city": "成都市", "longitude": "11577244.9622", "score": "0.977730", "oldname": "成都西物中锐汽车有限公司", "address": "四川省成都市金牛区兴科中路36号", "latitude": "3574913.70269", "guid": "1134d1b2-bf74-11e7-9b5b-6c92bf041d56"}
{"province": "四川省", "distance": 0.0, "sametype": "same", "thirdId": "17287", "name": "成都金堂驭马车业有限公司", "city": "成都市", "longitude": "11621802.9923", "score": "0.991472", "oldname": "成都金堂驭马车业有限公司", "address": "四川省成都市金堂县成金大道1899号", "latitude": "3591053.63263", "guid": "113aa524-bf74-11e7-b9f9-6c92bf041d56"}
{"province": "四川省", "distance": 0.0, "sametype": "same", "thirdId": "17959", "name": "成都瑞一汽车有限公司", "city": "成都市", "longitude": "11572704.5479", "score": "0.981914", "oldname": "成都瑞一汽车有限公司", "address": "四川省成都市双流区东升街道龙桥路6号53栋1楼3号", "latitude": "3558977.95924", "guid": "113fb0fa-bf74-11e7-b358-6c92bf041d56"}
{"province": "四川省", "distance": 0.0, "sametype": "same", "thirdId": "17587", "name": "成都一猫电子商务有限公司", "city": "成都市", "longitude": "11585157.9", "score": "0.976846", "oldname": "成都一猫电子商务有限公司", "address": "四川省成都市高新区府城大道188号晶科一号写字楼1110室", "latitude": "3558375.5", "guid": "1144a9e8-bf74-11e7-920b-6c92bf041d56"}
{"province": "四川省", "distance": 0.0, "sametype": "same", "thirdId": "17957", "name": "成都广合汽车销售有限公司", "city": "成都市", "longitude": "11598850.2624", "score": "0.979928", "oldname": "成都广合汽车销售有限公司", "address": "四川省成都市新都区新都街道封赐村1社", "latitude": "3591621.92846", "guid": "1149475a-bf74-11e7-9ef2-6c92bf041d56"}
{"province": "四川省", "distance": 0.0, "sametype": "same", "thirdId": "17630", "name": "成都申辉汽贸有限公司", "city": "成都市", "longitude": "11526908.4902", "score": "0.968951", "oldname": "成都申辉汽贸有限公司", "address": "四川省成都市大邑县晋原镇潘家街二段149号", "latitude": "3558041.1122", "guid": "114e67a8-bf74-11e7-bf09-6c92bf041d56"}
{"province": "四川省", "distance": 0.0, "sametype": "same", "thirdId": "", "name": "自贡建国汽车销售服务有限公司", "city": "自贡市", "longitude": "11656854.3137", "score": "0.968894", "oldname": "自贡建国汽车销售服务有限公司", "address": "四川省自贡市贡井区长土镇大坡村1.2.3组", "latitude": "3398160.0589", "guid": "11583f62-bf74-11e7-94c5-6c92bf041d56"}
{"province": "四川省", "distance": 0.0, "sametype": "same", "thirdId": "18197", "name": "自贡建国汽车销售服务有限公司", "city": "自贡市", "longitude": "11656854.3137", "score": "0.968894", "oldname": "自贡建国汽车销售服务有限公司", "address": "四川省自贡市贡井区长土镇大坡村1.2.3组", "latitude": "3398160.0589", "guid": "11583f62-bf74-11e7-94c5-6c92bf041d56"}
{"province": "四川省", "distance": 0.0, "sametype": "same", "thirdId": "17270", "name": "攀枝花市建国汽车销售服务有限公司", "city": "攀枝花市", "longitude": "11324851.6084", "score": "0.959116", "oldname": "攀枝花市建国汽车销售服务有限公司", "address": "四川省攀枝花市仁和区弯腰树天宇路车管所向西300米驾校三科目考场旁", "latitude": "3045898.57892", "guid": "115dbc44-bf74-11e7-afe9-6c92bf041d56"}
{"province": "四川省", "distance": 0.0, "sametype": "same", "thirdId": "11181", "name": "攀枝花天海汽车销售服务有限公司", "city": "攀枝花市", "longitude": "11322262.5", "score": "0.986362", "oldname": "攀枝花天海汽车销售服务有限公司", "address": "四川省攀枝花市渡仁西线南山段", "latitude": "3047634.6", "guid": "1162a240-bf74-11e7-8f04-6c92bf041d56"}
{"province": "四川省", "distance": 0.0, "sametype": "same", "thirdId": "10817", "name": "泸州市达昌汽车有限公司", "city": "泸州市", "longitude": "11738797.1803", "score": "0.974137", "oldname": "泸州市达昌汽车有限公司", "address": "四川省泸州市江阳区兰田重湾开发区", "latitude": "3337277.2106", "guid": "1167d59e-bf74-11e7-8b7a-6c92bf041d56"}
{"province": "四川省", "distance": 0.0, "sametype": "same", "thirdId": "17273", "name": "泸州建国汽车贸易有限公司", "city": "泸州市", "longitude": "11742228.3862", "score": "0.984813", "oldname": "泸州建国汽车贸易有限公司", "address": "四川省泸州市龙马潭区鱼塘镇振兴路西侧", "latitude": "3345156.66016", "guid": "116d4e66-bf74-11e7-9efd-6c92bf041d56"}
{"province": "四川省", "distance": 0.0, "sametype": "same", "thirdId": "14214", "name": "德阳众瑞汽车销售服务有限公司", "city": "德阳市", "longitude": "11623226.7695", "score": "0.988482", "oldname": "德阳众瑞汽车销售服务有限公司", "address": "四川省德阳市天山南路三段83号", "latitude": "3624072.74323", "guid": "11723eb2-bf74-11e7-9bc9-6c92bf041d56"}
{"province": "四川省", "distance": 0.0, "sametype": "same", "thirdId": "17198", "name": "德阳市源升汽车销售服务有限公司", "city": "德阳市", "longitude": "11620111.7617", "score": "0.988524", "oldname": "德阳市源升汽车销售服务有限公司", "address": "四川省德阳市泰山南路八角工业园区", "latitude": "3620399.92545", "guid": "1176f178-bf74-11e7-8ae5-6c92bf041d56"}
{"province": "四川省", "distance": 0.0, "sametype": "same", "thirdId": "11149", "name": "德阳市豪威贸易有限公司汽车修理厂", "city": "德阳市", "longitude": "11622239.795", "score": "0.975089", "oldname": "德阳市豪威贸易有限公司汽车修理厂", "address": "四川省德阳市旌阳区泰山北路三段", "latitude": "3632261.77823", "guid": "117baa74-bf74-11e7-95eb-6c92bf041d56"}
{"province": "四川省", "distance": 0.0, "sametype": "same", "thirdId": "14669", "name": "绵阳市京美汽车维修服务有限公司", "city": "绵阳市", "longitude": "11663972.4255", "score": "0.962604", "oldname": "绵阳市京美汽车维修服务有限公司", "address": "四川省绵阳市经开区绵州大道中段6号同立汽车博览中心", "latitude": "3665912.04437", "guid": "118070b8-bf74-11e7-9ecb-6c92bf041d56"}
{"province": "四川省", "distance": 0.0, "sametype": "same", "thirdId": "17331", "name": "绵阳瑞锦汽车有限公司", "city": "绵阳市", "longitude": "11649789.6282", "score": "0.972268", "oldname": "绵阳瑞锦汽车有限公司", "address": "四川省绵阳市高新区永兴镇永昌路", "latitude": "3670426.23765", "guid": "11859ebc-bf74-11e7-9f26-6c92bf041d56"}
{"province": "四川省", "distance": 0.0, "sametype": "same", "thirdId": "10865", "name": "绵阳市京美汽车贸易有限公司", "city": "绵阳市", "longitude": "11664383.22", "score": "0.986633", "oldname": "绵阳市京美汽车贸易有限公司", "address": "四川省绵阳市经开区同立汽车博览中心", "latitude": "3665745.55", "guid": "118a89cc-bf74-11e7-b3d9-6c92bf041d56"}
{"province": "四川省", "distance": 0.0, "sametype": "same", "thirdId": "16942", "name": "广元驭马车业有限公司", "city": "广元市", "longitude": "11795532.956", "score": "0.992116", "oldname": "广元驭马车业有限公司", "address": "四川省广元市利州区212国道龙洞碥大桥南", "latitude": "3791279.90186", "guid": "118ffb64-bf74-11e7-b9c2-6c92bf041d56"}
{"province": "四川省", "distance": 0.0, "sametype": "same", "thirdId": "17644", "name": "广元市金顺汽车物流有限公司", "city": "广元市", "longitude": "11779561.96", "score": "0.983294", "oldname": "广元市金顺汽车物流有限公司", "address": "四川省广元市经济开发区下西物流园区（金顺汽车园）", "latitude": "3795635.0", "guid": "119589ee-bf74-11e7-9a87-6c92bf041d56"}
{"province": "四川省", "distance": 0.0, "sametype": "same", "thirdId": "15632", "name": "遂宁建国汽车销售服务有限公司", "city": "遂宁市", "longitude": "11752884.6199", "score": "0.962033", "oldname": "遂宁建国汽车销售服务有限公司", "address": "四川省遂宁市船山区西部物流港内", "latitude": "3541196.32061", "guid": "119a916e-bf74-11e7-a227-6c92bf041d56"}
{"province": "四川省", "distance": 0.0, "sametype": "same", "thirdId": "14291", "name": "内江市达昌汽车有限公司", "city": "内江市", "longitude": "11691099.6692", "score": "0.981568", "oldname": "内江市达昌汽车有限公司", "address": "四川省内江市市中区城西工业园汉晨路888号1幢底层1-3号", "latitude": "3429947.85708", "guid": "11a02458-bf74-11e7-b0c5-6c92bf041d56"}
{"province": "四川省", "distance": 0.0, "sametype": "same", "thirdId": "17276", "name": "内江东创建国汽车销售服务有限公司", "city": "内江市", "longitude": "11692551.9266", "score": "0.982000", "oldname": "内江东创建国汽车销售服务有限公司", "address": "四川省内江市市中区汉渝大道", "latitude": "3429687.93248", "guid": "11a530e2-bf74-11e7-83f6-6c92bf041d56"}
{"province": "四川省", "distance": 0.0, "sametype": "same", "thirdId": "16419", "name": "乐山众瑞汽车销售服务有限公司", "city": "乐山市", "longitude": "11546437.9823", "score": "0.990619", "oldname": "乐山众瑞汽车销售服务有限公司", "address": "四川省乐山市中区长青路988号", "latitude": "3430164.16328", "guid": "11a9b8b0-bf74-11e7-bbe1-6c92bf041d56"}
{"province": "四川省", "distance": 0.0, "sametype": "same", "thirdId": "17272", "name": "乐山建国汽车销售服务有限公司", "city": "乐山市", "longitude": "11524789.2521", "score": "0.969605", "oldname": "乐山建国汽车销售服务有限公司", "address": "四川省乐山市峨眉山市乐峨路与梅燕路交汇处", "latitude": "3430819.41459", "guid": "11af17c4-bf74-11e7-a570-6c92bf041d56"}
{"province": "四川省", "distance": 0.0, "sametype": "same", "thirdId": "14249", "name": "南充天顺车业有限公司", "city": "南充市", "longitude": "11806353.57", "score": "0.978449", "oldname": "南充天顺车业有限公司", "address": "四川省南充市顺庆区潆溪镇川东北汽车贸易中心（车管所旁）", "latitude": "3595820.41", "guid": "11b53190-bf74-11e7-a75b-6c92bf041d56"}
{"province": "四川省", "distance": 0.0, "sametype": "same", "thirdId": "17408", "name": "南充润德汽车销售服务有限公司", "city": "南充市", "longitude": "11820102.4368", "score": "0.981692", "oldname": "南充润德汽车销售服务有限公司", "address": "四川省南充市高坪区航空港工业集中区国际汽车城", "latitude": "3581377.16743", "guid": "11ba150c-bf74-11e7-803e-6c92bf041d56"}
{"province": "四川省", "distance": 0.0, "sametype": "same", "thirdId": "16652", "name": "宜宾建国汽车销售服务有限公司", "city": "宜宾市", "longitude": "11646489.1982", "score": "0.939093", "oldname": "宜宾建国汽车销售服务有限公司", "address": "四川省宜宾市翠屏区岷江北路34号", "latitude": "3327999.36272", "guid": "11bf6f48-bf74-11e7-8e97-6c92bf041d56"}
{"province": "四川省", "distance": 0.0, "sametype": "same", "thirdId": "17869", "name": "宜宾精瑞汽车销售服务有限公司", "city": "宜宾市", "longitude": "11647821.14", "score": "0.980256", "oldname": "宜宾精瑞汽车销售服务有限公司", "address": "四川省宜宾市临港经济技术开发区港园大道西段9号", "latitude": "3325610.68", "guid": "11c464b2-bf74-11e7-b427-6c92bf041d56"}
{"province": "四川省", "distance": 0.0, "sametype": "same", "thirdId": "15633", "name": "广安市蜀东车业有限公司", "city": "广安市", "longitude": "11866558.5664", "score": "0.984331", "oldname": "广安市蜀东车业有限公司", "address": "四川省广安市广安区枣山镇天成村", "latitude": "3539405.25552", "guid": "11ca0430-bf74-11e7-98e8-6c92bf041d56"}
{"province": "四川省", "distance": 0.0, "sametype": "same", "thirdId": "16914", "name": "达州建国汽车销售服务有限公司", "city": "达州市", "longitude": "11968286.0971", "score": "0.939796", "oldname": "达州建国汽车销售服务有限公司", "address": "四川省达州市南外镇二号干道莱克汽贸园（建国汽车）", "latitude": "3633281.0193", "guid": "11cf620e-bf74-11e7-942a-6c92bf041d56"}
{"province": "四川省", "distance": 0.0, "sametype": "same", "thirdId": "17847", "name": "达州创奇汽车销售服务有限公司", "city": "达州市", "longitude": "11968395.9407", "score": "0.973019", "oldname": "达州创奇汽车销售服务有限公司", "address": "达州市达川区南外二号干道汽车城（达州宝泰汽车旁边）", "latitude": "3633276.00666", "guid": "11d4274e-bf74-11e7-83d8-6c92bf041d56"}
{"province": "四川省", "distance": 0.0, "sametype": "same", "thirdId": "14908", "name": "巴中市先锋汽车服务有限公司", "city": "巴中市", "longitude": "11887201.76", "score": "0.965300", "oldname": "巴中市先锋汽车服务有限公司", "address": "四川省巴中市巴州区宕梁街道黄家沟巴中先锋汽车产业园", "latitude": "3722010.81", "guid": "11d941d4-bf74-11e7-b0bf-6c92bf041d56"}
{"province": "四川省", "distance": 0.0, "sametype": "same", "thirdId": "14042", "name": "眉山超越汽车销售服务有限公司", "city": "眉山市", "longitude": "11557803.7", "score": "0.966948", "oldname": "眉山超越汽车销售服务有限公司", "address": "四川省眉山市东坡区铁环路中段282号", "latitude": "3491549.0", "guid": "11ddc0f6-bf74-11e7-8a38-6c92bf041d56"}
{"province": "四川省", "distance": 0.0, "sametype": "same", "thirdId": "14377", "name": "资阳市大昌汽车销售服务有限公司", "city": "资阳市", "longitude": "11648625.9782", "score": "0.977905", "oldname": "资阳市大昌汽车销售服务有限公司", "address": "四川省资阳市南骏大道", "latitude": "3497517.03537", "guid": "11e1cc32-bf74-11e7-8180-6c92bf041d56"}
{"province": "四川省", "distance": 0.0, "sametype": "same", "thirdId": "16915", "name": "资阳市东创汽车销售服务有限公司", "city": "资阳市", "longitude": "11648032.95", "score": "0.990446", "oldname": "资阳市东创汽车销售服务有限公司", "address": "四川省资阳市雁江区大千路建国汽车", "latitude": "3498045.95", "guid": "11e6d06a-bf74-11e7-a0ab-6c92bf041d56"}
{"province": "四川省", "distance": 0.0, "sametype": "same", "thirdId": "17281", "name": "西昌建国汽车贸易有限公司", "city": "凉山市", "longitude": "11384748.0113", "score": "0.983608", "oldname": "西昌建国汽车贸易有限公司", "address": "四川省凉山彝族自治州西昌市海滨北路11号老海亭", "latitude": "3212091.65199", "guid": "11ec067a-bf74-11e7-9a8f-6c92bf041d56"}
{"province": "贵州省", "distance": 0.0, "sametype": "same", "thirdId": "16354", "name": "贵州瑞翼汽车销售服务有限公司", "city": "贵阳市", "longitude": "11884091.5244", "score": "0.962326", "oldname": "贵州瑞翼汽车销售服务有限公司", "address": "贵州省贵阳市花溪区孟关乡（汽贸城）", "latitude": "3031260.33034", "guid": "11efc206-bf74-11e7-85ac-6c92bf041d56"}
{"province": "贵州省", "distance": 0.0, "sametype": "same", "thirdId": "17726", "name": "清镇市鼎信汽车综合服务有限公司", "city": "贵阳市", "longitude": "11855800.0496", "score": "0.985698", "oldname": "清镇市鼎信汽车综合服务有限公司", "address": "贵州省贵阳市清镇市红枫顺达汽车城", "latitude": "3048057.05388", "guid": "11f3a984-bf74-11e7-be60-6c92bf041d56"}
{"province": "贵州省", "distance": 0.0, "sametype": "same", "thirdId": "17329", "name": "贵州乾瑞祥汽车服务有限公司", "city": "六盘水市", "longitude": "11684377.1", "score": "0.984711", "oldname": "贵州乾瑞祥汽车服务有限公司", "address": "贵州省六盘水市水城县双水新区汽车城对面", "latitude": "3047645.5", "guid": "11f90db6-bf74-11e7-8ea1-6c92bf041d56"}
{"province": "贵州省", "distance": 0.0, "sametype": "same", "thirdId": "17431", "name": "六盘水栩钛汽车服务有限公司", "city": "六盘水市", "longitude": "11684377.1", "score": "0.987961", "oldname": "六盘水栩钛汽车服务有限公司", "address": "六盘水市双城县双水新区汽车城对面", "latitude": "3047645.5", "guid": "11fd8e68-bf74-11e7-9360-6c92bf041d56"}
{"province": "贵州省", "distance": 0.0, "sametype": "same", "thirdId": "12019", "name": "遵义欣龙威汽车销售服务有限公司", "city": "遵义市", "longitude": "11911661.3", "score": "0.980649", "oldname": "遵义欣龙威汽车销售服务有限公司", "address": "贵州省遵义市汇川区汇川汽博城汽博四路", "latitude": "3214640.93", "guid": "1201a124-bf74-11e7-b118-6c92bf041d56"}
{"province": "贵州省", "distance": 0.0, "sametype": "same", "thirdId": "17229", "name": "遵义龙腾汽车销售有限公司", "city": "遵义市", "longitude": "11897304.2743", "score": "0.972901", "oldname": "遵义龙腾汽车销售有限公司", "address": "贵州省遵义市红花岗区遵南大道领航商贸综合楼负一层14-25号", "latitude": "3178547.51054", "guid": "120660c4-bf74-11e7-9ba3-6c92bf041d56"}
{"province": "贵州省", "distance": 0.0, "sametype": "same", "thirdId": "11188", "name": "遵义市全兴汽车修理服务有限责任公司", "city": "遵义市", "longitude": "11902665.5", "score": "0.983942", "oldname": "遵义市全兴汽车修理服务有限责任公司", "address": "贵州省遵义市南门关原佳乐批发市场内", "latitude": "3187682.6", "guid": "120a3cee-bf74-11e7-b8b2-6c92bf041d56"}
{"province": "贵州省", "distance": 0.0, "sametype": "same", "thirdId": "17508", "name": "贵州乾瑞达汽车服务有限公司", "city": "毕节市", "longitude": "11725373.8", "score": "0.989406", "oldname": "贵州乾瑞达汽车服务有限公司", "address": "贵州省毕节市七星关区碧阳街道办贵毕大道瑞丰铭城四号楼商业1-2号铺", "latitude": "3139907.6", "guid": "120df4f6-bf74-11e7-98a1-6c92bf041d56"}
{"province": "贵州省", "distance": 0.0, "sametype": "same", "thirdId": "17458", "name": "铜仁市驰骋汽车销售服务有限公司", "city": "铜仁市", "longitude": "12155366.4182", "score": "0.976996", "oldname": "铜仁市驰骋汽车销售服务有限公司", "address": "贵州市铜仁市碧江区梵净山大道83号", "latitude": "3191625.58735", "guid": "1212f078-bf74-11e7-9d4e-6c92bf041d56"}
{"province": "贵州省", "distance": 0.0, "sametype": "same", "thirdId": "11967", "name": "铜仁市龙辉综合服务有限公司", "city": "铜仁市", "longitude": "12155438.9381", "score": "0.978888", "oldname": "铜仁市龙辉综合服务有限公司", "address": "贵州省铜仁市梵净山大道147号", "latitude": "3190190.23908", "guid": "1216fa60-bf74-11e7-9dd3-6c92bf041d56"}
{"province": "贵州省", "distance": 0.0, "sametype": "same", "thirdId": "14548", "name": "黔西南州乾江汽车销售服务有限公司", "city": "黔西南市", "longitude": "11675409.0705", "score": "0.978588", "oldname": "黔西南州乾江汽车销售服务有限公司", "address": "贵州省兴义市坪东大道上段兴伟奇瑞4S店", "latitude": "2870132.20259", "guid": "121bb3ca-bf74-11e7-95cd-6c92bf041d56"}
{"province": "贵州省", "distance": 0.0, "sametype": "same", "thirdId": "14522", "name": "凯里市天源汽车维修有限公司", "city": "黔东南市", "longitude": "12022779.681", "score": "0.984113", "oldname": "凯里市天源汽车维修有限公司", "address": "贵州省凯里市环城东路575号", "latitude": "3053975.99081", "guid": "12206938-bf74-11e7-9da5-6c92bf041d56"}
{"province": "云南省", "distance": 0.0, "sametype": "same", "thirdId": "10159", "name": "云南商务汽车销售服务有限公司", "city": "昆明市", "longitude": "11429451.97", "score": "0.972382", "oldname": "云南商务汽车销售服务有限公司", "address": "云南省昆明市二环西路兴云车城QS18号", "latitude": "2866579.5", "guid": "12250e70-bf74-11e7-8653-6c92bf041d56"}
{"province": "云南省", "distance": 0.0, "sametype": "same", "thirdId": "14052", "name": "昆明森通汽车销售服务有限公司", "city": "昆明市", "longitude": "11445280.8137", "score": "0.987722", "oldname": "昆明森通汽车销售服务有限公司", "address": "云南省昆明市经济技术开发区出口加工区国际汽车城", "latitude": "2852973.17177", "guid": "12290bd8-bf74-11e7-a6cc-6c92bf041d56"}
{"province": "云南省", "distance": 0.0, "sametype": "same", "thirdId": "10530", "name": "昆明市紫扬汽车服务有限公司", "city": "昆明市", "longitude": "11429738.094", "score": "0.976948", "oldname": "昆明市紫扬汽车服务有限公司", "address": "云南省昆明市滇池路三公里", "latitude": "2858027.67093", "guid": "122dee32-bf74-11e7-a76e-6c92bf041d56"}
{"province": "云南省", "distance": 0.0, "sametype": "same", "thirdId": "14018", "name": "曲靖商务汽车销售服务有限公司", "city": "曲靖市", "longitude": "11558411.5872", "score": "0.956955", "oldname": "曲靖商务汽车销售服务有限公司", "address": "云南省曲靖市珠江源汽车城曲靖商务4S店", "latitude": "2924588.14399", "guid": "1232d08c-bf74-11e7-a64e-6c92bf041d56"}
{"province": "云南省", "distance": 0.0, "sametype": "same", "thirdId": "13997", "name": "玉溪商务汽车销售服务有限公司", "city": "玉溪市", "longitude": "11414181.3087", "score": "0.966168", "oldname": "玉溪商务汽车销售服务有限公司", "address": "云南省玉溪市高新区明珠路129号", "latitude": "2777235.67576", "guid": "123803d6-bf74-11e7-a152-6c92bf041d56"}
{"province": "云南省", "distance": 0.0, "sametype": "same", "thirdId": "11235", "name": "昭通市晟烽汽车有限责任公司", "city": "昭通市", "longitude": "11546310.3454", "score": "0.992369", "oldname": "昭通市晟烽汽车有限责任公司", "address": "云南省昭通市昭阳区团结路向西延伸段", "latitude": "3144721.64838", "guid": "123c9c2a-bf74-11e7-85e4-6c92bf041d56"}
{"province": "云南省", "distance": 0.0, "sametype": "same", "thirdId": "17905", "name": "普洱盈瑞汽车销售服务有限公司", "city": "普洱市", "longitude": "11227277.5816", "score": "0.977325", "oldname": "普洱盈瑞汽车销售服务有限公司", "address": "云南省普洱市思茅区北部区8号路南侧奇瑞汽车", "latitude": "2583836.70714", "guid": "123ffe9c-bf74-11e7-be85-6c92bf041d56"}
{"province": "云南省", "distance": 0.0, "sametype": "same", "thirdId": "13744", "name": "云南商务汽车销售服务有限公司大理分公司", "city": "大理市", "longitude": "11157211.7", "score": "0.976243", "oldname": "云南商务汽车销售服务有限公司大理分公司", "address": "云南省大理市下关镇人民北路46号", "latitude": "2932208.2", "guid": "1244bb62-bf74-11e7-a354-6c92bf041d56"}
{"province": "云南省", "distance": 0.0, "sametype": "same", "thirdId": "17797", "name": "保山明志汽车销售有限公司", "city": "保山市", "longitude": "11040786.11", "score": "0.983828", "oldname": "保山明志汽车销售有限公司", "address": "云南省保山市隆阳区永昌街道永昌路79号", "latitude": "2871260.37", "guid": "12499272-bf74-11e7-b537-6c92bf041d56"}
{"province": "云南省", "distance": 0.0, "sametype": "same", "thirdId": "14463", "name": "丽江万通科工贸有限责任公司", "city": "丽江市", "longitude": "11157853.4253", "score": "0.988086", "oldname": "丽江万通科工贸有限责任公司", "address": "云南省丽江市古城区香格里拉大道南段新市政府往南六百米", "latitude": "3086408.47187", "guid": "124dd3dc-bf74-11e7-b919-6c92bf041d56"}
{"province": "云南省", "distance": 0.0, "sametype": "same", "thirdId": "17501", "name": "楚雄启德经贸有限公司", "city": "楚雄市", "longitude": "11307549.64", "score": "0.977035", "oldname": "楚雄启德经贸有限公司", "address": "云南省楚雄州楚雄市开发区滇中汽车城", "latitude": "2864614.44", "guid": "1251a4c6-bf74-11e7-a170-6c92bf041d56"}
{"province": "云南省", "distance": 0.0, "sametype": "same", "thirdId": "14311", "name": "楚雄益溢汽车销售服务有限公司", "city": "楚雄市", "longitude": "11307549.64", "score": "0.976151", "oldname": "楚雄益溢汽车销售服务有限公司", "address": "云南省楚雄市开发区滇中汽车城", "latitude": "2864614.44", "guid": "1255da32-bf74-11e7-b6f0-6c92bf041d56"}
{"province": "云南省", "distance": 0.0, "sametype": "same", "thirdId": "17472", "name": "红河宸瑞经贸有限公司", "city": "红河市", "longitude": "11497015.7318", "score": "0.987741", "oldname": "红河宸瑞经贸有限公司", "address": "云南省红河哈尼族彝族自治州开远市东新路个私园区下段239号", "latitude": "2701829.41407", "guid": "125cf812-bf74-11e7-aff5-6c92bf041d56"}
{"province": "云南省", "distance": 0.0, "sametype": "same", "thirdId": "14785", "name": "红河益溢汽车销售服务有限公司", "city": "红河市", "longitude": "11497036.8019", "score": "0.979988", "oldname": "红河益溢汽车销售服务有限公司", "address": "云南省开远市东新路239号", "latitude": "2701877.98271", "guid": "1260c8d4-bf74-11e7-ae91-6c92bf041d56"}
{"province": "云南省", "distance": 0.0, "sametype": "same", "thirdId": "17867", "name": "临沧昌泰汽车销售服务有限公司", "city": "临沧市", "longitude": "11143998.5761", "score": "0.979422", "oldname": "临沧昌泰汽车销售服务有限公司", "address": "云南省临沧市临翔区缅宁大道南亚汽车主题园内", "latitude": "2722909.15155", "guid": "1264cf6a-bf74-11e7-80d3-6c92bf041d56"}
{"province": "云南省", "distance": 0.0, "sametype": "same", "thirdId": "17766", "name": "文山市虹风汽车销售有限责任公司", "city": "文山市", "longitude": "11606808.31", "score": "0.985663", "oldname": "文山市虹风汽车销售有限责任公司", "address": "云南省文山市卧龙街道七花社区开化北路三鑫机电城内（消防支队旁）厂房", "latitude": "2658948.73", "guid": "1268c32c-bf74-11e7-8645-6c92bf041d56"}
{"province": "西藏省", "distance": 0.0, "sametype": "same", "thirdId": "10546", "name": "拉萨丰田汽车销售服务有限公司", "city": "拉萨市", "longitude": "10140440.8856", "score": "0.966218", "oldname": "拉萨丰田汽车销售服务有限公司", "address": "西藏自治区拉萨市金珠中路36号", "latitude": "3437368.35499", "guid": "126ceb14-bf74-11e7-8486-6c92bf041d56"}
{"province": "陕西省", "distance": 0.0, "sametype": "same", "thirdId": "12069", "name": "陕西瑞鑫汽车销售有限责任公司", "city": "西安市", "longitude": "12114514.18", "score": "0.955593", "oldname": "陕西瑞鑫汽车销售有限责任公司", "address": "陕西省西安市三桥经济技术开发区疏导线58号", "latitude": "4045058.41", "guid": "12710da2-bf74-11e7-9909-6c92bf041d56"}
{"province": "陕西省", "distance": 0.0, "sametype": "same", "thirdId": "14221", "name": "西安军丰源汽车销售服务有限公司", "city": "西安市", "longitude": "12122994.4772", "score": "0.963782", "oldname": "西安军丰源汽车销售服务有限公司", "address": "陕西省西安市南沈家桥村北1号", "latitude": "4030531.94971", "guid": "12758828-bf74-11e7-a804-6c92bf041d56"}
{"province": "陕西省", "distance": 0.0, "sametype": "same", "thirdId": "14964", "name": "陕西耀泰汽车服务有限公司", "city": "西安市", "longitude": "12117619.313", "score": "0.972801", "oldname": "陕西耀泰汽车服务有限公司", "address": "陕西省西安市未央区六村堡工业园六号", "latitude": "4049555.2613", "guid": "1279d91e-bf74-11e7-b3dd-6c92bf041d56"}
{"province": "陕西省", "distance": 0.0, "sametype": "same", "thirdId": "17840", "name": "陕西泰丰品致汽车贸易有限公司", "city": "西安市", "longitude": "12114562.5712", "score": "0.990567", "oldname": "陕西泰丰品致汽车贸易有限公司", "address": "陕西省西安市国际车城疏导路58号西部国际汽车城4-003", "latitude": "4044938.70823", "guid": "12826070-bf74-11e7-a92e-6c92bf041d56"}
{"province": "陕西省", "distance": 0.0, "sametype": "same", "thirdId": "17840", "name": "陕西泰丰品致汽车贸易有限公司", "city": "西安市", "longitude": "12114562.5712", "score": "0.990567", "oldname": "陕西泰丰品致汽车贸易有限公司", "address": "陕西省西安市沣东新城疏导路58号西部国际汽车城4-003", "latitude": "4044938.70823", "guid": "12826070-bf74-11e7-a92e-6c92bf041d56"}
{"province": "陕西省", "distance": 0.0, "sametype": "same", "thirdId": "16324", "name": "宝鸡市宝瑞诚汽车销售有限公司", "city": "宝鸡市", "longitude": "11923364.96", "score": "0.990362", "oldname": "宝鸡市宝瑞诚汽车销售有限公司", "address": "陕西省宝鸡市渭滨区高新十三路华城汽车城A排7号", "latitude": "4046333.68", "guid": "12874a9a-bf74-11e7-a55f-6c92bf041d56"}
{"province": "陕西省", "distance": 0.0, "sametype": "same", "thirdId": "17705", "name": "西咸新区盈丰汽车销售服务有限公司", "city": "咸阳市", "longitude": "12098655.2854", "score": "0.970598", "oldname": "西咸新区盈丰汽车销售服务有限公司", "address": "陕西省西咸新区秦汉新城北上召汽车产业园", "latitude": "4055061.01992", "guid": "128c058a-bf74-11e7-84db-6c92bf041d56"}
{"province": "陕西省", "distance": 0.0, "sametype": "same", "thirdId": "10750", "name": "渭南高新区嘉豪实业发展有限责任公司", "city": "渭南市", "longitude": "12182623.2733", "score": "0.989973", "oldname": "渭南高新区嘉豪实业发展有限责任公司", "address": "陕西省渭南市东风大街西段137号", "latitude": "4072661.53812", "guid": "1291ef86-bf74-11e7-a093-6c92bf041d56"}
{"province": "陕西省", "distance": 0.0, "sametype": "same", "thirdId": "12505", "name": "汉中冀瑞汽车贸易有限公司", "city": "汉中市", "longitude": "11916020.27", "score": "0.987737", "oldname": "汉中冀瑞汽车贸易有限公司", "address": "陕西省汉中市经济开发区北区中段", "latitude": "3883182.98", "guid": "1295255c-bf74-11e7-9108-6c92bf041d56"}
{"province": "陕西省", "distance": 0.0, "sametype": "same", "thirdId": "17580", "name": "安康市众晖工贸有限公司", "city": "安康市", "longitude": "12135149.4378", "score": "0.987726", "oldname": "安康市众晖工贸有限公司", "address": "陕西省安康市高新区张岭村六组", "latitude": "3834434.56959", "guid": "12990fdc-bf74-11e7-8ebc-6c92bf041d56"}
{"province": "陕西省", "distance": 0.0, "sametype": "same", "thirdId": "18329", "name": "榆林市瑞泰汽车销售服务有限公司", "city": "榆林市", "longitude": "12221610.6", "score": "0.987723", "oldname": "榆林市瑞泰汽车销售服务有限公司", "address": "陕西省榆林市榆阳区上郡南路2号长安铃木4S店院内", "latitude": "4585615.7", "guid": "129d5916-bf74-11e7-a61c-6c92bf041d56"}
{"province": "陕西省", "distance": 0.0, "sametype": "same", "thirdId": "10551", "name": "榆林市金泰机电设备有限责任公司", "city": "榆林市", "longitude": "12216783.8685", "score": "0.987914", "oldname": "榆林市金泰机电设备有限责任公司", "address": "陕西省榆林市经济技术开发区草海则电厂路8号", "latitude": "4586353.65793", "guid": "12a1bf06-bf74-11e7-91d4-6c92bf041d56"}
{"province": "陕西省", "distance": 0.0, "sametype": "same", "thirdId": "11260", "name": "定边县隆庆汽车贸易有限责任公司", "city": "榆林市", "longitude": "11979157.2754", "score": "0.992257", "oldname": "定边县隆庆汽车贸易有限责任公司", "address": "陕西省定边县长城南街548号", "latitude": "4493278.73065", "guid": "12a6c398-bf74-11e7-bbeb-6c92bf041d56"}
{"province": "陕西省", "distance": 0.0, "sametype": "same", "thirdId": "12013", "name": "神木县吉瑞汽车销售有限公司", "city": "榆林市", "longitude": "12294421.744", "score": "0.986050", "oldname": "神木县吉瑞汽车销售有限公司", "address": "神木县第二新村汽车城奇瑞4S店", "latitude": "4676400.40357", "guid": "12ab56ba-bf74-11e7-a588-6c92bf041d56"}
{"province": "陕西省", "distance": 0.0, "sametype": "same", "thirdId": "17454", "name": "府谷县万联汽贸有限责任公司", "city": "榆林市", "longitude": "12359424.3364", "score": "0.981129", "oldname": "府谷县万联汽贸有限责任公司", "address": "府谷县温李河村府店公路中石化左侧", "latitude": "4704883.27159", "guid": "12aeb5d0-bf74-11e7-be79-6c92bf041d56"}
{"province": "陕西省", "distance": 0.0, "sametype": "same", "thirdId": "17821", "name": "延安金阳光工贸有限公司", "city": "延安市", "longitude": "12186754.14", "score": "0.958467", "oldname": "延安金阳光工贸有限公司", "address": "陕西省延安市宝塔区柳林镇南二十里铺村", "latitude": "4345705.3", "guid": "12b34910-bf74-11e7-9083-6c92bf041d56"}
{"province": "甘肃省", "distance": 0.0, "sametype": "same", "thirdId": "10086", "name": "兰州良志实业集团有限责任公司", "city": "兰州市", "longitude": "11562934.37", "score": "0.984514", "oldname": "兰州良志实业集团有限责任公司", "address": "甘肃省兰州市天水北路828号良志汽车展厅", "latitude": "4285643.32", "guid": "12b726ac-bf74-11e7-a709-6c92bf041d56"}
{"province": "甘肃省", "distance": 0.0, "sametype": "same", "thirdId": "13963", "name": "甘肃金岛汽车超市有限公司", "city": "兰州市", "longitude": "11547585.4853", "score": "0.974852", "oldname": "甘肃金岛汽车超市有限公司", "address": "甘肃省兰州市西津西路600号", "latitude": "4286446.20273", "guid": "12bca60e-bf74-11e7-999e-6c92bf041d56"}
{"province": "甘肃省", "distance": 0.0, "sametype": "same", "thirdId": "17569", "name": "天水良志汽车销售有限公司", "city": "天水市", "longitude": "11786436.0415", "score": "0.993125", "oldname": "天水良志汽车销售有限公司", "address": "甘肃省天水市麦积区羲皇大道华世汽车城3排3号", "latitude": "4079924.58809", "guid": "12c0d530-bf74-11e7-bcac-6c92bf041d56"}
{"province": "甘肃省", "distance": 0.0, "sametype": "same", "thirdId": "15252", "name": "酒泉良志汽车销售有限公司", "city": "酒泉市", "longitude": "10956944.6722", "score": "0.988827", "oldname": "酒泉良志汽车销售有限公司", "address": "甘肃省酒泉市西郊工业园纬一路", "latitude": "4804648.76319", "guid": "12c5513c-bf74-11e7-aec0-6c92bf041d56"}
{"province": "甘肃省", "distance": 0.0, "sametype": "same", "thirdId": "15106", "name": "武威良志汽车贸易有限公司", "city": "武威市", "longitude": "11428553.6", "score": "0.993903", "oldname": "武威良志汽车贸易有限公司", "address": "甘肃省武威市凉州区二环东路（甘肃省高等理工学院北侧）", "latitude": "4542813.5", "guid": "12c9f34a-bf74-11e7-ae1d-6c92bf041d56"}
{"province": "甘肃省", "distance": 0.0, "sametype": "same", "thirdId": "17812", "name": "武威恒利通商贸有限公司", "city": "武威市", "longitude": "11425882.5327", "score": "0.989769", "oldname": "武威恒利通商贸有限公司", "address": "甘肃省武威市凉州区南关西路34号", "latitude": "4542596.14545", "guid": "12ceadf4-bf74-11e7-bb6c-6c92bf041d56"}
{"province": "甘肃省", "distance": 0.0, "sametype": "same", "thirdId": "17312", "name": "定西致远汽车销售服务有限责任公司", "city": "定西市", "longitude": "11647110.75", "score": "0.966359", "oldname": "定西致远汽车销售服务有限责任公司", "address": "甘肃省定西市定西西部汽车城7号", "latitude": "4218715.97", "guid": "12d29702-bf74-11e7-a734-6c92bf041d56"}
{"province": "甘肃省", "distance": 0.0, "sametype": "same", "thirdId": "17711", "name": "庆阳金瑞汽车销售服务股份有限公司", "city": "庆阳市", "longitude": "11982113.7056", "score": "0.963039", "oldname": "庆阳金瑞汽车销售服务股份有限公司", "address": "甘肃省庆阳市西峰区长庆北路九龙春酒厂北50米", "latitude": "4241742.50123", "guid": "12d71c78-bf74-11e7-a3d5-6c92bf041d56"}
{"province": "甘肃省", "distance": 0.0, "sametype": "same", "thirdId": "17901", "name": "张掖市宇通农机汽贸有限责任公司", "city": "张掖市", "longitude": "11186319.3365", "score": "0.988516", "oldname": "张掖市宇通农机汽贸有限责任公司", "address": "张掖市甘州区车管所向北50米宇通汽车城内（主商圈车管所）", "latitude": "4686725.06782", "guid": "12db5c70-bf74-11e7-b91d-6c92bf041d56"}
{"province": "甘肃省", "distance": 0.0, "sametype": "same", "thirdId": "18180", "name": "白银瑞通汇诚汽车销售服务有限公司", "city": "白银市", "longitude": "11593378.3641", "score": "0.986755", "oldname": "白银瑞通汇诚汽车销售服务有限公司", "address": "甘肃省白银市兰州路156号广电大厦1楼", "latitude": "4350548.55619", "guid": "12df8732-bf74-11e7-a52a-6c92bf041d56"}
{"province": "青海省", "distance": 0.0, "sametype": "same", "thirdId": "14407", "name": "青海金宏达汽车销售有限公司", "city": "西宁市", "longitude": "11340263.1931", "score": "0.957237", "oldname": "青海金宏达汽车销售有限公司", "address": "青海省西宁市经济技术开发区昆仑东路6号", "latitude": "4353916.24588", "guid": "12e53dd0-bf74-11e7-93da-6c92bf041d56"}
{"province": "宁夏省", "distance": 0.0, "sametype": "same", "thirdId": "17131", "name": "宁夏宁安银瑞汽车销售服务有限公司", "city": "银川市", "longitude": "11836271.85", "score": "0.980953", "oldname": "宁夏宁安银瑞汽车销售服务有限公司", "address": "宁夏银川兴庆区兴春路325号（宁北汽贸）", "latitude": "4626897.65", "guid": "12e988e0-bf74-11e7-ac48-6c92bf041d56"}
{"province": "宁夏省", "distance": 0.0, "sametype": "same", "thirdId": "11072", "name": "宁夏宁鲁汽车贸易有限公司", "city": "银川市", "longitude": "11836555.4395", "score": "0.990033", "oldname": "宁夏宁鲁汽车贸易有限公司", "address": "宁夏银川市德胜工业园区汽车大世界院内", "latitude": "4629599.43695", "guid": "12ed853a-bf74-11e7-b61a-6c92bf041d56"}
{"province": "宁夏省", "distance": 0.0, "sametype": "same", "thirdId": "14818", "name": "宁夏宁鲁汽车销售服务有限公司", "city": "固原市", "longitude": "11830274.1648", "score": "0.971605", "oldname": "宁夏宁鲁汽车销售服务有限公司", "address": "宁夏固原市经济技术开发区九龙路南侧", "latitude": "4276112.79649", "guid": "12f1c370-bf74-11e7-b4c7-6c92bf041d56"}
{"province": "新疆省", "distance": 0.0, "sametype": "same", "thirdId": "11304", "name": "新疆跃龙汽车贸易有限公司", "city": "乌鲁木齐市", "longitude": "9753849.55646", "score": "0.993509", "oldname": "新疆跃龙汽车贸易有限公司", "address": "新疆乌鲁木齐市南湖北路99号", "latitude": "5410136.76323", "guid": "12f661dc-bf74-11e7-b42d-6c92bf041d56"}
{"province": "新疆省", "distance": 0.0, "sametype": "same", "thirdId": "17773", "name": "新疆跃龙汽车贸易有限公司乌鲁木齐赛博特分公司赛博特", "city": "乌鲁木齐市", "longitude": "9753084.1", "score": "0.972210", "oldname": "新疆跃龙汽车贸易有限公司乌鲁木齐赛博特分公司赛博特", "address": "新疆乌鲁木齐市水磨沟区南湖北路786号", "latitude": "5413863.6", "guid": "12fb735c-bf74-11e7-b2c6-6c92bf041d56"}
{"province": "新疆省", "distance": 0.0, "sametype": "same", "thirdId": "17381", "name": "克拉玛依市佰驰汽车销售服务有限公司汽车维修服务中心", "city": "克拉玛依市", "longitude": "9449175.41173", "score": "0.988811", "oldname": "克拉玛依市佰驰汽车销售服务有限公司汽车维修服务中心", "address": "新疆克拉玛依市经四路22号纳赤物流园内", "latitude": "5678593.45123", "guid": "13003ec8-bf74-11e7-81de-6c92bf041d56"}
{"province": "新疆省", "distance": 0.0, "sametype": "same", "thirdId": "14373", "name": "哈密市世纪车行汽车销售有限公司", "city": "哈密市", "longitude": "10409248.1941", "score": "0.987139", "oldname": "哈密市世纪车行汽车销售有限公司", "address": "新疆哈密市支油路2号", "latitude": "5268013.13046", "guid": "13048500-bf74-11e7-8bd2-6c92bf041d56"}
{"province": "新疆省", "distance": 0.0, "sametype": "same", "thirdId": "14399", "name": "昌吉市征亚汽车贸易有限责任公司", "city": "昌吉市", "longitude": "9712991.28073", "score": "0.982174", "oldname": "昌吉市征亚汽车贸易有限责任公司", "address": "新疆昌吉市乌伊西路夹滩村汽车城征亚4S店", "latitude": "5441156.68339", "guid": "1308e2a8-bf74-11e7-ad33-6c92bf041d56"}
{"province": "新疆省", "distance": 0.0, "sametype": "same", "thirdId": "16598", "name": "阿克苏名扬汽车销售有限公司", "city": "阿克苏市", "longitude": "8957072.76776", "score": "0.986917", "oldname": "阿克苏名扬汽车销售有限公司", "address": "新疆阿克苏地区温宿县新城区大欣汽车城", "latitude": "5069955.96302", "guid": "130d250c-bf74-11e7-b77a-6c92bf041d56"}
{"province": "新疆省", "distance": 0.0, "sametype": "same", "thirdId": "18365", "name": "阿克苏迈锐汽车销售有限公司", "city": "阿克苏市", "longitude": "8939933.66829", "score": "0.955319", "oldname": "阿克苏迈锐汽车销售有限公司", "address": "新疆阿克苏地区金土地汽车城", "latitude": "5006797.91764", "guid": "1311def8-bf74-11e7-8505-6c92bf041d56"}
{"province": "新疆省", "distance": 0.0, "sametype": "same", "thirdId": "14371", "name": "喀什市通工实业有限公司", "city": "喀什市", "longitude": "8461486.50378", "score": "0.973217", "oldname": "喀什市通工实业有限公司", "address": "新疆喀什市帕依纳普路249号", "latitude": "4760505.0215", "guid": "131710bc-bf74-11e7-8b42-6c92bf041d56"}
{"province": "新疆省", "distance": 0.0, "sametype": "same", "thirdId": "16746", "name": "巴州万华商贸有限公司", "city": "巴音郭楞市", "longitude": "9598142.48499", "score": "0.981327", "oldname": "巴州万华商贸有限公司", "address": "新疆库尔勒市神州汽车城C区11栋", "latitude": "5091535.89153", "guid": "131bec72-bf74-11e7-886a-6c92bf041d56"}
{"province": "新疆省", "distance": 0.0, "sametype": "same", "thirdId": "17924", "name": "新疆润信通汽车贸易有限责任公司", "city": "阿勒泰市", "longitude": "9789290.74594", "score": "0.990893", "oldname": "新疆润信通汽车贸易有限责任公司", "address": "新疆北屯市工业园区金兴路神州汽车城8号展厅", "latitude": "5956139.80793", "guid": "1320259e-bf74-11e7-9dd1-6c92bf041d56"}
{"province": "新疆省", "distance": 0.0, "sametype": "same", "thirdId": "17712", "name": "伊犁汇兴汽车贸易有限责任公司", "city": "伊犁市", "longitude": "9049673.96989", "score": "0.990993", "oldname": "伊犁汇兴汽车贸易有限责任公司", "address": "新疆伊宁市巴彦岱镇中亚汽车博览中心", "latitude": "5427901.25003", "guid": "1323fc50-bf74-11e7-b6d1-6c92bf041d56"}
{"province": "新疆省", "distance": 0.0, "sametype": "same", "thirdId": "18346", "name": "伊犁恒茂汽车销售服务有限公司", "city": "伊犁市", "longitude": "9037823.42626", "score": "0.989731", "oldname": "伊犁恒茂汽车销售服务有限公司", "address": "新疆伊犁州察布察尔县伊昭公路东侧光明路伊南汽车城", "latitude": "5411973.21571", "guid": "13289db4-bf74-11e7-a143-6c92bf041d56"}
{"province": "新疆省", "distance": 0.0, "sametype": "same", "thirdId": "11080", "name": "伊宁市恒业汽车销售服务有限公司", "city": "伊犁市", "longitude": "9049153.90014", "score": "0.989221", "oldname": "伊宁市恒业汽车销售服务有限公司", "address": "新疆伊宁市开发区二热对面", "latitude": "5438618.83216", "guid": "132c6f52-bf74-11e7-b6ed-6c92bf041d56"}
