{"province": "内蒙古", "distance": 0.0, "sametype": "same", "thirdId": "90226", "name": "呼和浩特铁路支行", "city": "呼和浩特市", "longitude": "111.670360000015", "score": "0.995413", "oldname": "呼和浩特铁路支行", "address": "内蒙古呼和浩特市车站东街127号", "latitude": "40.8293789999418", "guid": "217adaee-b3ee-11e7-8ec7-6c92bf041d56"}
{"province": "内蒙古", "distance": 0.0, "sametype": "same", "thirdId": "90178", "name": "呼和浩特海东路丽苑支行", "city": "呼和浩特市", "longitude": "111.701194999251", "score": "0.971191", "oldname": "呼和浩特海东路丽苑支行", "address": "内蒙古呼和浩特市新城区海拉尔东街丽苑阳光城尚都综合楼临街商铺", "latitude": "40.842275000192", "guid": "217b3d68-b3ee-11e7-ad52-6c92bf041d56"}
{"province": "内蒙古", "distance": 0.0, "sametype": "same", "thirdId": "90076", "name": "呼和浩特团结小区支行", "city": "呼和浩特市", "longitude": "111.726049000562", "score": "0.993473", "oldname": "呼和浩特团结小区支行", "address": "内蒙古呼和浩特市机场路18号", "latitude": "40.8350360000123", "guid": "217b92d6-b3ee-11e7-8ef8-6c92bf041d56"}
{"province": "内蒙古", "distance": 0.03356701329471311, "sametype": "same", "thirdId": "90026", "name": "呼和浩特大学东街支行", "city": "呼和浩特市", "longitude": "111.704025869", "score": "0.959816", "oldname": "呼和浩特展东路支行", "address": "内蒙古呼和浩特市大学东路1号社科院科技文化综合楼1段12号", "latitude": "40.8140331628011", "guid": "217f4192-b3ee-11e7-883f-6c92bf041d56"}
{"province": "内蒙古", "distance": 0.0, "sametype": "same", "thirdId": "89928", "name": "呼和浩特大学路支行", "city": "呼和浩特市", "longitude": "111.69292500009", "score": "0.996098", "oldname": "呼和浩特大学路支行", "address": "内蒙古呼和浩特市新城区昭乌达路81号", "latitude": "40.8154810002489", "guid": "217c430c-b3ee-11e7-acf5-6c92bf041d56"}
{"province": "内蒙古", "distance": 0.015882928335736766, "sametype": "same", "thirdId": "89926", "name": "呼和浩特东影北路支行", "city": "呼和浩特市", "longitude": "111.708219999454", "score": "0.982051", "oldname": "呼和浩特展东路支行", "address": "内蒙古呼和浩特市新城区东影北路", "latitude": "40.8315460000488", "guid": "217f4192-b3ee-11e7-883f-6c92bf041d56"}
{"province": "内蒙古", "distance": 0.0, "sametype": "same", "thirdId": "89886", "name": "呼和浩特成吉思汗大街财富港支行", "city": "呼和浩特市", "longitude": "111.680377999746", "score": "0.997317", "oldname": "呼和浩特成吉思汗大街财富港支行", "address": "内蒙古呼和浩特市新城区成吉思罕大街财富港临街商铺", "latitude": "40.8445439996068", "guid": "217cedac-b3ee-11e7-9994-6c92bf041d56"}
{"province": "内蒙古", "distance": 0.009600094175490792, "sametype": "same", "thirdId": "89878", "name": "呼和浩特海拉尔大街支行", "city": "呼和浩特市", "longitude": "111.670913408628", "score": "0.663572", "oldname": "呼和浩特成吉思汗大街财富港支行", "address": "内蒙古呼和浩特市呼伦北路富恒大厦商业临街综合楼1楼1号", "latitude": "40.8429367276487", "guid": "217cedac-b3ee-11e7-9994-6c92bf041d56"}
{"province": "内蒙古", "distance": 0.05431542457217346, "sametype": "same", "thirdId": "89840", "name": "呼和浩特丰州南路中海支行", "city": "呼和浩特市", "longitude": "111.687581000064", "score": "0.949099", "oldname": "呼和浩特西顺城街支行", "address": "内蒙古呼和浩特市赛罕区丰州南路鹏欣金游城临街商铺", "latitude": "40.8303289996845", "guid": "21932f54-b3ee-11e7-8637-6c92bf041d56"}
{"province": "内蒙古", "distance": 0.022324523393306227, "sametype": "same", "thirdId": "89838", "name": "呼和浩特新城西街支行", "city": "呼和浩特市", "longitude": "111.684385000169", "score": "0.982890", "oldname": "呼和浩特车站西街支行", "address": "内蒙古呼和浩特市新城西街125号", "latitude": "40.8253489993577", "guid": "21809146-b3ee-11e7-8b78-6c92bf041d56"}
{"province": "内蒙古", "distance": 0.020655341079289163, "sametype": "same", "thirdId": "90224", "name": "呼和浩特新城南街支行", "city": "呼和浩特市", "longitude": "111.689080999989", "score": "0.722566", "oldname": "呼和浩特东影北路支行", "address": "内蒙古呼和浩特市新城南街45号", "latitude": "40.8237780006551", "guid": "217c9852-b3ee-11e7-8a95-6c92bf041d56"}
{"province": "内蒙古", "distance": 0.0, "sametype": "same", "thirdId": "90128", "name": "呼和浩特成吉思汗东街房地产大厦支行", "city": "呼和浩特市", "longitude": "111.733233434377", "score": "0.998208", "oldname": "呼和浩特成吉思汗东街房地产大厦支行", "address": "呼和浩特市新城区成吉思汗东街与东二环交汇处呼和浩特市房产局新办公大楼", "latitude": "40.8553238959819", "guid": "217e97a6-b3ee-11e7-adea-6c92bf041d56"}
{"province": "内蒙古", "distance": 0.0, "sametype": "same", "thirdId": "90126", "name": "呼和浩特乌兰察布西街支行", "city": "呼和浩特市", "longitude": "111.682889195581", "score": "0.992128", "oldname": "呼和浩特乌兰察布西街支行", "address": "内蒙古呼和浩特市新城区乌兰察布西街兴泰御都一楼", "latitude": "40.8166300019739", "guid": "217eed8c-b3ee-11e7-8fac-6c92bf041d56"}
{"province": "内蒙古", "distance": 0.05599241179763377, "sametype": "same", "thirdId": "90080", "name": "呼和浩特展东路支行", "city": "呼和浩特市", "longitude": "111.716006539271", "score": "0.996542", "oldname": "呼和浩特车站西街支行自助银行", "address": "内蒙古呼和浩特市新城区海拉尔东路人和小区商业B区东西21号", "latitude": "40.8453893092701", "guid": "2186a892-b3ee-11e7-982d-6c92bf041d56"}
{"province": "内蒙古", "distance": 0.07345872112946102, "sametype": "same", "thirdId": "90022", "name": "呼和浩特公主府支行", "city": "呼和浩特市", "longitude": "111.652867303085", "score": "0.959987", "oldname": "呼和浩特团结小区支行", "address": "内蒙古呼和浩特市回民区通道北路58号呼和浩特市职业学院办公楼一楼", "latitude": "40.8414096068688", "guid": "217b92d6-b3ee-11e7-8ef8-6c92bf041d56"}
{"province": "内蒙古", "distance": 0.03245224069663505, "sametype": "same", "thirdId": "89982", "name": "呼和浩特新城东街支行", "city": "呼和浩特市", "longitude": "111.699630739168", "score": "0.966518", "oldname": "呼和浩特锡林南路维多利支行", "address": "内蒙古呼和浩特市兴安北路综合楼1号", "latitude": "40.8296395973904", "guid": "218eca04-b3ee-11e7-bc1a-6c92bf041d56"}
{"province": "内蒙古", "distance": 0.011758599191285492, "sametype": "same", "thirdId": "89978", "name": "呼和浩特呼和佳地支行", "city": "呼和浩特市", "longitude": "111.677868844473", "score": "0.943294", "oldname": "呼和浩特海拉尔大街支行附行式自助银行", "address": "内蒙古呼和浩特市哲里木路呼和佳地东门北侧底商1号", "latitude": "40.852417580308", "guid": "21874d1a-b3ee-11e7-a5ac-6c92bf041d56"}
{"province": "内蒙古", "distance": 0.022324523393306227, "sametype": "same", "thirdId": "89936", "name": "呼和浩特车站西街支行", "city": "呼和浩特市", "longitude": "111.662398999815", "score": "0.985054", "oldname": "呼和浩特新城西街支行", "address": "内蒙古呼和浩特市车站西街58号", "latitude": "40.8292219998963", "guid": "217decfc-b3ee-11e7-9b81-6c92bf041d56"}
{"province": "内蒙古", "distance": 0.03510212201411374, "sametype": "same", "thirdId": "89884", "name": "呼和浩特新城北街支行", "city": "呼和浩特市", "longitude": "111.687908999901", "score": "0.973901", "oldname": "呼和浩特琦琳北辰支行附行式自助银行", "address": "内蒙古呼和浩特市新城区劳动大厦一楼", "latitude": "40.8280509998547", "guid": "2191c394-b3ee-11e7-bb20-6c92bf041d56"}
{"province": "内蒙古", "distance": 0.030303214535611186, "sametype": "same", "thirdId": "89792", "name": "呼和浩特呼伦北路支行", "city": "呼和浩特市", "longitude": "111.674960999951", "score": "0.964050", "oldname": "呼和浩特光明西路支行", "address": "内蒙古呼和浩特市新城区呼伦北路农业大厦一楼124号", "latitude": "40.8282649998308", "guid": "218c2e3e-b3ee-11e7-855e-6c92bf041d56"}
{"province": "内蒙古", "distance": 0.030623816624494694, "sametype": "same", "thirdId": "89976", "name": "呼和浩特成吉思汗大街集通佳苑支行", "city": "呼和浩特市", "longitude": "111.703847461492", "score": "0.759445", "oldname": "呼和浩特东影北路支行", "address": "内蒙古呼和浩特市新城区成吉思汗大街东段集通佳苑", "latitude": "40.8618560488185", "guid": "217c9852-b3ee-11e7-8a95-6c92bf041d56"}
{"province": "内蒙古", "distance": 0.05553100959608194, "sametype": "same", "thirdId": "89152", "name": "呼和浩特大学东街金宇钻石支行", "city": "呼和浩特市", "longitude": "111.709011495485", "score": "0.976821", "oldname": "呼和浩特南茶坊第一分理处附行式自助银行", "address": "内蒙古呼和浩特市赛罕区大学东街金宇钻石临街商铺", "latitude": "40.8148822424225", "guid": "219430a2-b3ee-11e7-9656-6c92bf041d56"}
{"province": "内蒙古", "distance": 0.08715599917294155, "sametype": "same", "thirdId": "89108", "name": "呼和浩特水岸小镇支行", "city": "呼和浩特市", "longitude": "111.758068984297", "score": "0.657680", "oldname": "呼和浩特海拉尔大街支行附行式自助银行", "address": "内蒙古呼和浩特市新城区东站西路水岸小镇临街商铺", "latitude": "40.8426650262708", "guid": "21874d1a-b3ee-11e7-a5ac-6c92bf041d56"}
{"province": "内蒙古", "distance": 0.075855674145012, "sametype": "same", "thirdId": "89060", "name": "呼和浩特兴安北路北环盛世支行", "city": "呼和浩特市", "longitude": "111.690812992627", "score": "0.900158", "oldname": "呼和浩特石羊桥储蓄所附行式自助银行", "address": "内蒙古呼和浩特市新城区兴安北路与北二环十字路口北环盛世商住小区临街商铺一、二层", "latitude": "40.8666863515948", "guid": "219485d4-b3ee-11e7-8a5b-6c92bf041d56"}
{"province": "内蒙古", "distance": 0.022110811156254073, "sametype": "same", "thirdId": "100006502", "name": "呼和浩特海东路丽苑支行附行式自助银行", "city": "呼和浩特市", "longitude": "111.701194999251", "score": "0.990002", "oldname": "呼和浩特新城南街支行自助银行", "address": "", "latitude": "40.842275000192", "guid": "2185b0c2-b3ee-11e7-b935-6c92bf041d56"}
{"province": "内蒙古", "distance": 0.038465535522278306, "sametype": "same", "thirdId": "100006490", "name": "呼和浩特团结小区分理处附行式自助银行", "city": "呼和浩特市", "longitude": "111.726049000562", "score": "0.989982", "oldname": "呼和浩特大学路分理处附行式自助银行", "address": "", "latitude": "40.8350360000123", "guid": "2183a688-b3ee-11e7-a28c-6c92bf041d56"}
{"province": "内蒙古", "distance": 0.026854630092086596, "sametype": "same", "thirdId": "100006476", "name": "呼和浩特大学路分理处附行式自助银行", "city": "呼和浩特市", "longitude": "111.69292500009", "score": "0.969573", "oldname": "呼和浩特贝尔路分理处附行式自助银行", "address": "", "latitude": "40.8154810002489", "guid": "2190a874-b3ee-11e7-a049-6c92bf041d56"}
{"province": "内蒙古", "distance": 0.07185169964941995, "sametype": "same", "thirdId": "100006475", "name": "呼和浩特东影北路支行附行式自助银行", "city": "呼和浩特市", "longitude": "111.708219999454", "score": "0.974251", "oldname": "股份有限公司呼和浩特西顺城街支行自助银行", "address": "", "latitude": "40.8315460000488", "guid": "2193dc60-b3ee-11e7-a1a7-6c92bf041d56"}
{"province": "内蒙古", "distance": 0.0601580858522547, "sametype": "same", "thirdId": "100006473", "name": "呼和浩特吉思汗大街财富港支行附行式自助银行", "city": "呼和浩特市", "longitude": "111.680377999746", "score": "0.985486", "oldname": "股份有限公司呼和浩特西顺城街支行自助银行", "address": "", "latitude": "40.8445439996068", "guid": "2193dc60-b3ee-11e7-a1a7-6c92bf041d56"}
{"province": "内蒙古", "distance": 0.0, "sametype": "same", "thirdId": "100006467", "name": "呼和浩特新城西街支行自助银行", "city": "呼和浩特市", "longitude": "111.684385000169", "score": "0.989953", "oldname": "呼和浩特新城西街支行自助银行", "address": "", "latitude": "40.8253489993577", "guid": "2184b730-b3ee-11e7-b4ef-6c92bf041d56"}
{"province": "内蒙古", "distance": 0.06069961679665354, "sametype": "same", "thirdId": "3715354", "name": "呼和浩特大学东街分理处附行式自助银行", "city": "呼和浩特市", "longitude": "111.704025869", "score": "0.983319", "oldname": "股份有限公司呼和浩特西顺城街支行自助银行", "address": "内蒙古呼和浩特市大学东路1号社科院科技文化综合楼1段12号", "latitude": "40.8140331628011", "guid": "2193dc60-b3ee-11e7-a1a7-6c92bf041d56"}
{"province": "内蒙古", "distance": 0.029271899179819576, "sametype": "same", "thirdId": "100006506", "name": "呼和浩特车站东街支行附行式自助银行", "city": "呼和浩特市", "longitude": "111.670360000015", "score": "0.994097", "oldname": "呼和浩特新城东街支行自助银行", "address": "", "latitude": "40.8293789999418", "guid": "218656b2-b3ee-11e7-8d01-6c92bf041d56"}
{"province": "内蒙古", "distance": 0.05152058538557514, "sametype": "same", "thirdId": "100006505", "name": "呼和浩特新城南街支行自助银行", "city": "呼和浩特市", "longitude": "111.689080999989", "score": "0.968740", "oldname": "股份有限公司呼和浩特西顺城街支行自助银行", "address": "", "latitude": "40.8237780006551", "guid": "2193dc60-b3ee-11e7-a1a7-6c92bf041d56"}
{"province": "内蒙古", "distance": 0.06972734154091004, "sametype": "same", "thirdId": "100006492", "name": "呼和浩特展东路储蓄所附行式自助银行", "city": "呼和浩特市", "longitude": "111.716006539271", "score": "0.970905", "oldname": "呼和浩特石羊桥储蓄所附行式自助银行", "address": "", "latitude": "40.8453893092701", "guid": "219485d4-b3ee-11e7-8a5b-6c92bf041d56"}
{"province": "内蒙古", "distance": 0.06355127153496355, "sametype": "same", "thirdId": "100006483", "name": "呼和浩特新城东街支行自助银行", "city": "呼和浩特市", "longitude": "111.699630739168", "score": "0.955651", "oldname": "股份有限公司呼和浩特西顺城街支行自助银行", "address": "", "latitude": "40.8296395973904", "guid": "2193dc60-b3ee-11e7-a1a7-6c92bf041d56"}
{"province": "内蒙古", "distance": 0.012598400554921205, "sametype": "same", "thirdId": "100006479", "name": "呼和浩特车站西街支行自助银行", "city": "呼和浩特市", "longitude": "111.662398999815", "score": "0.974636", "oldname": "呼和浩特呼伦北路支行附行式自助银行", "address": "", "latitude": "40.8292219998963", "guid": "2187f31e-b3ee-11e7-8204-6c92bf041d56"}
{"province": "内蒙古", "distance": 0.004440650942926286, "sametype": "same", "thirdId": "100006472", "name": "呼和浩特新城北街支行附行式自助银行", "city": "呼和浩特市", "longitude": "111.687908999901", "score": "0.974201", "oldname": "呼和浩特新城西街支行自助银行", "address": "", "latitude": "40.8280509998547", "guid": "2184b730-b3ee-11e7-b4ef-6c92bf041d56"}
{"province": "内蒙古", "distance": 0.026402995964011838, "sametype": "same", "thirdId": "100006469", "name": "呼和浩特海拉尔大街支行附行式自助银行", "city": "呼和浩特市", "longitude": "111.670913408628", "score": "0.990933", "oldname": "呼和浩特新城南街支行自助银行", "address": "", "latitude": "40.8429367276487", "guid": "2185b0c2-b3ee-11e7-b935-6c92bf041d56"}
{"province": "内蒙古", "distance": 0.02089888534579958, "sametype": "same", "thirdId": "100006468", "name": "丰州南路中海支行自助银行　", "city": "呼和浩特市", "longitude": "111.687581000064", "score": "0.972340", "oldname": "呼和浩特海拉尔大街支行", "address": "", "latitude": "40.8303289996845", "guid": "217d42b6-b3ee-11e7-8666-6c92bf041d56"}
{"province": "内蒙古", "distance": 0.012598400554921205, "sametype": "same", "thirdId": "100006462", "name": "呼和浩特呼伦北路支行附行式自助银行", "city": "呼和浩特市", "longitude": "111.674960999951", "score": "0.984314", "oldname": "呼和浩特车站西街支行自助银行", "address": "", "latitude": "40.8282649998308", "guid": "2186a892-b3ee-11e7-982d-6c92bf041d56"}
{"province": "内蒙古", "distance": 0.04697107035287293, "sametype": "same", "thirdId": "3715336", "name": "呼和浩特公主府分理处附行式自助银行", "city": "呼和浩特市", "longitude": "111.652867303085", "score": "0.983370", "oldname": "股份有限公司呼和浩特西顺城街支行自助银行", "address": "内蒙古呼和浩特市回民区通道北路58号呼和浩特市职业学院办公楼一楼", "latitude": "40.8414096068688", "guid": "2193dc60-b3ee-11e7-a1a7-6c92bf041d56"}
{"province": "内蒙古", "distance": 0.0, "sametype": "same", "thirdId": "150700100019", "name": "新城东街第二储蓄所", "city": "呼和浩特市", "longitude": "111.699630739168", "score": "0.993436", "oldname": "新城东街第二储蓄所", "address": "新城东街第二储蓄所", "latitude": "40.8296395973904", "guid": "2188997c-b3ee-11e7-93bf-6c92bf041d56"}
{"province": "内蒙古", "distance": 0.024129470781284478, "sametype": "same", "thirdId": "150700100004", "name": "党委分理处", "city": "呼和浩特市", "longitude": "111.687581000064", "score": "0.903591", "oldname": "呼和浩特呼和佳地支行", "address": "党委分理处", "latitude": "40.8303289996845", "guid": "21803d90-b3ee-11e7-9415-6c92bf041d56"}
{"province": "内蒙古", "distance": 0.07549056960297731, "sametype": "same", "thirdId": "100006497", "name": "呼和浩特成吉思汗东街房地产大厦支行自助银行", "city": "呼和浩特市", "longitude": "111.733233434377", "score": "0.988071", "oldname": "呼和浩特车站西街支行自助银行", "address": "", "latitude": "40.8553238959819", "guid": "2186a892-b3ee-11e7-982d-6c92bf041d56"}
{"province": "内蒙古", "distance": 0.009456866657275726, "sametype": "same", "thirdId": "100006496", "name": "呼和浩特乌兰察布西街支行附行式自助银行", "city": "呼和浩特市", "longitude": "111.682889195581", "score": "0.986337", "oldname": "呼和浩特新城南街支行自助银行", "address": "", "latitude": "40.8166300019739", "guid": "2185b0c2-b3ee-11e7-b935-6c92bf041d56"}
{"province": "内蒙古", "distance": 0.011758599191285492, "sametype": "same", "thirdId": "100006482", "name": "呼和浩特呼和佳地储蓄所附行式自助银行", "city": "呼和浩特市", "longitude": "111.677868844473", "score": "0.954939", "oldname": "呼和浩特海拉尔大街支行附行式自助银行", "address": "", "latitude": "40.852417580308", "guid": "21874d1a-b3ee-11e7-a5ac-6c92bf041d56"}
{"province": "内蒙古", "distance": 0.03249123712291101, "sametype": "same", "thirdId": "100006481", "name": "呼和浩特成吉思汗大街集通佳苑支行自助银行", "city": "呼和浩特市", "longitude": "111.703847461492", "score": "0.984920", "oldname": "呼和浩特新城东街支行自助银行", "address": "", "latitude": "40.8618560488185", "guid": "218656b2-b3ee-11e7-8d01-6c92bf041d56"}
{"province": "内蒙古", "distance": 0.03835556110082853, "sametype": "same", "thirdId": "100006456", "name": "呼和浩特大学东街金宇钻石支行自助银行", "city": "呼和浩特市", "longitude": "111.709011495485", "score": "0.992473", "oldname": "呼和浩特锡林南路维多利支行自助银行", "address": "", "latitude": "40.8148822424225", "guid": "2192203c-b3ee-11e7-9c83-6c92bf041d56"}
{"province": "内蒙古", "distance": 0.0, "sametype": "same", "thirdId": "100006455", "name": "呼和浩特水岸小镇支行", "city": "呼和浩特市", "longitude": "111.758068984297", "score": "0.996983", "oldname": "呼和浩特水岸小镇支行", "address": "", "latitude": "40.8426650262708", "guid": "218ae2b8-b3ee-11e7-8e53-6c92bf041d56"}
{"province": "内蒙古", "distance": 0.08441559231184273, "sametype": "same", "thirdId": "100006454", "name": "和浩特兴安北路北环盛世支行自助银行", "city": "呼和浩特市", "longitude": "111.690812992627", "score": "0.980994", "oldname": "股份有限公司呼和浩特西顺城街支行自助银行", "address": "", "latitude": "40.8666863515948", "guid": "2193dc60-b3ee-11e7-a1a7-6c92bf041d56"}
{"province": "内蒙古", "distance": 0.0430850188602408, "sametype": "same", "thirdId": "150700600024", "name": "党委分理处", "city": "呼和浩特市", "longitude": "111.687581000064", "score": "0.882357", "oldname": "呼和浩特光明西路支行", "address": "党委分理处", "latitude": "40.8303289996845", "guid": "218c2e3e-b3ee-11e7-855e-6c92bf041d56"}
{"province": "内蒙古", "distance": 0.03949707354681122, "sametype": "same", "thirdId": "150700600008", "name": "新城西街支行专柜", "city": "呼和浩特市", "longitude": "111.684385000169", "score": "0.942705", "oldname": "呼和浩特光明西路支行", "address": "新城西街支行专柜", "latitude": "40.8253489993577", "guid": "218c2e3e-b3ee-11e7-855e-6c92bf041d56"}
{"province": "内蒙古", "distance": 0.0, "sametype": "same", "thirdId": "90222", "name": "呼和浩特光明西路支行", "city": "呼和浩特市", "longitude": "111.644898000344", "score": "0.997471", "oldname": "呼和浩特光明西路支行", "address": "内蒙古呼和浩特市回民区光明路景泰花园临街商铺", "latitude": "40.8244569995917", "guid": "218c2e3e-b3ee-11e7-855e-6c92bf041d56"}
{"province": "内蒙古", "distance": 0.04340690198860311, "sametype": "same", "thirdId": "90176", "name": "呼和浩特钢铁路支行", "city": "呼和浩特市", "longitude": "111.630934766527", "score": "0.990978", "oldname": "呼和浩特铁路支行", "address": "内蒙古呼和浩特市回民区新华西街金泉小区5号综合楼一楼", "latitude": "40.8112183252664", "guid": "217adaee-b3ee-11e7-8ec7-6c92bf041d56"}
{"province": "内蒙古", "distance": 0.0, "sametype": "same", "thirdId": "90174", "name": "呼和浩特金川开发区支行", "city": "呼和浩特市", "longitude": "111.560795999837", "score": "0.993786", "oldname": "呼和浩特金川开发区支行", "address": "内蒙古呼和浩特市金川开发区金海路1号", "latitude": "40.796278999677", "guid": "218cd456-b3ee-11e7-bbff-6c92bf041d56"}
{"province": "内蒙古", "distance": 0.01536538975398591, "sametype": "same", "thirdId": "89930", "name": "呼和浩特贝尔路支行", "city": "呼和浩特市", "longitude": "111.666096000331", "score": "0.953234", "oldname": "呼和浩特车站西街支行", "address": "内蒙古呼和浩特市贝尔路南巷宝马商城一楼", "latitude": "40.814308000115", "guid": "21809146-b3ee-11e7-8b78-6c92bf041d56"}
{"province": "内蒙古", "distance": 0.03669593830783436, "sametype": "same", "thirdId": "89888", "name": "呼和浩特中山西路支行", "city": "呼和浩特市", "longitude": "111.657866999464", "score": "0.993150", "oldname": "呼和浩特丰州南路中海支行", "address": "内蒙古呼和浩特市中山西路南顺城街", "latitude": "40.808796000436", "guid": "217d98b0-b3ee-11e7-9b5f-6c92bf041d56"}
{"province": "内蒙古", "distance": 0.0, "sametype": "same", "thirdId": "89882", "name": "呼和浩特成吉思汗大街橄榄城支行", "city": "呼和浩特市", "longitude": "111.655362843521", "score": "0.963393", "oldname": "呼和浩特通道北路分理处附行式自助银行", "address": "内蒙古呼和浩特市新城区成吉思汗大街维多利金色华府商业楼1至2层103、104", "latitude": "40.8235311124718", "guid": "218f2ae4-b3ee-11e7-b1fb-6c92bf041d56"}
{"province": "内蒙古", "distance": 0.0, "sametype": "same", "thirdId": "89880", "name": "呼和浩特锡林南路都市支行", "city": "呼和浩特市", "longitude": "111.674749835538", "score": "0.994132", "oldname": "呼和浩特锡林南路都市支行", "address": "内蒙古呼和浩特市锡林南路都市华庭北少年宫南银都大厦一层", "latitude": "40.8071052462111", "guid": "218e22a2-b3ee-11e7-9e1b-6c92bf041d56"}
{"province": "内蒙古", "distance": 0.033116694770695676, "sametype": "same", "thirdId": "89786", "name": "呼和浩特琦琳北辰支行", "city": "呼和浩特市", "longitude": "111.666485806076", "score": "0.961686", "oldname": "党委分理处", "address": "内蒙古呼和浩特市新城区成吉思汗大街南侧琦琳北辰C座写字楼", "latitude": "40.8558575770664", "guid": "2188ec6a-b3ee-11e7-ad84-6c92bf041d56"}
{"province": "内蒙古", "distance": 0.0, "sametype": "same", "thirdId": "89744", "name": "呼和浩特锡林南路维多利支行", "city": "呼和浩特市", "longitude": "111.670656195328", "score": "0.975634", "oldname": "呼和浩特锡林南路维多利支行", "address": "内蒙古呼和浩特市锡林南路维多利时代城E栋一层", "latitude": "40.815023724666", "guid": "218eca04-b3ee-11e7-bc1a-6c92bf041d56"}
{"province": "内蒙古", "distance": 0.014151553153417736, "sametype": "same", "thirdId": "100006471", "name": "呼和浩特通道北路分理处附行式自助银行", "city": "呼和浩特市", "longitude": "111.655362843521", "score": "0.972618", "oldname": "呼和浩特贝尔路分理处附行式自助银行", "address": "", "latitude": "40.8235311124718", "guid": "2190a874-b3ee-11e7-a049-6c92bf041d56"}
{"province": "内蒙古", "distance": 0.0, "sametype": "same", "thirdId": "100006504", "name": "呼和浩特光明西路支行附行式自助银行", "city": "呼和浩特市", "longitude": "111.644898000344", "score": "0.984796", "oldname": "呼和浩特光明西路支行附行式自助银行", "address": "", "latitude": "40.8244569995917", "guid": "218f8b06-b3ee-11e7-a810-6c92bf041d56"}
{"province": "内蒙古", "distance": 0.04721120993162853, "sametype": "same", "thirdId": "100006501", "name": "呼和浩特钢铁路储蓄所附行式自助银行", "city": "呼和浩特市", "longitude": "111.630934766527", "score": "0.985356", "oldname": "呼和浩特呼伦北路支行附行式自助银行", "address": "", "latitude": "40.8112183252664", "guid": "2187f31e-b3ee-11e7-8204-6c92bf041d56"}
{"province": "内蒙古", "distance": 0.12696182845446086, "sametype": "same", "thirdId": "100006500", "name": "呼和浩特金川开发区支行附行式自助银行", "city": "呼和浩特市", "longitude": "111.560795999837", "score": "0.982338", "oldname": "呼和浩特新城西街支行自助银行", "address": "", "latitude": "40.796278999677", "guid": "2184b730-b3ee-11e7-b4ef-6c92bf041d56"}
{"province": "内蒙古", "distance": 0.023502284863961904, "sametype": "same", "thirdId": "100006477", "name": "呼和浩特贝尔路分理处附行式自助银行", "city": "呼和浩特市", "longitude": "111.666096000331", "score": "0.788608", "oldname": "呼和浩特光明西路支行", "address": "", "latitude": "40.814308000115", "guid": "218c2e3e-b3ee-11e7-855e-6c92bf041d56"}
{"province": "内蒙古", "distance": 0.0, "sametype": "same", "thirdId": "100006474", "name": "呼和浩特中山西路支行自银行", "city": "呼和浩特市", "longitude": "111.657866999464", "score": "0.943413", "oldname": "呼和浩特中山西路支行自银行", "address": "", "latitude": "40.808796000436", "guid": "2191079c-b3ee-11e7-8f10-6c92bf041d56"}
{"province": "内蒙古", "distance": 0.03356868106609893, "sametype": "same", "thirdId": "100006470", "name": "呼和浩特锡林南路都市支行附行式自助银行", "city": "呼和浩特市", "longitude": "111.674749835538", "score": "0.987236", "oldname": "呼和浩特新城东街支行自助银行", "address": "", "latitude": "40.8071052462111", "guid": "218656b2-b3ee-11e7-8d01-6c92bf041d56"}
{"province": "内蒙古", "distance": 0.02694728106135263, "sametype": "same", "thirdId": "100006460", "name": "呼和浩特琦琳北辰支行附行式自助银行", "city": "呼和浩特市", "longitude": "111.666485806076", "score": "0.976589", "oldname": "呼和浩特车站西街支行自助银行", "address": "", "latitude": "40.8558575770664", "guid": "2186a892-b3ee-11e7-982d-6c92bf041d56"}
{"province": "内蒙古", "distance": 0.02039879346652086, "sametype": "same", "thirdId": "100006457", "name": "呼和浩特锡林南路维多利支行自助银行", "city": "呼和浩特市", "longitude": "111.670656195328", "score": "0.971200", "oldname": "呼和浩特新城南街支行自助银行", "address": "", "latitude": "40.815023724666", "guid": "2185b0c2-b3ee-11e7-b935-6c92bf041d56"}
{"province": "内蒙古", "distance": 0.0, "sametype": "same", "thirdId": "90170", "name": "呼和浩特南茶坊支行", "city": "呼和浩特市", "longitude": "111.656967999375", "score": "0.997425", "oldname": "呼和浩特南茶坊支行", "address": "内蒙古呼和浩特市南茶坊北街2号", "latitude": "40.7955130003256", "guid": "2192802c-b3ee-11e7-bed1-6c92bf041d56"}
{"province": "内蒙古", "distance": 0.038609841377784074, "sametype": "same", "thirdId": "89934", "name": "呼和浩特石羊桥支行", "city": "呼和浩特市", "longitude": "111.668763143106", "score": "0.936992", "oldname": "呼和浩特光明西路支行附行式自助银行", "address": "内蒙古呼和浩特市石羊桥路丽日花园综合楼一楼", "latitude": "40.794106137789", "guid": "218f8b06-b3ee-11e7-a810-6c92bf041d56"}
{"province": "内蒙古", "distance": 0.048673101313271294, "sametype": "same", "thirdId": "89788", "name": "呼和浩特西顺城街支行", "city": "呼和浩特市", "longitude": "111.646426521368", "score": "0.982810", "oldname": "呼和浩特新城西街支行", "address": "呼和浩特市玉泉区鄂尔多斯大街与西顺城街交汇处印象江南门脸房一、二层", "latitude": "40.7948822194398", "guid": "217decfc-b3ee-11e7-9b81-6c92bf041d56"}
{"province": "内蒙古", "distance": 0.04627416727295037, "sametype": "same", "thirdId": "100018144", "name": "锡林南路万锦支行", "city": "呼和浩特市", "longitude": "111.679784960708", "score": "0.897943", "oldname": "呼和浩特东影北路支行", "address": "", "latitude": "40.795039190707", "guid": "217c9852-b3ee-11e7-8a95-6c92bf041d56"}
{"province": "内蒙古", "distance": 0.0, "sametype": "same", "thirdId": "100006507", "name": "股份有限公司呼和浩特西顺城街支行自助银行", "city": "呼和浩特市", "longitude": "111.646426521368", "score": "0.975645", "oldname": "股份有限公司呼和浩特西顺城街支行自助银行", "address": "", "latitude": "40.7948822194398", "guid": "2193dc60-b3ee-11e7-a1a7-6c92bf041d56"}
{"province": "内蒙古", "distance": 0.05057113318646556, "sametype": "same", "thirdId": "100006498", "name": "呼和浩特南茶坊第一分理处附行式自助银行", "city": "呼和浩特市", "longitude": "111.656967999375", "score": "0.980583", "oldname": "呼和浩特大学东街分理处附行式自助银行", "address": "", "latitude": "40.7955130003256", "guid": "218509ce-b3ee-11e7-8a52-6c92bf041d56"}
{"province": "内蒙古", "distance": 0.035961573300715616, "sametype": "same", "thirdId": "100006478", "name": "呼和浩特石羊桥储蓄所附行式自助银行", "city": "呼和浩特市", "longitude": "111.668763143106", "score": "0.987277", "oldname": "呼和浩特新城南街支行自助银行", "address": "", "latitude": "40.794106137789", "guid": "2185b0c2-b3ee-11e7-b935-6c92bf041d56"}
{"province": "内蒙古", "distance": 0.03065688933151442, "sametype": "same", "thirdId": "100000284", "name": "中国建设银行股份有限公司呼和浩特锡林南路万锦支行", "city": "呼和浩特市", "longitude": "111.679784960708", "score": "0.810605", "oldname": "新城西街支行专柜", "address": "内蒙古呼和浩特市玉泉区锡林南路万锦丰泽湾底商", "latitude": "40.795039190707", "guid": "218bdaf6-b3ee-11e7-b5f5-6c92bf041d56"}
