{"province": "北京市", "distance": 11.564740861937533, "sametype": "same", "thirdId": "ea3a5697-bc4a-4d21-8583-00025d0e13cf", "name": "北京王四营支行", "city": "北京市", "longitude": 116.511932, "score": "0.997317", "oldname": "榆树泗河支行", "address": "大柳树甲1号", "latitude": 39.8758926, "guid": "22ea3d0c-b3ee-11e7-a776-6c92bf041d56"}
{"province": "浙江省", "distance": 16.539473613474645, "sametype": "same", "thirdId": "fc1e2eab-041e-40b4-9faf-0003d2db0f14", "name": "绍兴江桥分理处", "city": "绍兴市", "longitude": 120.336761, "score": "0.998208", "oldname": "彭州通济分理处", "address": "杨汛桥镇唐家桥", "latitude": 30.1272011, "guid": "22bea764-b3ee-11e7-ae60-6c92bf041d56"}
{"province": "海南", "distance": 22.753094109816228, "sametype": "same", "thirdId": "cd8b5f9c-aa72-4f77-b8e3-000b498e24dd", "name": "三亚临春支行", "city": "三亚市", "longitude": 109.51976, "score": "0.998101", "oldname": "北京新外支行", "address": "三亚市凤凰路103号“汇丰国际度假公寓”12号楼1-1铺面", "latitude": 18.2648964, "guid": "22e0b296-b3ee-11e7-b945-6c92bf041d56"}
{"province": "新疆维吾尔自治区", "distance": 33.68646549661138, "sametype": "same", "thirdId": "baf0a606-d01e-4557-bb36-000ef58a123b", "name": "奎屯五五新镇支行", "city": "伊犁哈萨克自治州", "longitude": 84.79425, "score": "0.990473", "oldname": "章丘绣惠支行", "address": "农七师129团部天池路5号", "latitude": 44.8644257, "guid": "22ed479a-b3ee-11e7-8453-6c92bf041d56"}
{"province": "吉林", "distance": 36.555188674132005, "sametype": "same", "thirdId": "fa9cc6d3-bfe8-4ae3-b967-000fc76d60ea", "name": "双辽郑家屯支行", "city": "四平市", "longitude": 123.513657, "score": "0.994097", "oldname": "南木林芒热营业所", "address": "双辽市辽河路1077号", "latitude": 43.52411, "guid": "22bf4f20-b3ee-11e7-9006-6c92bf041d56"}
{"province": "上海市", "distance": 8.64365554793659, "sametype": "same", "thirdId": "a76e672d-687c-4f27-afb2-00109d494707", "name": "上海山阳支行", "city": "上海市", "longitude": 121.335907, "score": "0.992548", "oldname": "潮安城南支行", "address": "山阳镇海丰路181号", "latitude": 30.7488117, "guid": "22923788-b3ee-11e7-8d49-6c92bf041d56"}
{"province": "广西壮族自治区", "distance": 9.668370557977607, "sametype": "same", "thirdId": "1a178852-4df2-4653-86b1-00174d024800", "name": "横县洪德支行", "city": "南宁市", "longitude": 109.268692, "score": "0.993436", "oldname": "洛江支行营业室", "address": "横州镇洪德路33号", "latitude": 22.6810131, "guid": "22657eb4-b3ee-11e7-b9b7-6c92bf041d56"}
{"province": "重庆市", "distance": 16.3927496537832, "sametype": "same", "thirdId": "f270c787-0f76-461b-bfbb-002745c8de5c", "name": "秀山新城支行", "city": "重庆市", "longitude": 109.0093, "score": "0.997471", "oldname": "大连青春街分理处", "address": "中和镇渝秀大道", "latitude": 28.442255, "guid": "22dcdaa4-b3ee-11e7-9ef4-6c92bf041d56"}
{"province": "浙江省", "distance": 11.119191050955058, "sametype": "same", "thirdId": "8ba4b955-a069-4b8c-9791-0027781c4831", "name": "绍兴港区支行", "city": "绍兴市", "longitude": 120.890457, "score": "0.994132", "oldname": "新绛城关分理处", "address": "杭州湾精细化工园区东纬九路白云宾馆底层", "latitude": 30.1432018, "guid": "22cda5b6-b3ee-11e7-82a4-6c92bf041d56"}
{"province": "山东省", "distance": 13.083524373675049, "sametype": "same", "thirdId": "a987156f-1e78-4695-87bb-002851e055cb", "name": "莱芜口镇支行", "city": "莱芜市", "longitude": 117.62941, "score": "0.985356", "oldname": "哈尔滨红旗大街支行", "address": "口镇驻地", "latitude": 36.31448, "guid": "229c7144-b3ee-11e7-902c-6c92bf041d56"}
{"province": "北京市", "distance": 14.331983068227098, "sametype": "same", "thirdId": "4e1798ff-8c51-4753-a260-0028fcb68a61", "name": "北京中关村支行", "city": "北京市", "longitude": 116.31205, "score": "0.997425", "oldname": "洪江支行营业室", "address": "丹棱街3号中国电子大厦一层", "latitude": 39.9793549, "guid": "22af997c-b3ee-11e7-8eac-6c92bf041d56"}
{"province": "云南省", "distance": 0.0, "sametype": "same", "thirdId": "91e70bbf-45ce-4ac3-9694-002f30294b24", "name": "罗平环城分理处", "city": "曲靖市", "longitude": 104.310768, "score": "0.991205", "oldname": "罗平环城分理处", "address": "罗雄镇云贵路15号", "latitude": 24.8748646, "guid": "224a7808-b3ee-11e7-bc4c-6c92bf041d56"}
{"province": "河南省", "distance": 0.0, "sametype": "same", "thirdId": "f2581a5f-eba5-4396-8deb-0030ce35f9c9", "name": "禹州市第三分理处", "city": "许昌市", "longitude": 113.472458, "score": "0.983931", "oldname": "禹州市第三分理处", "address": "颖河大街中段", "latitude": 34.1606026, "guid": "224ada32-b3ee-11e7-8e3f-6c92bf041d56"}
{"province": "宁夏回族自治区", "distance": 15.013028544353327, "sametype": "same", "thirdId": "56af1d05-d8a9-44ff-8319-003bb685288b", "name": "青铜峡邵岗分理处", "city": "吴忠市", "longitude": 106.069061, "score": "0.987883", "oldname": "溧阳城中支行", "address": "邵岗乡", "latitude": 38.1588974, "guid": "22f2d386-b3ee-11e7-9bd8-6c92bf041d56"}
{"province": "上海市", "distance": 4.812469424062459, "sametype": "same", "thirdId": "7a1f8d0c-9243-4122-8c00-003c52a514a8", "name": "上海江海支行", "city": "上海市", "longitude": 121.462044, "score": "0.996652", "oldname": "罗源县支行营业室", "address": "南桥镇江海路204号", "latitude": 30.90462, "guid": "227ca666-b3ee-11e7-85f1-6c92bf041d56"}
{"province": "福建省", "distance": 14.355047097723771, "sametype": "same", "thirdId": "eff912a5-4eee-42c7-b026-003fbc589824", "name": "福安韩城支行", "city": "宁德市", "longitude": 119.648605, "score": "0.965729", "oldname": "毕节麻园支行", "address": "冠后路华鸿园12幢S101-103", "latitude": 27.0880623, "guid": "22e4985c-b3ee-11e7-b654-6c92bf041d56"}
{"province": "北京市", "distance": 5.239507158625131, "sametype": "same", "thirdId": "4288e2ec-7097-4ddc-bd97-004012ec53aa", "name": "北京崇文门支行", "city": "北京市", "longitude": 116.418739, "score": "0.973829", "oldname": "大连西南路支行", "address": "崇外大街18号", "latitude": 39.8997, "guid": "22ea914e-b3ee-11e7-99ec-6c92bf041d56"}
{"province": "浙江省", "distance": 3.099688697521741, "sametype": "same", "thirdId": "d9ae40ab-f106-4235-b5e3-0041274f6e5e", "name": "宁波兴宁支行", "city": "宁波市", "longitude": 121.567085, "score": "0.989488", "oldname": "泰州江洲路支行", "address": "兴宁路78号", "latitude": 29.85215, "guid": "22da3cb8-b3ee-11e7-9e66-6c92bf041d56"}
{"province": "黑龙江省", "distance": 33.2820559373169, "sametype": "same", "thirdId": "a293b107-3ecc-44f2-8e5d-00463c844f6d", "name": "建三江青龙山支行", "city": "佳木斯市", "longitude": 132.963837, "score": "0.992004", "oldname": "都匀龙山支行", "address": "建三江管局青龙山农场青龙街39号", "latitude": 47.7229424, "guid": "22d6f83c-b3ee-11e7-bce3-6c92bf041d56"}
{"province": "山西省", "distance": 14.012909734340008, "sametype": "same", "thirdId": "fb2dd5e4-1a8e-41c9-b1a4-0049c689fb76", "name": "晋中新集支行", "city": "晋中市", "longitude": 112.752831, "score": "0.921269", "oldname": "清远洲心支行", "address": "府兴路81号", "latitude": 37.68586, "guid": "225e2948-b3ee-11e7-b47e-6c92bf041d56"}
{"province": "河北省", "distance": 0.0, "sametype": "same", "thirdId": "a59a86f0-f73b-4a9e-9c0f-004a1ebea403", "name": "沧州东环支行", "city": "沧州市", "longitude": 116.886406, "score": "0.988003", "oldname": "沧州东环支行", "address": "解放东路58号", "latitude": 38.2988434, "guid": "224dcbe8-b3ee-11e7-b7ce-6c92bf041d56"}
{"province": "云南省", "distance": 11.781866678430141, "sametype": "same", "thirdId": "4a0eace3-da82-4383-bf10-004b103d9e40", "name": "华坪荣将分理处", "city": "丽江市", "longitude": 101.285355, "score": "0.927997", "oldname": "万宁三更罗支行", "address": "荣将镇", "latitude": 26.5701828, "guid": "22e84434-b3ee-11e7-9164-6c92bf041d56"}
{"province": "湖南省", "distance": 22.84998473421839, "sametype": "same", "thirdId": "01859787-a297-4798-b01c-004ed782c258", "name": "衡山两路口分理处", "city": "衡阳市", "longitude": 112.854713, "score": "0.749041", "oldname": "大庆卧里屯支行营业室", "address": "开云镇麋城路13号", "latitude": 27.2480316, "guid": "22f5dbd0-b3ee-11e7-8756-6c92bf041d56"}
{"province": "河北省", "distance": 0.0, "sametype": "same", "thirdId": "6cbc4fcd-5c0a-41b5-b601-004ffb8a1fae", "name": "武安车站支行", "city": "邯郸市", "longitude": 114.217171, "score": "0.990255", "oldname": "武安车站支行", "address": "南环路与纸厂街交叉口南行100米路西", "latitude": 36.68015, "guid": "224ed934-b3ee-11e7-87c3-6c92bf041d56"}
{"province": "内蒙古自治区", "distance": 22.568747216603022, "sametype": "same", "thirdId": "9d74993e-70e0-420c-b688-00507d80ffc5", "name": "察哈尔右翼前旗支行营业室", "city": "乌兰察布市", "longitude": 113.211838, "score": "0.977751", "oldname": "勐腊县支行营业室", "address": "土镇向阳街", "latitude": 40.7854233, "guid": "22726c1e-b3ee-11e7-9da6-6c92bf041d56"}
{"province": "山东", "distance": 0.0, "sametype": "same", "thirdId": "2ec7b388-0103-4566-9e8c-00514a288c00", "name": "广饶大王支行", "city": "东营市", "longitude": 118.528679, "score": "0.943961", "oldname": "广饶大王支行", "address": "广饶县大王镇政府驻地", "latitude": 36.9855, "guid": "224f8f3c-b3ee-11e7-84e5-6c92bf041d56"}
{"province": "黑龙江省", "distance": 0.0, "sametype": "same", "thirdId": "84499e01-d558-40a3-bf4d-0055f79d6f3d", "name": "伊春上甘岭支行营业室", "city": "伊春市", "longitude": 129.035828, "score": "0.983033", "oldname": "伊春上甘岭支行营业室", "address": "上甘岭大街19号", "latitude": 47.9835, "guid": "224ff3aa-b3ee-11e7-9d5d-6c92bf041d56"}
{"province": "重庆市", "distance": 13.640645023282454, "sametype": "same", "thirdId": "a7674e0e-4498-4ba1-b09f-0058c43bc12a", "name": "重庆沙坪坝歌乐山支行", "city": "重庆市", "longitude": 106.442696, "score": "0.931056", "oldname": "淄博新村西路分理处", "address": "歌乐山正街153号", "latitude": 29.6013737, "guid": "22e64422-b3ee-11e7-af04-6c92bf041d56"}
{"province": "黑龙江省", "distance": 0.0, "sametype": "same", "thirdId": "90e71c85-abe3-457d-bfc0-005c21e5e820", "name": "安达市支行营业室", "city": "绥化市", "longitude": 125.329437, "score": "0.992865", "oldname": "安达市支行营业室", "address": "牛市路141号", "latitude": 46.4047661, "guid": "2250b24a-b3ee-11e7-a756-6c92bf041d56"}
{"province": "江苏省", "distance": 4.941193312205158, "sametype": "same", "thirdId": "5b32c0d6-7030-456f-96f7-005d3fe1526c", "name": "南通骑岸分理处", "city": "南通市", "longitude": 121.0524, "score": "0.978659", "oldname": "沂源县支行营业室", "address": "骑岸镇十字街东侧新华楼底层", "latitude": 32.1762, "guid": "22df33f8-b3ee-11e7-a855-6c92bf041d56"}
{"province": "福建省", "distance": 12.07164265827054, "sametype": "same", "thirdId": "bff52233-394a-4fbb-afbb-005eb4b80c50", "name": "惠安洛阳支行", "city": "泉州市", "longitude": 118.703453, "score": "0.994550", "oldname": "忠县白石支行", "address": "洛阳镇桥乡综合市场东", "latitude": 24.9558182, "guid": "22cc5594-b3ee-11e7-b920-6c92bf041d56"}
{"province": "山东省", "distance": 0.0, "sametype": "same", "thirdId": "a81110d5-3baa-4446-9146-0065da1c7c72", "name": "荣成荣安路分理处", "city": "威海市", "longitude": 122.416908, "score": "0.998831", "oldname": "荣成荣安路分理处", "address": "南山中路69号", "latitude": 37.1501427, "guid": "2251cfa4-b3ee-11e7-a229-6c92bf041d56"}
{"province": "重庆市", "distance": 13.419470639917579, "sametype": "same", "thirdId": "5cf8c17e-3706-42e9-a221-006afe5e3e48", "name": "重庆渝中较场口支行", "city": "重庆市", "longitude": 106.575943, "score": "0.946854", "oldname": "淄博淄城分理处", "address": "民权路57号", "latitude": 29.5542889, "guid": "2299296c-b3ee-11e7-9f08-6c92bf041d56"}
{"province": "甘肃省", "distance": 0.0, "sametype": "same", "thirdId": "aeef43c4-9131-43d6-9db5-006f540f9e50", "name": "武威凉州武南支行", "city": "武威市", "longitude": 102.733978, "score": "0.995628", "oldname": "武威凉州武南支行", "address": "武南镇二马路", "latitude": 37.8199577, "guid": "22528e58-b3ee-11e7-bbac-6c92bf041d56"}
{"province": "青海省", "distance": 13.549497555876249, "sametype": "same", "thirdId": "1dd7bbf1-9f54-4db7-9386-00712ac8ac40", "name": "湟中县支行营业室", "city": "西宁市", "longitude": 101.570763, "score": "0.989255", "oldname": "孝感环城支行", "address": "鲁沙尔镇团结南路140号", "latitude": 36.5012, "guid": "229accc2-b3ee-11e7-8aa5-6c92bf041d56"}
{"province": "河南省", "distance": 3.513234378183297, "sametype": "same", "thirdId": "3d7dcf91-b39d-428d-9d95-0071466fa472", "name": "项城市孙店分理处", "city": "周口市", "longitude": 114.760536, "score": "0.949979", "oldname": "武安新华北大街分理处", "address": "孙店镇政府街", "latitude": 33.23559, "guid": "22f08c5c-b3ee-11e7-be77-6c92bf041d56"}
{"province": "广东省", "distance": 14.882721902071673, "sametype": "same", "thirdId": "ea0adce7-2308-4741-bd3d-007262b70edc", "name": "韶关鞍山支行", "city": "韶关市", "longitude": 113.599472, "score": "0.978526", "oldname": "天津中山门支行", "address": "马坝镇中华西路中华园西苑二号楼", "latitude": 24.67765, "guid": "228bc330-b3ee-11e7-bc1c-6c92bf041d56"}
{"province": "江西省", "distance": 9.527782700366192, "sametype": "same", "thirdId": "e47b48d6-3c11-490c-9c83-0073bd6e03a5", "name": "安远九龙分理处", "city": "赣州市", "longitude": 115.392349, "score": "0.961372", "oldname": "盐城金穗支行", "address": "欣山镇九龙路46号", "latitude": 25.1311111, "guid": "22f0dff4-b3ee-11e7-879b-6c92bf041d56"}
{"province": "湖北省", "distance": 10.927106234843738, "sametype": "same", "thirdId": "0b770b2c-9641-4b6c-a3ae-007641d90769", "name": "英山县支行营业室", "city": "黄冈市", "longitude": 115.6742, "score": "0.984248", "oldname": "沽源县支行营业室", "address": "温泉镇金石路64号", "latitude": 30.7401, "guid": "227d5d22-b3ee-11e7-9469-6c92bf041d56"}
{"province": "江苏", "distance": 0.0, "sametype": "same", "thirdId": "4205ce3f-51c5-4f07-92f9-0077943a3258", "name": "苏州现代大厦分理处", "city": "苏州市", "longitude": 120.7237, "score": "0.978026", "oldname": "苏州现代大厦分理处", "address": "江苏省苏州市工业园区苏春西路158号", "latitude": 31.3238182, "guid": "2254adaa-b3ee-11e7-9b05-6c92bf041d56"}
{"province": "重庆市", "distance": 14.668289316355121, "sametype": "same", "thirdId": "5d3206b9-d809-41f3-9857-00794813eb83", "name": "重庆渝北洋河支行", "city": "重庆市", "longitude": 106.536484, "score": "0.990005", "oldname": "余姚历山支行", "address": "观音桥街道洋河花园34-35号1-1", "latitude": 29.5885, "guid": "2287142a-b3ee-11e7-819d-6c92bf041d56"}
{"province": "河北省", "distance": 0.0, "sametype": "same", "thirdId": "0e31262b-aaf8-422b-acc6-007b40e368a1", "name": "石家庄东城支行营业室", "city": "石家庄市", "longitude": 114.550316, "score": "0.944285", "oldname": "石家庄东城支行营业室", "address": "中山东路467号", "latitude": 38.0435524, "guid": "22556a2e-b3ee-11e7-a92e-6c92bf041d56"}
{"province": "四川省", "distance": 0.0, "sametype": "same", "thirdId": "b24c28ee-a287-4609-be19-007cdfb32653", "name": "宜宾李庄分理处", "city": "宜宾市", "longitude": 104.80629, "score": "0.993216", "oldname": "宜宾李庄分理处", "address": "李庄镇天府堂街37号", "latitude": 28.8032665, "guid": "2255c258-b3ee-11e7-b77f-6c92bf041d56"}
{"province": "广东省", "distance": 8.681746234165681, "sametype": "same", "thirdId": "9bb0610b-5c79-4d8d-a0ce-007d261b2349", "name": "惠州惠阳秋长支行", "city": "惠州市", "longitude": 114.4333, "score": "0.984508", "oldname": "铜陵南区支行", "address": "秋长街道办人民二路128号", "latitude": 22.82, "guid": "22d5523e-b3ee-11e7-9826-6c92bf041d56"}
{"province": "上海市", "distance": 0.0, "sametype": "same", "thirdId": "641e5d8d-28b2-44dc-a8db-007f20e73f1e", "name": "上海华新支行", "city": "上海市", "longitude": 121.236336, "score": "0.993129", "oldname": "上海华新支行", "address": "华新镇新益路445号", "latitude": 31.2493935, "guid": "22566ea6-b3ee-11e7-9ed7-6c92bf041d56"}
{"province": "广西壮族自治区", "distance": 0.0, "sametype": "same", "thirdId": "5c0a2636-26aa-473a-8033-008045113cc9", "name": "贵港分行营业部营业室", "city": "贵港市", "longitude": 109.600861, "score": "0.961372", "oldname": "贵港分行营业部营业室", "address": "中山中路12号", "latitude": 23.0884781, "guid": "2256c3ba-b3ee-11e7-902d-6c92bf041d56"}
{"province": "吉林省", "distance": 0.0, "sametype": "same", "thirdId": "583c0f29-a373-473c-a192-00846fdf786e", "name": "东丰西城分理处", "city": "辽源市", "longitude": 125.536652, "score": "0.997425", "oldname": "东丰西城分理处", "address": "向阳路", "latitude": 42.7300224, "guid": "2257201c-b3ee-11e7-97a3-6c92bf041d56"}
{"province": "湖北省", "distance": 4.743107431426061, "sametype": "same", "thirdId": "5a067fae-9462-4dbe-bc7f-0084e8f08daf", "name": "咸宁南山支行", "city": "咸宁市", "longitude": 114.285759, "score": "0.937312", "oldname": "栾川县支行营业室", "address": "长安大道1号", "latitude": 29.8699226, "guid": "22b04160-b3ee-11e7-933b-6c92bf041d56"}
{"province": "广东省", "distance": 8.954366993885493, "sametype": "same", "thirdId": "3d370841-5ea0-4e02-a1a9-00888bf1b1c4", "name": "江门新会南隅支行", "city": "江门市", "longitude": 113.037369, "score": "0.982119", "oldname": "重庆武隆鸭江支行", "address": "会城镇南隅路54-60号", "latitude": 22.517765, "guid": "226a8968-b3ee-11e7-8507-6c92bf041d56"}
{"province": "湖北", "distance": 0.0, "sametype": "same", "thirdId": "ed1cb554-3925-4ba6-a045-008c479d2169", "name": "武汉走马岭支行", "city": "武汉市", "longitude": 114.023384, "score": "0.990131", "oldname": "武汉走马岭支行", "address": "湖北省武汉市东西湖走马岭农场", "latitude": 30.6526375, "guid": "22582d22-b3ee-11e7-bb87-6c92bf041d56"}
{"province": "西藏", "distance": 0.0, "sametype": "same", "thirdId": "f40fff46-5378-4f42-8e89-009466a5275a", "name": "米林羌纳营业所", "city": "林芝市", "longitude": 94.8334, "score": "0.993840", "oldname": "米林羌纳营业所", "address": "林芝市米林县羌纳乡", "latitude": 29.7122, "guid": "225882e0-b3ee-11e7-b721-6c92bf041d56"}
{"province": "湖北省", "distance": 9.73490944310167, "sametype": "same", "thirdId": "c7e78d68-49c1-4d55-bef4-009b50c6d167", "name": "竹山人民路支行", "city": "十堰市", "longitude": 110.233894, "score": "0.946821", "oldname": "廊坊西大街支行", "address": "城关镇人民路71号", "latitude": 32.2214546, "guid": "22d6a350-b3ee-11e7-ad84-6c92bf041d56"}
{"province": "浙江省", "distance": 0.0, "sametype": "same", "thirdId": "82e28b56-cebc-4865-a8e9-009e58e75867", "name": "杭州竞舟支行", "city": "杭州市", "longitude": 120.112389, "score": "0.993248", "oldname": "杭州竞舟支行", "address": "文一西路199号", "latitude": 30.2875633, "guid": "22592ea2-b3ee-11e7-8253-6c92bf041d56"}
{"province": "天津市", "distance": 3.5605606461663273, "sametype": "same", "thirdId": "4957711a-2973-41df-a9fa-009f025acb70", "name": "静海王口支行", "city": "天津市", "longitude": 116.765633, "score": "0.983205", "oldname": "济宁许庄分理处", "address": "王口镇大瓦头村", "latitude": 38.9337578, "guid": "227a37aa-b3ee-11e7-bd6c-6c92bf041d56"}
{"province": "湖南省", "distance": 0.0, "sametype": "same", "thirdId": "33d6a293-bfff-4c92-bf9d-00a0272885c7", "name": "醴陵城东分理处", "city": "株洲市", "longitude": 113.510773, "score": "0.979435", "oldname": "醴陵城东分理处", "address": "解放路东段", "latitude": 27.6598644, "guid": "2259d97e-b3ee-11e7-9801-6c92bf041d56"}
{"province": "四川省", "distance": 0.0, "sametype": "same", "thirdId": "f33060de-950b-4787-8924-00a048fd25d3", "name": "仁寿陵阳支行", "city": "眉山市", "longitude": 104.140327, "score": "0.997606", "oldname": "仁寿陵阳支行", "address": "文林镇金马路一段73号", "latitude": 29.9924564, "guid": "225a2f64-b3ee-11e7-a691-6c92bf041d56"}
{"province": "贵州省", "distance": 12.190881414149118, "sametype": "same", "thirdId": "9a37a492-885d-47cd-98bc-00a28efe89d7", "name": "盘县红桥支行", "city": "六盘水市", "longitude": 104.468773, "score": "0.922130", "oldname": "九江龙开河支行", "address": "红果镇干沟桥盘江大道西段", "latitude": 25.6980877, "guid": "22a12842-b3ee-11e7-bbf3-6c92bf041d56"}
{"province": "江苏省", "distance": 0.0, "sametype": "same", "thirdId": "eaac211b-08ec-4df1-ad7b-00a2e3d99b1b", "name": "泰兴大庆路支行", "city": "泰州市", "longitude": 120.0182, "score": "0.996887", "oldname": "泰兴大庆路支行", "address": "泰兴镇大庆东路1号", "latitude": 32.1734, "guid": "225ada90-b3ee-11e7-8bee-6c92bf041d56"}
{"province": "湖北省", "distance": 0.0, "sametype": "same", "thirdId": "3a08c96d-b2a0-4ba2-bb40-00a35152694b", "name": "江汉支行营业室", "city": "武汉市", "longitude": 114.280861, "score": "0.981376", "oldname": "江汉支行营业室", "address": "汉口前进一路181-1号", "latitude": 30.57996, "guid": "225b2fc2-b3ee-11e7-9ecb-6c92bf041d56"}
{"province": "广东省", "distance": 0.0, "sametype": "same", "thirdId": "a6ff5e08-ba7e-43f6-9f5a-00a5c2c13ce0", "name": "汕头潮阳和平支行", "city": "汕头市", "longitude": 116.471191, "score": "0.995083", "oldname": "汕头潮阳和平支行", "address": "和平镇沿江路17号", "latitude": 23.2520123, "guid": "225b83aa-b3ee-11e7-aa3c-6c92bf041d56"}
{"province": "广东省", "distance": 0.0, "sametype": "same", "thirdId": "49154f66-f1f4-4816-8a29-00a98b952b05", "name": "深圳福田口岸支行", "city": "深圳市", "longitude": 114.065437, "score": "0.993258", "oldname": "深圳福田口岸支行", "address": "金田路1003-1号御庭园裙楼101-106", "latitude": 22.51948, "guid": "225bd8c8-b3ee-11e7-b893-6c92bf041d56"}
{"province": "广西壮族自治区", "distance": 4.168313995616137, "sametype": "same", "thirdId": "b0e2031c-5698-4530-a5df-00af0eb766cd", "name": "钟山兴钟支行", "city": "贺州市", "longitude": 111.301781, "score": "0.914879", "oldname": "都匀龙山支行", "address": "钟山镇兴钟中路10号", "latitude": 24.53301, "guid": "22d6f83c-b3ee-11e7-bce3-6c92bf041d56"}
{"province": "广东省", "distance": 11.437088148793151, "sametype": "same", "thirdId": "f0a4c4df-574e-4bdd-89c6-00b18946fce0", "name": "佛山三水范湖支行", "city": "佛山市", "longitude": 112.996872, "score": "0.975423", "oldname": "新安县支行营业室", "address": "乐平镇范湖金缸路26号", "latitude": 23.3150654, "guid": "227691fe-b3ee-11e7-aabb-6c92bf041d56"}
{"province": "江苏省", "distance": 0.0, "sametype": "same", "thirdId": "a17ad1e6-4318-4435-8c5e-00b27f636c61", "name": "丹阳新民路支行", "city": "镇江市", "longitude": 119.5806, "score": "0.998414", "oldname": "丹阳新民路支行", "address": "新民东路23号", "latitude": 31.9905415, "guid": "225cd656-b3ee-11e7-93bb-6c92bf041d56"}
{"province": "湖北省", "distance": 7.907619692156265, "sametype": "same", "thirdId": "232c57e8-47cb-44e3-9827-00b5d4368a98", "name": "秭归茅坪分理处", "city": "宜昌市", "longitude": 110.972496, "score": "0.781690", "oldname": "清河连庄分理处", "address": "茅坪镇建平路3号", "latitude": 30.8230228, "guid": "229486dc-b3ee-11e7-ab6b-6c92bf041d56"}
{"province": "浙江省", "distance": 0.0, "sametype": "same", "thirdId": "dda4dec4-089f-46e1-9d5e-00b6bb1cd592", "name": "永康市支行营业室", "city": "金华市", "longitude": 120.047485, "score": "0.972016", "oldname": "永康市支行营业室", "address": "东城街道九铃东路3388号", "latitude": 28.8905849, "guid": "225d7fa2-b3ee-11e7-9f9a-6c92bf041d56"}
{"province": "浙江省", "distance": 8.044462696034223, "sametype": "same", "thirdId": "fda1c594-8909-4d0d-97d1-00c3c81f805c", "name": "诸暨安华支行", "city": "绍兴市", "longitude": 120.126389, "score": "0.933576", "oldname": "郴州燕泉支行", "address": "安华镇东街31号", "latitude": 29.5527782, "guid": "22b694c0-b3ee-11e7-bbdc-6c92bf041d56"}
{"province": "广东省", "distance": 19.81875393913553, "sametype": "same", "thirdId": "b772a154-b17f-4172-b65f-00ca2223e994", "name": "清远洲心支行", "city": "清远市", "longitude": 113.0897, "score": "0.985382", "oldname": "敖汉旗新洲支行", "address": "洲心龙华大道27号", "latitude": 23.677, "guid": "22a1d1de-b3ee-11e7-a32c-6c92bf041d56"}
{"province": "广东省", "distance": 0.0, "sametype": "same", "thirdId": "8e8fcb51-eab5-49d0-8acd-00d53eb772aa", "name": "徐闻曲界支行", "city": "湛江市", "longitude": 110.314751, "score": "0.997114", "oldname": "徐闻曲界支行", "address": "曲界镇", "latitude": 20.48169, "guid": "225e7d76-b3ee-11e7-afa4-6c92bf041d56"}
{"province": "湖北省", "distance": 0.0, "sametype": "same", "thirdId": "0bad809b-9f6a-4074-a44e-00d5ac57c7e8", "name": "武穴余川支行", "city": "黄冈市", "longitude": 115.7374, "score": "0.992571", "oldname": "武穴余川支行", "address": "余川镇松山嘴", "latitude": 30.0832, "guid": "225ed1a4-b3ee-11e7-86e7-6c92bf041d56"}
{"province": "河北省", "distance": 3.947048851143853, "sametype": "same", "thirdId": "f02225d1-f518-4149-9f01-00ddec631ad6", "name": "文安火车站分理处", "city": "廊坊市", "longitude": 116.339973, "score": "0.803369", "oldname": "太原晋祠路支行", "address": "大留镇镇小王东村", "latitude": 38.8837, "guid": "22ebf5a2-b3ee-11e7-bd87-6c92bf041d56"}
{"province": "上海市", "distance": 0.0, "sametype": "same", "thirdId": "46d3f750-053b-47ab-9635-00dfcaa5e8e8", "name": "上海张江集电港支行", "city": "上海市", "longitude": 121.63282, "score": "0.994689", "oldname": "上海张江集电港支行", "address": "龙东大道3000号2号楼104室", "latitude": 31.2222137, "guid": "225f7938-b3ee-11e7-b989-6c92bf041d56"}
{"province": "广西壮族自治区", "distance": 9.023769706317205, "sametype": "same", "thirdId": "135850d4-a88e-4d61-81c6-00e6dca31848", "name": "武宣城北支行", "city": "来宾市", "longitude": 109.662, "score": "0.963988", "oldname": "成都北站东路支行", "address": "武宣镇城北路202号", "latitude": 23.604, "guid": "226355d0-b3ee-11e7-889a-6c92bf041d56"}
{"province": "新疆", "distance": 34.69978332554482, "sametype": "same", "thirdId": "5f11af56-a0a2-4a45-b7ab-00e76f908f0a", "name": "博乐友好支行", "city": "博尔塔拉蒙古自治州", "longitude": 82.078, "score": "0.901457", "oldname": "北京王四营支行", "address": "新疆博州博乐市北京路295号", "latitude": 44.163, "guid": "22466c2c-b3ee-11e7-8fb5-6c92bf041d56"}
{"province": "重庆市", "distance": 14.212718968776567, "sametype": "same", "thirdId": "6bf732f2-6998-4520-99f1-00e7713bf9a0", "name": "重庆南川水江支行", "city": "重庆市", "longitude": 107.1131, "score": "0.904576", "oldname": "上海安亭支行", "address": "南陵路487号", "latitude": 29.1488323, "guid": "22692708-b3ee-11e7-b8a6-6c92bf041d56"}
{"province": "吉林省", "distance": 24.01036465758455, "sametype": "same", "thirdId": "411cb675-c190-4d33-80b5-00eab85b3669", "name": "吉林市分行营业部营业室", "city": "吉林市", "longitude": 126.542778, "score": "0.976316", "oldname": "甘肃省分行营业部营业室", "address": "松江路81号", "latitude": 43.834404, "guid": "22acf6cc-b3ee-11e7-99b7-6c92bf041d56"}
{"province": "湖北省", "distance": 8.092447510597832, "sametype": "same", "thirdId": "e621a454-1827-4d70-b435-00ecfa4b5347", "name": "武汉金山大道支行", "city": "武汉市", "longitude": 114.152977, "score": "0.899521", "oldname": "南充潆溪支行", "address": "严家渡张柏路30号", "latitude": 30.63833, "guid": "22d74b52-b3ee-11e7-ac5e-6c92bf041d56"}
{"province": "内蒙古自治区", "distance": 0.0, "sametype": "same", "thirdId": "b481add1-0a7e-4582-a8c3-00ed57c54e8c", "name": "包头桂圆支行", "city": "包头市", "longitude": 110.029831, "score": "0.994585", "oldname": "包头桂圆支行", "address": "南门外大街3-1", "latitude": 40.5817566, "guid": "22619fb0-b3ee-11e7-83a9-6c92bf041d56"}
{"province": "广东省", "distance": 0.0, "sametype": "same", "thirdId": "442b69f7-c591-4d00-86c6-00ee5985cccf", "name": "阳春新桥支行", "city": "阳江市", "longitude": 111.797432, "score": "0.997363", "oldname": "阳春新桥支行", "address": "春城镇二桥东桥头", "latitude": 22.1837883, "guid": "2261f8de-b3ee-11e7-bf15-6c92bf041d56"}
{"province": "山东省", "distance": 0.0, "sametype": "same", "thirdId": "21897862-aa2e-4959-bf59-00efa42d22fb", "name": "聊城人民广场分理处", "city": "聊城市", "longitude": 115.98925, "score": "0.976469", "oldname": "聊城人民广场分理处", "address": "兴华西路23号", "latitude": 36.4685, "guid": "22624e88-b3ee-11e7-bd46-6c92bf041d56"}
{"province": "黑龙江省", "distance": 20.358209897270097, "sametype": "same", "thirdId": "6f8023fb-89c9-4696-b06c-00f09663b929", "name": "红兴隆小清河支行", "city": "双鸭山市", "longitude": 133.00795, "score": "0.747761", "oldname": "南京兴隆大街支行", "address": "八五三农场B区03委35栋126号", "latitude": 46.5271339, "guid": "2275e664-b3ee-11e7-9654-6c92bf041d56"}
{"province": "山西省", "distance": 6.318624956949951, "sametype": "same", "thirdId": "f92ac2c8-c5e6-4ca6-8910-00f30a88b29c", "name": "大同分行营业部营业室", "city": "大同市", "longitude": 113.291565, "score": "0.854875", "oldname": "滕州善国支行", "address": "迎宾西路80号", "latitude": 40.0759926, "guid": "22dbdec4-b3ee-11e7-b667-6c92bf041d56"}
{"province": "四川省", "distance": 16.2979233938789, "sametype": "same", "thirdId": "9b1145fa-497a-4610-94f0-00f723b900d7", "name": "成都北站东路支行", "city": "成都市", "longitude": 104.079758, "score": "0.956865", "oldname": "蓟县人民东路支行", "address": "二环路北三段北站东二路口", "latitude": 30.693922, "guid": "227d04bc-b3ee-11e7-86a4-6c92bf041d56"}
{"province": "河南省", "distance": 0.0, "sametype": "same", "thirdId": "4488f63b-ec28-408b-8f75-00f88e8b191b", "name": "温县支行营业室", "city": "焦作市", "longitude": 113.085747, "score": "0.982953", "oldname": "温县支行营业室", "address": "黄河路42号", "latitude": 34.93984, "guid": "2263b03e-b3ee-11e7-8a94-6c92bf041d56"}
{"province": "江西省", "distance": 12.07277405978912, "sametype": "same", "thirdId": "21a4e9bc-56df-45ce-8dbe-00f9ac0a0352", "name": "德安蒲亭分理处", "city": "九江市", "longitude": 115.7626, "score": "0.986626", "oldname": "彭州通济分理处", "address": "解放路20号", "latitude": 29.3286152, "guid": "22bea764-b3ee-11e7-ae60-6c92bf041d56"}
{"province": "广东省", "distance": 0.0, "sametype": "same", "thirdId": "5de105a6-960c-4af5-b0ef-00fe4be8f348", "name": "顺德齐赞支行", "city": "佛山市", "longitude": 113.1945, "score": "0.999633", "oldname": "顺德齐赞支行", "address": "杏坛镇高赞村委会二环路6号东联大楼首层102-105", "latitude": 22.76484, "guid": "22646ac4-b3ee-11e7-810b-6c92bf041d56"}
{"province": "新疆维吾尔自治区", "distance": 39.575851729012044, "sametype": "same", "thirdId": "97b56377-cfa1-47be-a6a2-0101e5749b10", "name": "新和县支行营业室", "city": "阿克苏地区", "longitude": 82.61388, "score": "0.910636", "oldname": "昆山巴城支行", "address": "新沙路48号", "latitude": 41.5496864, "guid": "2283dd46-b3ee-11e7-950e-6c92bf041d56"}
{"province": "四川省", "distance": 15.244570331872291, "sametype": "same", "thirdId": "f64b0a75-2a4b-487a-9ddb-0108062f1edb", "name": "马边张坝分理处", "city": "乐山市", "longitude": 103.546951, "score": "0.955927", "oldname": "武邑建设西路分理处", "address": "建设街92号", "latitude": 28.84244, "guid": "22e1737a-b3ee-11e7-b177-6c92bf041d56"}
{"province": "福建省", "distance": 8.506112872073066, "sametype": "same", "thirdId": "5cea3d24-663a-468a-a72a-01088f80a2fe", "name": "洛江支行营业室", "city": "泉州市", "longitude": 118.668427, "score": "0.959117", "oldname": "信阳直属支行营业室", "address": "国土资源局档案综合大楼一、二层", "latitude": 24.9442787, "guid": "227f3b56-b3ee-11e7-8d40-6c92bf041d56"}
{"province": "陕西省", "distance": 14.99738654150995, "sametype": "same", "thirdId": "c2937b2e-e261-4303-bdee-0109e9a53d37", "name": "富平县庄里分理处", "city": "渭南市", "longitude": 109.115158, "score": "0.978509", "oldname": "景洪城西支行", "address": "庄里镇北新街", "latitude": 34.46883, "guid": "22f22cb0-b3ee-11e7-9fe7-6c92bf041d56"}
{"province": "上海市", "distance": 0.0, "sametype": "same", "thirdId": "873735ec-b530-4dbb-9212-010ce3ed8348", "name": "上海株洲路支行", "city": "上海市", "longitude": 121.465172, "score": "0.997244", "oldname": "上海株洲路支行", "address": "中山北一路909号", "latitude": 31.2789135, "guid": "22663f7a-b3ee-11e7-8d06-6c92bf041d56"}
{"province": "广西壮族自治区", "distance": 0.0, "sametype": "same", "thirdId": "04b78492-a03d-440e-b728-010d4fe39222", "name": "北流民安分理处", "city": "玉林市", "longitude": 110.072861, "score": "0.991974", "oldname": "北流民安分理处", "address": "民安镇十字铺永兴街50号", "latitude": 22.1154118, "guid": "22669fa6-b3ee-11e7-aee4-6c92bf041d56"}
{"province": "江西省", "distance": 0.0, "sametype": "same", "thirdId": "964b82f1-0539-4a15-aeb7-010dfe37c4d4", "name": "吉安广贸支行", "city": "吉安市", "longitude": 115.015808, "score": "0.995421", "oldname": "吉安广贸支行", "address": "吉安贸易广场中心街73、75、77号", "latitude": 27.0986, "guid": "2266ffdc-b3ee-11e7-8b90-6c92bf041d56"}
{"province": "广西壮族自治区", "distance": 0.0, "sametype": "same", "thirdId": "bc58178c-5352-4ec5-8714-011388ba4b88", "name": "平果旺江支行", "city": "百色市", "longitude": 107.591385, "score": "0.933637", "oldname": "平果旺江支行", "address": "马头镇教育路518-1号", "latitude": 23.3241024, "guid": "22675ffe-b3ee-11e7-a1c8-6c92bf041d56"}
{"province": "四川省", "distance": 3.3455707079656896, "sametype": "same", "thirdId": "edc82c03-bc11-4972-88a3-0119e4c2e63a", "name": "丹棱齐乐分理处", "city": "眉山市", "longitude": 103.509521, "score": "0.951285", "oldname": "营山骆市分理处", "address": "小南街25号", "latitude": 30.013567, "guid": "22bc4816-b3ee-11e7-9de5-6c92bf041d56"}
{"province": "江西省", "distance": 11.992938244979094, "sametype": "same", "thirdId": "c8396d7a-1fa3-45e6-bac4-0120312ae80f", "name": "信丰县支行营业室", "city": "赣州市", "longitude": 114.93766, "score": "0.913481", "oldname": "金平苗族瑶族傣族自治县支行营业室", "address": "嘉定镇阳明北路140号", "latitude": 25.384655, "guid": "22b1e4c0-b3ee-11e7-9332-6c92bf041d56"}
{"province": "广东省", "distance": 7.350583800643024, "sametype": "same", "thirdId": "223169da-250b-4a6f-bde4-01222a5e55e4", "name": "广州金鹰大厦支行", "city": "广州市", "longitude": 113.278229, "score": "0.878513", "oldname": "荆州太湖支行", "address": "北教场横路1号大楼首层", "latitude": 23.1379528, "guid": "22f32aac-b3ee-11e7-8fb2-6c92bf041d56"}
{"province": "黑龙江省", "distance": 21.923310737346576, "sametype": "same", "thirdId": "60906ee0-5710-44d7-957f-01225fed4d93", "name": "虎林文化街分理处", "city": "鸡西市", "longitude": 132.974319, "score": "0.907955", "oldname": "太原晋祠路支行", "address": "虎林镇文化街9巷5号", "latitude": 45.7685661, "guid": "22ebf5a2-b3ee-11e7-bd87-6c92bf041d56"}
{"province": "上海市", "distance": 0.0, "sametype": "same", "thirdId": "a14daabf-4258-474c-957e-0122c583a79b", "name": "上海安亭支行", "city": "上海市", "longitude": 121.162857, "score": "0.993370", "oldname": "上海安亭支行", "address": "安亭镇昌吉路187号", "latitude": 31.2949238, "guid": "22692708-b3ee-11e7-b8a6-6c92bf041d56"}
{"province": "西藏", "distance": 32.00532250110435, "sametype": "same", "thirdId": "e9ca30b0-2f4d-4fac-8d9a-01231567448a", "name": "江孜江热营业所", "city": "日喀则市", "longitude": 89.57611, "score": "0.959976", "oldname": "上海曲阳支行", "address": "西藏日喀则地区江孜县江热乡", "latitude": 28.90333, "guid": "22bc9be0-b3ee-11e7-8a32-6c92bf041d56"}
{"province": "辽宁省", "distance": 0.0, "sametype": "same", "thirdId": "a7e49264-ef72-4bfe-b585-01235c083095", "name": "阜新细河支行", "city": "阜新市", "longitude": 121.623924, "score": "0.997150", "oldname": "阜新细河支行", "address": "四合大街235号", "latitude": 42.0012, "guid": "2269de28-b3ee-11e7-b4d4-6c92bf041d56"}
{"province": "福建省", "distance": 35.63012838968307, "sametype": "same", "thirdId": "87d6f274-39b7-4cf3-9c64-01248854d239", "name": "古田松吉支行", "city": "宁德市", "longitude": 118.7465, "score": "0.833821", "oldname": "乌鲁木齐古牧地支行", "address": "六一四路331号", "latitude": 26.5772, "guid": "229682ca-b3ee-11e7-a18d-6c92bf041d56"}
{"province": "重庆市", "distance": 0.0, "sametype": "same", "thirdId": "e4d757dd-1f2a-4665-a31b-012490bb7523", "name": "重庆武隆鸭江支行", "city": "重庆市", "longitude": 107.3739, "score": "0.995565", "oldname": "重庆武隆鸭江支行", "address": "鸭江镇金龙街152号", "latitude": 29.4536, "guid": "226a8968-b3ee-11e7-8507-6c92bf041d56"}
{"province": "吉林省", "distance": 11.526130529989025, "sametype": "same", "thirdId": "b2b94f2e-4655-433a-8ed0-01253b4eb880", "name": "长春全安支行", "city": "长春市", "longitude": 125.349419, "score": "0.964769", "oldname": "化德长青支行", "address": "亚泰大街2555号", "latitude": 43.88692, "guid": "22afedb4-b3ee-11e7-b7bc-6c92bf041d56"}
{"province": "河北省", "distance": 11.680858105591156, "sametype": "same", "thirdId": "7dd5fa05-49f8-45e2-9128-0126b240033f", "name": "卢龙陈官屯分理处", "city": "秦皇岛市", "longitude": 119.024048, "score": "0.882699", "oldname": "南昌经开支行", "address": "陈官屯乡陈官屯村", "latitude": 39.97776, "guid": "22ac4c04-b3ee-11e7-ba6e-6c92bf041d56"}
{"province": "山西省", "distance": 11.886347452551922, "sametype": "same", "thirdId": "44ebafdb-b7a9-4722-850e-012b405984ab", "name": "怀仁县支行营业室", "city": "朔州市", "longitude": 113.098976, "score": "0.916862", "oldname": "同仁县支行营业室", "address": "迎宾西街86号", "latitude": 39.81679, "guid": "22a84910-b3ee-11e7-860d-6c92bf041d56"}
{"province": "西藏", "distance": 28.376358497010134, "sametype": "same", "thirdId": "1e86b682-7cf6-4afc-8701-012da462d57d", "name": "桑珠孜城南支行", "city": "日喀则市", "longitude": 88.89549, "score": "0.799008", "oldname": "潮安城南支行", "address": "日喀则市桑珠孜新区", "latitude": 29.2460155, "guid": "22923788-b3ee-11e7-8d49-6c92bf041d56"}
{"province": "湖南省", "distance": 0.0, "sametype": "same", "thirdId": "c73f063a-716b-4f22-b0ac-012e40fa1ff0", "name": "湘乡月山支行", "city": "湘潭市", "longitude": 112.315063, "score": "0.996781", "oldname": "湘乡月山支行", "address": "月山镇新桥村", "latitude": 27.8270264, "guid": "226c329a-b3ee-11e7-99f5-6c92bf041d56"}
{"province": "云南省", "distance": 7.328511176400707, "sametype": "same", "thirdId": "b8990f75-7094-434e-b892-013135eba422", "name": "大关县支行营业室", "city": "昭通市", "longitude": 103.892212, "score": "0.973429", "oldname": "秦安县支行营业室", "address": "翠华镇辕门街27号", "latitude": 27.7488632, "guid": "22748ff8-b3ee-11e7-88ed-6c92bf041d56"}
{"province": "云南", "distance": 118.67002761999106, "sametype": "same", "thirdId": "8b646409-7dd9-4b1b-92b1-0131d2f1abb5", "name": "昆明新螺蛳湾支行", "city": "昆明市", "longitude": -1, "score": "0.877545", "oldname": "仙桃爱民路支行", "address": "昆明市彩云北路昆明螺蛳湾国际商贸城商业街28幢101-107、113-118号", "latitude": -1, "guid": "22abf5a6-b3ee-11e7-9493-6c92bf041d56"}
{"province": "吉林省", "distance": 12.999095187968617, "sametype": "same", "thirdId": "6cac0cba-25c7-4f77-acd7-01384db211eb", "name": "桦甸红石中心支行", "city": "吉林市", "longitude": 127.112511, "score": "0.968773", "oldname": "上海曲阳支行", "address": "长大路1423号", "latitude": 42.99122, "guid": "22bc9be0-b3ee-11e7-8a32-6c92bf041d56"}
{"province": "河北省", "distance": 0.0, "sametype": "same", "thirdId": "8eedccd1-0d7d-4250-89d1-0139a93c77eb", "name": "迁安马兰新村支行", "city": "唐山市", "longitude": 118.639374, "score": "0.994171", "oldname": "迁安马兰新村支行", "address": "马兰庄镇刘官营村南", "latitude": 40.1010857, "guid": "226d9a9a-b3ee-11e7-99ec-6c92bf041d56"}
{"province": "河北省", "distance": 13.11780154307037, "sametype": "same", "thirdId": "39c08944-b31a-4991-9775-013f03490d90", "name": "三河市支行营业室", "city": "廊坊市", "longitude": 117.072823, "score": "0.905941", "oldname": "图们市支行营业室", "address": "迎宾北路40号", "latitude": 39.9954071, "guid": "22c6b1fc-b3ee-11e7-b699-6c92bf041d56"}
{"province": "河南省", "distance": 0.0, "sametype": "same", "thirdId": "f8a846b3-5ef5-4c93-a0fb-014119cff8f8", "name": "滑县高平支行", "city": "安阳市", "longitude": 114.778496, "score": "0.993759", "oldname": "滑县高平支行", "address": "高平镇高平集", "latitude": 35.3738556, "guid": "226e5890-b3ee-11e7-ab95-6c92bf041d56"}
{"province": "内蒙古自治区", "distance": 19.31068417411524, "sametype": "same", "thirdId": "914f693d-c1a2-475f-939b-0141744c66dd", "name": "霍林郭勒商贸分理处", "city": "通辽市", "longitude": 119.663109, "score": "0.952779", "oldname": "大竹乌木分理处", "address": "珠斯花大街中段商贸中心一楼", "latitude": 45.53306, "guid": "22af44a4-b3ee-11e7-b112-6c92bf041d56"}
{"province": "江西省", "distance": 0.0, "sametype": "same", "thirdId": "eedd7050-2727-4efc-9dad-0148c3db12ba", "name": "修水渣津分理处", "city": "九江市", "longitude": 114.244911, "score": "0.988963", "oldname": "修水渣津分理处", "address": "渣津镇", "latitude": 29.0048084, "guid": "226f16f4-b3ee-11e7-9322-6c92bf041d56"}
{"province": "辽宁", "distance": 24.14615682242787, "sametype": "same", "thirdId": "a543abe8-6f5a-4a8f-ab55-014a18d1bc9d", "name": "抚顺圣大支行", "city": "抚顺市", "longitude": 123.940193, "score": "0.942744", "oldname": "北流民安分理处", "address": "抚顺市顺城区新城路东段8号楼", "latitude": 41.8824043, "guid": "22669fa6-b3ee-11e7-aee4-6c92bf041d56"}
{"province": "西藏自治区", "distance": 21.874588836984845, "sametype": "same", "thirdId": "218b1fa9-39c0-48b0-be76-014fd33a9088", "name": "类乌齐巴夏营业所", "city": "昌都地区", "longitude": 96.49861, "score": "0.955143", "oldname": "廊坊银河支行", "address": "卡玛多乡", "latitude": 31.1449986, "guid": "22f27fda-b3ee-11e7-9f17-6c92bf041d56"}
{"province": "四川省", "distance": 0.0, "sametype": "same", "thirdId": "cf45adad-48c8-4a1c-b1dd-0150d6571230", "name": "乐山嘉州支行", "city": "乐山市", "longitude": 103.765007, "score": "0.995022", "oldname": "乐山嘉州支行", "address": "嘉定中路54号", "latitude": 29.5786457, "guid": "227032aa-b3ee-11e7-af13-6c92bf041d56"}
{"province": "山东省", "distance": 5.8667441060769905, "sametype": "same", "thirdId": "f961e2a1-705f-42f2-82d9-0152a4f98b48", "name": "济南银河支行营业室", "city": "济南市", "longitude": 116.997223, "score": "0.966607", "oldname": "中阳新城支行", "address": "经七路168号", "latitude": 36.65551, "guid": "227ae0a6-b3ee-11e7-8e15-6c92bf041d56"}
{"province": "江西省", "distance": 0.0, "sametype": "same", "thirdId": "c30a01dd-fb7b-4846-817d-01539a3a904e", "name": "安义龙津分理处", "city": "南昌市", "longitude": 115.550232, "score": "0.995385", "oldname": "安义龙津分理处", "address": "东门路149号", "latitude": 28.84048, "guid": "2270ef42-b3ee-11e7-82e3-6c92bf041d56"}
{"province": "甘肃省", "distance": 0.0, "sametype": "same", "thirdId": "69a871a6-72df-41a9-9682-01572e5c4052", "name": "张掖县府街支行", "city": "张掖市", "longitude": 100.452347, "score": "0.988610", "oldname": "张掖县府街支行", "address": "县府街11号", "latitude": 38.934433, "guid": "22714ea6-b3ee-11e7-aa36-6c92bf041d56"}
{"province": "广东省", "distance": 13.578039815007035, "sametype": "same", "thirdId": "f9e0b38f-5de1-4f37-9862-015cddad29b5", "name": "顺德杏坛支行营业室", "city": "佛山市", "longitude": 113.1568, "score": "0.934163", "oldname": "临沂汤头支行", "address": "杏坛镇齐新路18号", "latitude": 22.78915, "guid": "22cfee70-b3ee-11e7-b09e-6c92bf041d56"}
{"province": "吉林省", "distance": 0.0, "sametype": "same", "thirdId": "2c61af53-5f7d-4c4c-942c-016252a3a850", "name": "辉南县支行营业室", "city": "通化市", "longitude": 126.033943, "score": "0.981986", "oldname": "辉南县支行营业室", "address": "朝阳镇爱国路28号", "latitude": 42.6845131, "guid": "22720b7a-b3ee-11e7-aead-6c92bf041d56"}
{"province": "云南省", "distance": 38.64464898939639, "sametype": "same", "thirdId": "3dee473e-f203-46d2-9e32-0162ee553fc6", "name": "勐腊县支行营业室", "city": "西双版纳傣族自治州", "longitude": 101.5627, "score": "0.977397", "oldname": "鹤岗中心分理处", "address": "景岗街1号", "latitude": 21.4555, "guid": "22e8ecfe-b3ee-11e7-b0f3-6c92bf041d56"}
{"province": "海南", "distance": 0.0, "sametype": "same", "thirdId": "8dd68614-461e-47ce-aa8f-0167091b81cd", "name": "万宁龙滚支行", "city": "万宁市", "longitude": 110.517929, "score": "0.996205", "oldname": "万宁龙滚支行", "address": "海南省万宁市龙滚镇", "latitude": 19.059948, "guid": "2272cd94-b3ee-11e7-970b-6c92bf041d56"}
{"province": "江苏省", "distance": 0.0, "sametype": "same", "thirdId": "feff6674-38be-421f-b7c6-016d2b06471a", "name": "常州华城支行", "city": "常州市", "longitude": 119.601791, "score": "0.995442", "oldname": "常州华城支行", "address": "华城中路68号7-115", "latitude": 31.7424927, "guid": "227326fe-b3ee-11e7-9593-6c92bf041d56"}
{"province": "安徽省", "distance": 5.7984991418849825, "sametype": "same", "thirdId": "fc487712-257e-4606-b58a-01708bc41013", "name": "定远东大街支行", "city": "滁州市", "longitude": 117.684326, "score": "0.918451", "oldname": "龙口南山支行", "address": "东大街105号", "latitude": 32.5238876, "guid": "2281bdea-b3ee-11e7-b958-6c92bf041d56"}
{"province": "辽宁省", "distance": 7.144399722783621, "sametype": "same", "thirdId": "77e69eff-851c-4cc6-a489-01717da85b74", "name": "抚顺七百支行", "city": "抚顺市", "longitude": 123.807251, "score": "0.898125", "oldname": "天津第六田园支行", "address": "雷锋路东段57号", "latitude": 41.84945, "guid": "22e2ebba-b3ee-11e7-a096-6c92bf041d56"}
{"province": "江西省", "distance": 23.691967979856596, "sametype": "same", "thirdId": "8d90fa65-c601-4bd5-a604-017a24b92508", "name": "渝水支行营业室", "city": "新余市", "longitude": 114.954559, "score": "0.894037", "oldname": "安多县支行营业室", "address": "公园北路抱石名 居A栋一楼103-107号商铺", "latitude": 27.8002281, "guid": "22a34b72-b3ee-11e7-b2b0-6c92bf041d56"}
{"province": "甘肃省", "distance": 8.931055583290929, "sametype": "same", "thirdId": "11e6d80c-59c3-4e45-ae83-017a37f3779c", "name": "秦安县支行营业室", "city": "天水市", "longitude": 105.670876, "score": "0.961539", "oldname": "怀仁县支行营业室", "address": "兴国镇11号", "latitude": 34.8582535, "guid": "226b88c2-b3ee-11e7-97f9-6c92bf041d56"}
{"province": "上海市", "distance": 0.0, "sametype": "same", "thirdId": "76650e77-b37a-4b5a-ba94-017ab31305d5", "name": "上海淞南支行", "city": "上海市", "longitude": 121.491188, "score": "0.996376", "oldname": "上海淞南支行", "address": "淞南路350号", "latitude": 31.3455677, "guid": "2274e57a-b3ee-11e7-8865-6c92bf041d56"}
{"province": "四川省", "distance": 15.569729224837447, "sametype": "same", "thirdId": "4a7c3ff2-a22d-4ad4-92ae-017d45472c8f", "name": "成都沙河堡支行", "city": "成都市", "longitude": 104.127258, "score": "0.983167", "oldname": "丰泽支行营业室", "address": "上沙河堡街11号", "latitude": 30.6201687, "guid": "227fedda-b3ee-11e7-9851-6c92bf041d56"}
{"province": "辽宁省", "distance": 21.08952658734564, "sametype": "same", "thirdId": "f0a2c156-aca8-4507-8c06-017f56502dbe", "name": "本溪合成支行", "city": "本溪市", "longitude": 123.8197, "score": "0.935286", "oldname": "铜梁安居支行", "address": "鑫丰小区1-2号楼一层", "latitude": 41.31144, "guid": "229a78da-b3ee-11e7-a900-6c92bf041d56"}
{"province": "江苏省", "distance": 1.1597398758181772, "sametype": "same", "thirdId": "c99a334d-7a33-4ec7-8aac-0185bcf49fe4", "name": "南京兴隆大街支行", "city": "南京市", "longitude": 118.727661, "score": "0.816949", "oldname": "定远东大街支行", "address": "江东南路166号", "latitude": 32.01748, "guid": "227384b4-b3ee-11e7-bfc2-6c92bf041d56"}
{"province": "江苏省", "distance": 9.73828302657906, "sametype": "same", "thirdId": "2b0686c3-866a-4fd2-89d6-0186160a4e1b", "name": "昆山分行营业部营业室", "city": "苏州市", "longitude": 120.957184, "score": "0.957196", "oldname": "北京来广营支行", "address": "商厦内", "latitude": 31.3806229, "guid": "2299d13c-b3ee-11e7-a76b-6c92bf041d56"}
{"province": "河南省", "distance": 5.018370239278015, "sametype": "same", "thirdId": "94f845be-dcc3-4b70-b880-018fc9c032d5", "name": "新安县支行营业室", "city": "洛阳市", "longitude": 112.154274, "score": "0.976580", "oldname": "滕州善国支行", "address": "慕蓉街78号", "latitude": 34.7210732, "guid": "22dbdec4-b3ee-11e7-b667-6c92bf041d56"}
{"province": "广东省", "distance": 16.21221115267445, "sametype": "same", "thirdId": "3f4e81fd-17a2-49b4-ac45-01929c12267a", "name": "顺德桂洲支行", "city": "佛山市", "longitude": 113.258888, "score": "0.981235", "oldname": "任丘市支行营业室", "address": "容桂街道容桂大道中214号", "latitude": 22.751112, "guid": "22a40c7e-b3ee-11e7-8cb6-6c92bf041d56"}
{"province": "内蒙古自治区", "distance": 0.0, "sametype": "same", "thirdId": "7905fedd-9a20-4fb5-bcdf-019424b70223", "name": "赤峰元宝山平庄支行", "city": "赤峰市", "longitude": 119.287292, "score": "0.999425", "oldname": "赤峰元宝山平庄支行", "address": "平庄镇英河街西段", "latitude": 42.03677, "guid": "22773d84-b3ee-11e7-9d79-6c92bf041d56"}
{"province": "河北省", "distance": 5.827401634228663, "sametype": "same", "thirdId": "5f8f9074-833b-4a60-9e10-01991aff8224", "name": "无极北苏分理处", "city": "石家庄市", "longitude": 114.820541, "score": "0.949461", "oldname": "赤峰松山钢铁支行", "address": "北苏镇", "latitude": 38.1566467, "guid": "22e5445a-b3ee-11e7-9575-6c92bf041d56"}
{"province": "广东省", "distance": 4.252413859339565, "sametype": "same", "thirdId": "664dee41-f633-4083-9351-01a118e3060d", "name": "深圳新沙支行", "city": "深圳市", "longitude": 114.044456, "score": "0.934383", "oldname": "徐闻曲界支行", "address": "金地一路瑞丰园购物广场E05商铺", "latitude": 22.5243168, "guid": "225e7d76-b3ee-11e7-afa4-6c92bf041d56"}
{"province": "天津市", "distance": 17.253505241744353, "sametype": "same", "thirdId": "a198c153-e6d2-4093-aac4-01a26a41af04", "name": "天津田场支行", "city": "天津市", "longitude": 117.29538, "score": "0.916113", "oldname": "佛山龙角支行", "address": "进京路", "latitude": 39.72483, "guid": "22d2dd88-b3ee-11e7-9b1d-6c92bf041d56"}
{"province": "陕西省", "distance": 11.999691890154933, "sametype": "same", "thirdId": "b759e665-36d8-4d61-bb85-01a9d3d86a8c", "name": "西安长安区引镇分理处", "city": "西安市", "longitude": 109.105606, "score": "0.875255", "oldname": "东莞会展支行", "address": "引镇街办引驾街36号", "latitude": 34.0768547, "guid": "22cef3ee-b3ee-11e7-bb6b-6c92bf041d56"}
{"province": "山西省", "distance": 9.488707305542878, "sametype": "same", "thirdId": "f77dcad7-8f5d-4f0b-a3f1-01abcc1fa90f", "name": "怀仁云中分理处", "city": "朔州市", "longitude": 113.115608, "score": "0.602288", "oldname": "荆州太湖支行", "address": "迎宾西街南巷17号", "latitude": 39.8209839, "guid": "22f32aac-b3ee-11e7-8fb2-6c92bf041d56"}
{"province": "新疆维吾尔自治区", "distance": 90.23770860923553, "sametype": "same", "thirdId": "1e603892-68b9-47d1-bbca-01ad584f3ab4", "name": "阿克苏兵团支行营业室", "city": "阿克苏地区", "longitude": 80.29078, "score": "0.912036", "oldname": "重庆南川西外支行", "address": "迎宾路20号", "latitude": 41.18537, "guid": "22f795ec-b3ee-11e7-9a2d-6c92bf041d56"}
{"province": "山东省", "distance": 37.71973283295131, "sametype": "same", "thirdId": "a9422dad-ef50-4afe-9fb4-01ae8528f796", "name": "莱芜莱城支行营业室", "city": "莱芜市", "longitude": 117.683105, "score": "0.948151", "oldname": "阿克苏兵团支行营业室", "address": "文化北路17-1号", "latitude": 36.22631, "guid": "227939d6-b3ee-11e7-b680-6c92bf041d56"}
{"province": "云南省", "distance": 8.177848298946898, "sametype": "same", "thirdId": "09897435-1198-4e21-8963-01b5815194f0", "name": "新平漠沙分理处", "city": "玉溪市", "longitude": 101.433556, "score": "0.928638", "oldname": "贵港分行营业部营业室", "address": "漠沙镇青年路23号", "latitude": 23.5036068, "guid": "2256c3ba-b3ee-11e7-902d-6c92bf041d56"}
{"province": "山东省", "distance": 1.878531893680036, "sametype": "same", "thirdId": "fca5b561-7805-4e7f-a787-01b63e1fb90e", "name": "济宁许庄分理处", "city": "济宁市", "longitude": 116.5836, "score": "0.823745", "oldname": "淄博淄城分理处", "address": "白屯村", "latitude": 35.3778534, "guid": "2299296c-b3ee-11e7-9f08-6c92bf041d56"}
{"province": "浙江省", "distance": 2.811627946194093, "sametype": "same", "thirdId": "10722571-423e-4928-add4-01b83d43c6a8", "name": "乐清宏源支行", "city": "温州市", "longitude": 121.0397, "score": "0.967517", "oldname": "湖州菰城支行", "address": "虹桥镇新市街53-57号", "latitude": 28.2077, "guid": "22c2837a-b3ee-11e7-9b20-6c92bf041d56"}
{"province": "山西省", "distance": 1.8754607487756922, "sametype": "same", "thirdId": "aa189b65-c877-422d-8ac2-01b850cd9b0c", "name": "中阳新城支行", "city": "吕梁市", "longitude": 111.173706, "score": "0.918302", "oldname": "忻府支行营业室", "address": "滨河1号路中阳钢厂经营大楼", "latitude": 37.36638, "guid": "228b1b06-b3ee-11e7-951e-6c92bf041d56"}
{"province": "江苏省", "distance": 1.3273307838490198, "sametype": "same", "thirdId": "563c6178-4f5f-460c-9942-01bac1dda5fa", "name": "无锡洛社支行", "city": "无锡市", "longitude": 120.187553, "score": "0.956298", "oldname": "上海株洲路支行", "address": "洛社镇徐贵桥", "latitude": 31.63877, "guid": "22663f7a-b3ee-11e7-8d06-6c92bf041d56"}
{"province": "黑龙江省", "distance": 26.53090311217763, "sametype": "same", "thirdId": "e87f4dab-b887-46d9-82c7-01c6f042056a", "name": "尚志中兴分理处", "city": "哈尔滨市", "longitude": 127.992264, "score": "0.832670", "oldname": "广州美博城支行", "address": "尚志镇尚志大街27号", "latitude": 45.2142372, "guid": "2292e124-b3ee-11e7-8d22-6c92bf041d56"}
{"province": "云南省", "distance": 0.0, "sametype": "same", "thirdId": "914ef62a-a420-4e5d-9dd5-01c9a5f2e2b3", "name": "龙陵县支行营业室", "city": "保山市", "longitude": 98.6913, "score": "0.991277", "oldname": "龙陵县支行营业室", "address": "远征路2号", "latitude": 24.5901, "guid": "227bf310-b3ee-11e7-8aa4-6c92bf041d56"}
{"province": "黑龙江省", "distance": 44.07488014905875, "sametype": "same", "thirdId": "8b237bbd-8706-427d-8178-01cae5ce9f18", "name": "大庆开发区支行", "city": "大庆市", "longitude": 125.140121, "score": "0.919256", "oldname": "察布查尔县支行营业室", "address": "高新区新村建设路128号", "latitude": 46.57962, "guid": "22ded75a-b3ee-11e7-b654-6c92bf041d56"}
{"province": "福建省", "distance": 15.661873463397056, "sametype": "same", "thirdId": "1386c6b7-0d1c-4f2e-9a21-01ce447292f1", "name": "罗源县支行营业室", "city": "福州市", "longitude": 119.5516, "score": "0.969624", "oldname": "沽源县支行营业室", "address": "凤山镇东环新村19号", "latitude": 26.4876, "guid": "227d5d22-b3ee-11e7-9469-6c92bf041d56"}
{"province": "天津市", "distance": 0.0, "sametype": "same", "thirdId": "c85dae0b-391b-4176-803c-01d06ff382d1", "name": "蓟县人民东路支行", "city": "天津市", "longitude": 117.430107, "score": "0.997036", "oldname": "蓟县人民东路支行", "address": "人民东路", "latitude": 40.04221, "guid": "227d04bc-b3ee-11e7-86a4-6c92bf041d56"}
{"province": "河北省", "distance": 0.0, "sametype": "same", "thirdId": "c3e6e5c8-8807-40a5-b2d9-01d22bd9d4ac", "name": "沽源县支行营业室", "city": "张家口市", "longitude": 115.694862, "score": "0.995079", "oldname": "沽源县支行营业室", "address": "平定堡镇桥西外贸大街", "latitude": 41.6671867, "guid": "227d5d22-b3ee-11e7-9469-6c92bf041d56"}
{"province": "广东省", "distance": 0.0, "sametype": "same", "thirdId": "45306948-7ba4-49dc-84a2-01d2bc9f3bef", "name": "顺德羊额支行", "city": "佛山市", "longitude": 113.198105, "score": "0.994716", "oldname": "顺德羊额支行", "address": "伦教街道羊额新塘新景路西侧地铺", "latitude": 22.8738441, "guid": "227dbcf4-b3ee-11e7-aa7e-6c92bf041d56"}
{"province": "吉林", "distance": 0.0, "sametype": "same", "thirdId": "33384fce-8d1c-4f2e-b44e-01da430cb779", "name": "梨树十家堡支行", "city": "四平市", "longitude": 124.338539, "score": "0.992258", "oldname": "梨树十家堡支行", "address": "吉林省梨树县十家堡镇卫生院对过", "latitude": 43.3117943, "guid": "227e1c8a-b3ee-11e7-b5f4-6c92bf041d56"}
{"province": "河南省", "distance": 7.979110355917108, "sametype": "same", "thirdId": "769bbad3-3556-4d0f-ad6b-01daaf404a33", "name": "淮阳县鲁台分理处", "city": "周口市", "longitude": 115.037, "score": "0.890234", "oldname": "通江新城分理处", "address": "鲁台镇南北大街", "latitude": 33.5015, "guid": "22bb9e5c-b3ee-11e7-9a60-6c92bf041d56"}
{"province": "新疆维吾尔自治区", "distance": 0.0, "sametype": "same", "thirdId": "6ceeb90c-ebd7-4e19-a73b-01db3c4f8d19", "name": "伊犁七十六团支行", "city": "伊犁哈萨克自治州", "longitude": 80.7078857, "score": "0.989977", "oldname": "伊犁七十六团支行", "address": "七十六团松柏西路1号", "latitude": 43.046814, "guid": "227edc06-b3ee-11e7-a01d-6c92bf041d56"}
{"province": "河南省", "distance": 7.793852978695135, "sametype": "same", "thirdId": "f060c917-93f1-428f-bed8-01e0d4f2410a", "name": "信阳直属支行营业室", "city": "信阳市", "longitude": 114.085083, "score": "0.852047", "oldname": "蔚县支行营业室", "address": "民权路29号", "latitude": 32.1099548, "guid": "22baf5d8-b3ee-11e7-a344-6c92bf041d56"}
{"province": "江西", "distance": 0.0, "sametype": "same", "thirdId": "16c98c87-9534-4c99-8549-01e290f8a0ab", "name": "浮梁平安分理处", "city": "景德镇市", "longitude": 117.218636, "score": "0.991410", "oldname": "浮梁平安分理处", "address": "江西省景德镇市浮梁县房地产税费征管中心", "latitude": 29.34796, "guid": "227f9600-b3ee-11e7-a273-6c92bf041d56"}
{"province": "福建", "distance": 12.848599471627807, "sametype": "same", "thirdId": "3a0c0aa5-c3c6-409a-9e0e-01e4012df0d5", "name": "丰泽支行营业室", "city": "泉州市", "longitude": 118.603333, "score": "0.976765", "oldname": "邢台清风分理处", "address": "泉州市丰泽区泉秀路运通大厦一层", "latitude": 24.8878288, "guid": "22c7b138-b3ee-11e7-b30e-6c92bf041d56"}
{"province": "辽宁省", "distance": 31.059882939590683, "sametype": "same", "thirdId": "87b67df0-20ec-4bce-9cc6-01e65696d178", "name": "沈阳北街支行", "city": "沈阳市", "longitude": 123.416374, "score": "0.984596", "oldname": "米林羌纳营业所", "address": "黄河北大街74号", "latitude": 41.86662, "guid": "225882e0-b3ee-11e7-b721-6c92bf041d56"}
{"province": "江西省", "distance": 13.772565027317173, "sametype": "same", "thirdId": "ccad4503-c65e-4edd-a8a3-01e8a15dcba8", "name": "井冈山厦坪分理处", "city": "吉安市", "longitude": 114.268745, "score": "0.706333", "oldname": "鄂尔多斯东胜民生广场支行", "address": "厦坪镇厦坪街", "latitude": 26.71913, "guid": "22e3ee02-b3ee-11e7-ae45-6c92bf041d56"}
{"province": "河南省", "distance": 4.443306692882706, "sametype": "same", "thirdId": "9878196c-f3c5-4850-8dfb-01eef029846d", "name": "许昌思故台分理处", "city": "许昌市", "longitude": 113.827629, "score": "0.928400", "oldname": "莱芜口镇支行", "address": "三八路33号", "latitude": 34.0146027, "guid": "2249b558-b3ee-11e7-b22c-6c92bf041d56"}
{"province": "广西壮族自治区", "distance": 12.461510504715726, "sametype": "same", "thirdId": "0ec0d0d5-8102-4816-b226-01f00945ccfb", "name": "融水香山分理处", "city": "柳州市", "longitude": 109.25177, "score": "0.820859", "oldname": "临海东湖支行", "address": "寿星南路13号", "latitude": 25.064045, "guid": "22dc85fe-b3ee-11e7-a5fe-6c92bf041d56"}
{"province": "山东省", "distance": 0.0, "sametype": "same", "thirdId": "65d4130f-76c1-4fa3-a4d8-01f09581136b", "name": "龙口南山支行", "city": "烟台市", "longitude": 120.488853, "score": "0.991803", "oldname": "龙口南山支行", "address": "东江镇南山集团南山中路7号", "latitude": 37.5990448, "guid": "2281bdea-b3ee-11e7-b958-6c92bf041d56"}
{"province": "四川省", "distance": 22.126414206536058, "sametype": "same", "thirdId": "26c9a1e5-0011-4fed-8b12-01f13d45bd0c", "name": "达州石梯分理处", "city": "达州市", "longitude": 107.16172, "score": "0.900698", "oldname": "农安隆兴支行", "address": "石梯镇四通街125号", "latitude": 31.2288532, "guid": "22f132b0-b3ee-11e7-879d-6c92bf041d56"}
{"province": "山东省", "distance": 3.212426590279495, "sametype": "same", "thirdId": "d2d3ed70-cd3b-412a-ba7c-01f41dd60471", "name": "海阳东村支行", "city": "烟台市", "longitude": 121.176208, "score": "0.932206", "oldname": "淄博淄城分理处", "address": "方圆街道海政路", "latitude": 36.7775955, "guid": "2299296c-b3ee-11e7-9f08-6c92bf041d56"}
{"province": "西藏", "distance": 32.779017249831426, "sametype": "same", "thirdId": "e4e9ba2c-aa02-4e49-89a1-01f453ebeef8", "name": "吉隆口岸支行", "city": "日喀则市", "longitude": 85.50527, "score": "0.989657", "oldname": "安溪金谷支行", "address": "西藏日喀则地区吉隆县吉隆镇", "latitude": 28.3963, "guid": "22aca1a4-b3ee-11e7-8b28-6c92bf041d56"}
{"province": "福建省", "distance": 0.0, "sametype": "same", "thirdId": "11b3d400-4443-461a-8ad2-01f5b93e0f97", "name": "漳平桂林支行", "city": "龙岩市", "longitude": 117.250237, "score": "0.997255", "oldname": "漳平桂林支行", "address": "桂林林乡上桂林", "latitude": 25.169, "guid": "22832716-b3ee-11e7-b0ea-6c92bf041d56"}
{"province": "宁夏回族自治区", "distance": 12.55463190550238, "sametype": "same", "thirdId": "c713f7e6-f1bd-4c76-b694-01f6113f1bed", "name": "石嘴山建设东街分理处", "city": "石嘴山市", "longitude": 106.386696, "score": "0.980737", "oldname": "蚌埠蓝天分理处", "address": "建设东街128号", "latitude": 39.0181541, "guid": "22d8ef5c-b3ee-11e7-909c-6c92bf041d56"}
{"province": "江苏省", "distance": 0.0, "sametype": "same", "thirdId": "a68890e0-54f3-4490-ab2c-01f75d866e5c", "name": "昆山巴城支行", "city": "苏州市", "longitude": 120.880013, "score": "0.993882", "oldname": "昆山巴城支行", "address": "巴城镇湖滨商城1号3室", "latitude": 31.4526024, "guid": "2283dd46-b3ee-11e7-950e-6c92bf041d56"}
{"province": "广东", "distance": 12.156599126515415, "sametype": "same", "thirdId": "ce424c4f-73b3-44ae-9b5c-01f7830f8eda", "name": "广州东城支行营业室", "city": "广州市", "longitude": 113.336, "score": "0.998246", "oldname": "新乡汇通支行", "address": "广州市天河区东莞庄路26号之一", "latitude": 23.151, "guid": "22a2ecd6-b3ee-11e7-8f25-6c92bf041d56"}
{"province": "浙江", "distance": 1.7230775558914537, "sametype": "same", "thirdId": "ac65bca3-dab8-4bdb-994f-01fa7bab7f9a", "name": "宁波中河支行", "city": "宁波市", "longitude": 121.569382, "score": "0.994089", "oldname": "苏州现代大厦分理处", "address": "宁波市鄞州区中河街道贸城东路683、685、687、689号", "latitude": 29.822546, "guid": "2254adaa-b3ee-11e7-9b05-6c92bf041d56"}
{"province": "上海市", "distance": 0.0, "sametype": "same", "thirdId": "e2d82d3a-6e6a-4e2a-bf71-01fdf0c625e2", "name": "上海陆家宅支行", "city": "上海市", "longitude": 121.423843, "score": "0.994562", "oldname": "上海陆家宅支行", "address": "武宁路101号", "latitude": 31.2375622, "guid": "2284f424-b3ee-11e7-ad6d-6c92bf041d56"}
{"province": "浙江省", "distance": 0.0, "sametype": "same", "thirdId": "743c0b22-7e06-4d49-9aa2-01ff31aeaf69", "name": "舟山六横支行", "city": "舟山市", "longitude": 122.117432, "score": "0.997997", "oldname": "舟山六横支行", "address": "六横镇双屿路151号", "latitude": 29.7419262, "guid": "22854ed8-b3ee-11e7-839b-6c92bf041d56"}
{"province": "河南省", "distance": 7.206525732733992, "sametype": "same", "thirdId": "d9074d4d-2457-4363-8921-0201933c13df", "name": "鄢陵县张桥分理处", "city": "许昌市", "longitude": 114.239059, "score": "0.900504", "oldname": "绍兴江桥分理处", "address": "张桥乡新张桥村", "latitude": 33.96804, "guid": "2246c8a2-b3ee-11e7-af9b-6c92bf041d56"}
{"province": "四川省", "distance": 0.0, "sametype": "same", "thirdId": "2477bbb8-2425-45d9-80de-0203ca48c7d2", "name": "成都青龙支行", "city": "成都市", "longitude": 104.1051, "score": "0.995294", "oldname": "成都青龙支行", "address": "外北青龙场昭觉横路1号", "latitude": 30.7012978, "guid": "2285fe8c-b3ee-11e7-80b9-6c92bf041d56"}
{"province": "湖南省", "distance": 0.0, "sametype": "same", "thirdId": "08f244cf-eafc-4d0c-aca2-0207a43a7975", "name": "长沙黄花支行", "city": "长沙市", "longitude": 113.189034, "score": "0.990504", "oldname": "长沙黄花支行", "address": "黄花镇黄花路1号", "latitude": 28.2357426, "guid": "22865fe4-b3ee-11e7-a7d0-6c92bf041d56"}
{"province": "新疆", "distance": 0.0, "sametype": "same", "thirdId": "108e1c6a-c968-4b6c-b74b-020876154b87", "name": "喀什迎宾大道支行", "city": "喀什地区", "longitude": 75.99241, "score": "0.998804", "oldname": "喀什迎宾大道支行", "address": "新疆喀什市机场路66号（喀什地区急救中心一楼大厅）", "latitude": 39.483757, "guid": "2286bc46-b3ee-11e7-9ec7-6c92bf041d56"}
{"province": "浙江省", "distance": 6.7398156279207475, "sametype": "same", "thirdId": "388bc6ba-2378-4634-ab50-020fff14afad", "name": "余姚历山支行", "city": "宁波市", "longitude": 121.193367, "score": "0.944951", "oldname": "泗水县支行营业室", "address": "低塘街道历山光明路34号", "latitude": 30.166853, "guid": "22a17dce-b3ee-11e7-85b2-6c92bf041d56"}
{"province": "广东省", "distance": 14.347392480592804, "sametype": "same", "thirdId": "66f5fd36-f343-4a99-bd2f-0211f5abe5a2", "name": "佛山金兰支行", "city": "佛山市", "longitude": 113.115547, "score": "0.920475", "oldname": "清河连庄分理处", "address": "普澜二路27号首层1号", "latitude": 23.01525, "guid": "229486dc-b3ee-11e7-ab6b-6c92bf041d56"}
{"province": "重庆市", "distance": 13.280931490953108, "sametype": "same", "thirdId": "5288e5b4-9dd1-464b-b81f-021401ff64d2", "name": "璧山县支行营业室", "city": "重庆市", "longitude": 106.22583, "score": "0.964406", "oldname": "洛江支行营业室", "address": "璧城镇文风路140号", "latitude": 29.5880833, "guid": "22657eb4-b3ee-11e7-b9b7-6c92bf041d56"}
{"province": "河北省", "distance": 0.0, "sametype": "same", "thirdId": "d1e2e53c-9b16-4c84-a2bf-0217d1c752eb", "name": "石家庄华兴支行营业室", "city": "石家庄市", "longitude": 114.511444, "score": "0.900363", "oldname": "石家庄华兴支行营业室", "address": "建设北大街230号", "latitude": 38.0632629, "guid": "228815a0-b3ee-11e7-8187-6c92bf041d56"}
{"province": "安徽省", "distance": 0.0, "sametype": "same", "thirdId": "a06ac47b-b878-4c87-a5f5-02185bd2b434", "name": "金寨新城支行", "city": "六安市", "longitude": 115.935, "score": "0.997582", "oldname": "金寨新城支行", "address": "梅山镇新江路751号", "latitude": 31.7153187, "guid": "22886d16-b3ee-11e7-afa0-6c92bf041d56"}
{"province": "黑龙江省", "distance": 18.796538019348702, "sametype": "same", "thirdId": "eaf1dc69-51ce-4446-bacf-02187bfa864d", "name": "绥滨县支行营业室", "city": "鹤岗市", "longitude": 131.86676, "score": "0.987464", "oldname": "蔚县支行营业室", "address": "松滨大街东段北侧", "latitude": 47.287, "guid": "22baf5d8-b3ee-11e7-a344-6c92bf041d56"}
{"province": "浙江省", "distance": 7.497703562903598, "sametype": "same", "thirdId": "7576b159-6592-42dd-bd62-0218d553e488", "name": "东阳上卢支行", "city": "金华市", "longitude": 120.283, "score": "0.908385", "oldname": "莱芜口镇支行", "address": "江北街道上卢社区上卢小区大观街", "latitude": 29.3020611, "guid": "2249b558-b3ee-11e7-b22c-6c92bf041d56"}
{"province": "浙江省", "distance": 0.0, "sametype": "same", "thirdId": "25cf8dd7-99ff-49f9-bf9f-021a768f3c7b", "name": "文成八达支行", "city": "温州市", "longitude": 120.095322, "score": "0.998136", "oldname": "文成八达支行", "address": "大学镇前街168号", "latitude": 27.79075, "guid": "22897116-b3ee-11e7-9eb2-6c92bf041d56"}
{"province": "辽宁", "distance": 24.754582798567167, "sametype": "same", "thirdId": "ebac3f60-5206-43a0-b821-021c0b0de6b6", "name": "鞍山银丰支行", "city": "鞍山市", "longitude": 122.995277, "score": "0.969642", "oldname": "罗平环城分理处", "address": "辽宁省鞍山市铁东区五道街59-51-2号", "latitude": 41.1130447, "guid": "224a7808-b3ee-11e7-bc4c-6c92bf041d56"}
{"province": "吉林省", "distance": 16.86686151892498, "sametype": "same", "thirdId": "b600162d-cb77-4f6e-a66b-021f3fbc99a5", "name": "白城分行营业部营业室", "city": "白城市", "longitude": 122.842575, "score": "0.960231", "oldname": "临海东湖支行", "address": "中兴东大路1６号", "latitude": 45.62231, "guid": "22dc85fe-b3ee-11e7-a5fe-6c92bf041d56"}
{"province": "上海市", "distance": 8.744612213800501, "sametype": "same", "thirdId": "abf5c632-ea62-42cc-8f14-021f75d74a12", "name": "上海长寿支行", "city": "上海市", "longitude": 121.439026, "score": "0.972685", "oldname": "天津咸水沽支行", "address": "常德路1223-1225号", "latitude": 31.2434483, "guid": "22bfa2f4-b3ee-11e7-902d-6c92bf041d56"}
{"province": "北京市", "distance": 21.63698635969301, "sametype": "same", "thirdId": "a0223b66-1bbd-4888-8fbc-0220a563eb5e", "name": "北京花园东路分理处", "city": "北京市", "longitude": 116.370049, "score": "0.983653", "oldname": "大理鸳浦街分理处", "address": "花园东路8号", "latitude": 39.9850159, "guid": "22eae586-b3ee-11e7-a2d3-6c92bf041d56"}
{"province": "山西省", "distance": 0.0, "sametype": "same", "thirdId": "1ecc3fba-d9ff-4fa6-b238-022c2dfe57b0", "name": "忻府支行营业室", "city": "忻州市", "longitude": 112.7244, "score": "0.982945", "oldname": "忻府支行营业室", "address": "利民西街20号", "latitude": 38.4212265, "guid": "228b1b06-b3ee-11e7-951e-6c92bf041d56"}
{"province": "江苏省", "distance": 0.0, "sametype": "same", "thirdId": "7e20ec31-d8d7-4c17-bb50-022ebd216716", "name": "丰县赵庄支行", "city": "徐州市", "longitude": 116.464828, "score": "0.996986", "oldname": "丰县赵庄支行", "address": "赵庄镇", "latitude": 34.7412, "guid": "228b6eee-b3ee-11e7-9323-6c92bf041d56"}
{"province": "天津市", "distance": 2.4249070547148053, "sametype": "same", "thirdId": "c739200d-fded-4393-8ee6-022fbd311b6c", "name": "天津中山门支行", "city": "天津市", "longitude": 117.260674, "score": "0.988187", "oldname": "淄博新村西路分理处", "address": "中山门柏林公寓A座6号", "latitude": 39.10301, "guid": "22e64422-b3ee-11e7-af04-6c92bf041d56"}
{"province": "江苏省", "distance": 21.165936780334274, "sametype": "same", "thirdId": "ee8caa9e-d08c-49b0-a33b-02375bd6c8d0", "name": "常州金坛城西支行", "city": "常州市", "longitude": 119.5707, "score": "0.992889", "oldname": "景洪城西支行", "address": "西门大街22号", "latitude": 31.7441311, "guid": "22f22cb0-b3ee-11e7-9fe7-6c92bf041d56"}
{"province": "云南省", "distance": 38.282971063153944, "sametype": "same", "thirdId": "3bda24f1-3cff-457a-a6e0-02375c39d581", "name": "保山下村分理处", "city": "保山市", "longitude": 99.1976, "score": "0.899074", "oldname": "伊春乌伊岭支行营业室", "address": "下村街320国道旁", "latitude": 25.14017, "guid": "22be0016-b3ee-11e7-9fdc-6c92bf041d56"}
{"province": "山东省", "distance": 0.0, "sametype": "same", "thirdId": "4874e4b3-0c90-48b1-95da-0241b4980e40", "name": "沂水城北分理处", "city": "临沂市", "longitude": 118.643707, "score": "0.989037", "oldname": "沂水城北分理处", "address": "沂水镇长安中路13-1号", "latitude": 35.8036, "guid": "228cc154-b3ee-11e7-bc3d-6c92bf041d56"}
{"province": "福建省", "distance": 6.885430822033856, "sametype": "same", "thirdId": "17cf9ed3-acaf-4510-8ca6-0243179f7f8d", "name": "建瓯芝城支行", "city": "南平市", "longitude": 118.321152, "score": "0.962561", "oldname": "濉溪临涣支行", "address": "瓯宁路112号", "latitude": 27.0338573, "guid": "22b6e876-b3ee-11e7-b3b7-6c92bf041d56"}
{"province": "云南省", "distance": 9.254015488956309, "sametype": "same", "thirdId": "c8d2dd45-29bf-4fda-a07e-0244c59cad36", "name": "梁河县支行营业室", "city": "德宏傣族景颇族自治州", "longitude": 98.30073, "score": "0.938460", "oldname": "璧山县支行营业室", "address": "遮岛镇先锋路38号", "latitude": 24.810051, "guid": "2287c028-b3ee-11e7-8461-6c92bf041d56"}
{"province": "陕西省", "distance": 8.054426989205838, "sametype": "same", "thirdId": "e35faa59-3f70-4647-9782-024816438b36", "name": "礼泉县建设路分理处", "city": "咸阳市", "longitude": 108.435677, "score": "0.868272", "oldname": "乌兰察布民建路分理处", "address": "市政街东段", "latitude": 34.4790535, "guid": "229ed628-b3ee-11e7-a2ad-6c92bf041d56"}
{"province": "内蒙古自治区", "distance": 0.0, "sametype": "same", "thirdId": "0c1beb9a-23e0-422e-a47a-024da60bf3a0", "name": "阿鲁科尔沁慧花园分理处", "city": "赤峰市", "longitude": 120.0899, "score": "0.999343", "oldname": "阿鲁科尔沁慧花园分理处", "address": "天山镇汉林街中段", "latitude": 43.87775, "guid": "228e152c-b3ee-11e7-8f56-6c92bf041d56"}
{"province": "四川省", "distance": 14.285001135947782, "sametype": "same", "thirdId": "f52ad380-e75a-4084-8fab-02503b38188d", "name": "米易河西分理处", "city": "攀枝花市", "longitude": 102.115784, "score": "0.718262", "oldname": "长汀濯田支行", "address": "攀莲镇桥西路25号", "latitude": 26.8932533, "guid": "22e941e0-b3ee-11e7-a86e-6c92bf041d56"}
{"province": "陕西省", "distance": 0.0, "sametype": "same", "thirdId": "1ef3efc7-459e-4bdc-bcb5-0252efe4579f", "name": "宝鸡清姜路分理处", "city": "宝鸡市", "longitude": 107.140862, "score": "0.996761", "oldname": "宝鸡清姜路分理处", "address": "新宝路36号", "latitude": 34.3587837, "guid": "228ebe14-b3ee-11e7-968e-6c92bf041d56"}
{"province": "山东省", "distance": 14.0017625902124, "sametype": "same", "thirdId": "3000fcbe-30e5-42b4-abfa-0255509f129a", "name": "聊城新区分理处", "city": "聊城市", "longitude": 115.958626, "score": "0.914291", "oldname": "乐山嘉州支行", "address": "兴华西路303号", "latitude": 36.46087, "guid": "227032aa-b3ee-11e7-af13-6c92bf041d56"}
{"province": "湖北省", "distance": 10.314697990885731, "sametype": "same", "thirdId": "99881fed-aa39-4b98-939c-02564c70a390", "name": "武汉滠口支行", "city": "武汉市", "longitude": 114.354256, "score": "0.955532", "oldname": "荣成荣安路分理处", "address": "滠口滠阳大道52号", "latitude": 30.716898, "guid": "2251cfa4-b3ee-11e7-a229-6c92bf041d56"}
{"province": "辽宁省", "distance": 9.035354374244443, "sametype": "same", "thirdId": "c948270a-b588-4745-9a85-0256c47ea228", "name": "岫岩满族自治县支行营业室", "city": "鞍山市", "longitude": 123.288109, "score": "0.996535", "oldname": "曲周县支行营业室", "address": "阜昌路64号", "latitude": 40.279007, "guid": "22a5278a-b3ee-11e7-9777-6c92bf041d56"}
{"province": "贵州省", "distance": 0.0, "sametype": "same", "thirdId": "7cce3df9-0c0f-4743-8a9a-0257e9df3d66", "name": "凯里阳光支行", "city": "黔东南苗族侗族自治州", "longitude": 107.976143, "score": "0.991857", "oldname": "凯里阳光支行", "address": "宁波西路", "latitude": 26.57327, "guid": "2290153e-b3ee-11e7-91b4-6c92bf041d56"}
{"province": "陕西省", "distance": 2.8754965555835756, "sametype": "same", "thirdId": "0da1775e-4efe-439f-85af-0261bb969166", "name": "泾阳县泾干路分理处", "city": "咸阳市", "longitude": 108.832504, "score": "0.936246", "oldname": "栾川县支行营业室", "address": "泾干路中段", "latitude": 34.53185, "guid": "22b04160-b3ee-11e7-933b-6c92bf041d56"}
{"province": "贵州省", "distance": 17.952583364644312, "sametype": "same", "thirdId": "35e2577e-7c31-47d2-98ea-02687465295f", "name": "金沙安底支行", "city": "毕节地区", "longitude": 106.437729, "score": "0.946715", "oldname": "赤峰松山钢铁支行", "address": "安底镇牛市街", "latitude": 29.3942719, "guid": "22e5445a-b3ee-11e7-9575-6c92bf041d56"}
{"province": "广西壮族自治区", "distance": 12.853866625890525, "sametype": "same", "thirdId": "95b221e8-a329-425c-9dcb-026f7e2a73d7", "name": "平果县支行营业室", "city": "百色市", "longitude": 107.584442, "score": "0.956533", "oldname": "温县支行营业室", "address": "马头镇新兴路272号", "latitude": 23.3227177, "guid": "2263b03e-b3ee-11e7-8a94-6c92bf041d56"}
{"province": "安徽省", "distance": 0.0, "sametype": "same", "thirdId": "e1721030-e59b-4544-8aad-027df7846ced", "name": "淮南淮滨支行", "city": "淮南市", "longitude": 117.026314, "score": "0.989194", "oldname": "淮南淮滨支行", "address": "淮舜北路147号", "latitude": 32.658226, "guid": "22918dec-b3ee-11e7-a00a-6c92bf041d56"}
{"province": "河北省", "distance": 0.0, "sametype": "same", "thirdId": "6acacd16-33e9-404e-a802-027f769cc5ab", "name": "景县广川分理处", "city": "衡水市", "longitude": 115.932182, "score": "0.983083", "oldname": "景县广川分理处", "address": "广川镇", "latitude": 37.5653152, "guid": "2291e2c4-b3ee-11e7-861c-6c92bf041d56"}
{"province": "广东省", "distance": 0.0, "sametype": "same", "thirdId": "cdc906f1-7f35-4b01-8dcb-02801865942c", "name": "潮安城南支行", "city": "潮州市", "longitude": 116.677353, "score": "0.991230", "oldname": "潮安城南支行", "address": "庵埠镇大霞路中段", "latitude": 23.46797, "guid": "22923788-b3ee-11e7-8d49-6c92bf041d56"}
{"province": "吉林省", "distance": 14.268302604807666, "sametype": "same", "thirdId": "e1ca062b-9492-4edb-977a-028418c4a19d", "name": "通化县二密分理处", "city": "通化市", "longitude": 125.828339, "score": "0.932367", "oldname": "金华汤溪支行", "address": "二密镇二密河西街31号", "latitude": 41.7893372, "guid": "22e4ef14-b3ee-11e7-96bc-6c92bf041d56"}
{"province": "广东省", "distance": 11.8560028338907, "sametype": "same", "thirdId": "595a8569-1a98-4836-b8d4-02881ac9fa64", "name": "广州美博城支行", "city": "广州市", "longitude": 113.251381, "score": "0.990834", "oldname": "成都太升支行", "address": "广园西路121号广州美博城A附楼首层", "latitude": 23.1553345, "guid": "22da90aa-b3ee-11e7-b6f7-6c92bf041d56"}
{"province": "广东省", "distance": 0.06411283453225164, "sametype": "same", "thirdId": "ca17bdbe-53b8-4c50-8b8b-0291c14017fb", "name": "顺德青松支行", "city": "佛山市", "longitude": 113.258537, "score": "0.996351", "oldname": "顺德齐赞支行", "address": "容桂街道容桂大道中92号", "latitude": 22.7617226, "guid": "22646ac4-b3ee-11e7-810b-6c92bf041d56"}
{"province": "天津市", "distance": 0.0, "sametype": "same", "thirdId": "c976abc0-e9a2-42c0-b935-0293472db807", "name": "天津红城支行", "city": "天津市", "longitude": 117.237595, "score": "0.993990", "oldname": "天津红城支行", "address": "卫国道133号", "latitude": 39.1442146, "guid": "229389ee-b3ee-11e7-abfe-6c92bf041d56"}
{"province": "吉林", "distance": 0.24857176593991626, "sametype": "same", "thirdId": "2d860107-41e8-4067-a411-02968b6af709", "name": "梨树郭家店支行", "city": "四平市", "longitude": 124.583885, "score": "0.969510", "oldname": "梨树十家堡支行", "address": "吉林省梨树县郭家店镇道下街站台委", "latitude": 43.35171, "guid": "227e1c8a-b3ee-11e7-b5f4-6c92bf041d56"}
{"province": "安徽", "distance": 0.0, "sametype": "same", "thirdId": "c6d3b451-0b2d-4c74-a8ee-0297ef3e445c", "name": "六安城南支行", "city": "六安市", "longitude": 0, "score": "0.987329", "oldname": "六安城南支行", "address": "六安市六佛路与滨河路交叉口红达星河城3号楼1层110-117号商铺", "latitude": 0, "guid": "22943376-b3ee-11e7-8fc4-6c92bf041d56"}
{"province": "河北", "distance": 0.0, "sametype": "same", "thirdId": "ba6aa3b9-8fbd-4c35-8397-02989f5fbd14", "name": "清河连庄分理处", "city": "邢台市", "longitude": 115.759758, "score": "0.990266", "oldname": "清河连庄分理处", "address": "河北省清河县连庄镇", "latitude": 37.1168747, "guid": "229486dc-b3ee-11e7-ab6b-6c92bf041d56"}
{"province": "河南", "distance": 0.0, "sametype": "same", "thirdId": "a16cac6b-a6e0-43ee-ae8d-029d5fd785f1", "name": "南乐县韩张支行", "city": "濮阳市", "longitude": 115.339607, "score": "0.994946", "oldname": "南乐县韩张支行", "address": "濮阳市南乐县韩张镇韩张", "latitude": 36.0715, "guid": "2294daf6-b3ee-11e7-b520-6c92bf041d56"}
{"province": "湖北省", "distance": 9.296444189731007, "sametype": "same", "thirdId": "9aef116b-2427-416b-b4b2-029e434a1cdc", "name": "三峡龙泉支行", "city": "宜昌市", "longitude": 111.494125, "score": "0.983161", "oldname": "沧州东环支行", "address": "龙泉镇龙镇村", "latitude": 30.7260513, "guid": "224dcbe8-b3ee-11e7-b7ce-6c92bf041d56"}
{"province": "天津市", "distance": 0.0, "sametype": "same", "thirdId": "3930b9bd-e202-4a12-98fc-02a153b6caa2", "name": "天津金丰支行", "city": "天津市", "longitude": 117.2099, "score": "0.992749", "oldname": "天津金丰支行", "address": "中山路宇阳公寓底商", "latitude": 39.1626434, "guid": "2295847e-b3ee-11e7-9e9e-6c92bf041d56"}
{"province": "广西壮族自治区", "distance": 0.0, "sametype": "same", "thirdId": "9e7fe892-e85c-403b-929f-02a4f1d6ace2", "name": "城郊支行营业室", "city": "北海市", "longitude": 109.131737, "score": "0.977249", "oldname": "城郊支行营业室", "address": "深圳路41号", "latitude": 21.4824028, "guid": "2295d870-b3ee-11e7-996e-6c92bf041d56"}
{"province": "陕西省", "distance": 4.280266202598067, "sametype": "same", "thirdId": "39f977e7-aeb6-4521-834b-02a7fb48654c", "name": "商洛大荆分理处", "city": "商洛市", "longitude": 109.869, "score": "0.954918", "oldname": "荆州太湖支行", "address": "大荆镇街道", "latitude": 34.0572, "guid": "22f32aac-b3ee-11e7-8fb2-6c92bf041d56"}
{"province": "新疆维吾尔自治区", "distance": 30.943444445025822, "sametype": "same", "thirdId": "60203513-247b-4637-80d5-02aaa96bc33d", "name": "乌鲁木齐古牧地支行", "city": "乌鲁木齐市", "longitude": 87.64623, "score": "0.994383", "oldname": "莱芜口镇支行", "address": "古牧地中路164号", "latitude": 43.96338, "guid": "2249b558-b3ee-11e7-b22c-6c92bf041d56"}
{"province": "浙江省", "distance": 0.0, "sametype": "same", "thirdId": "e7cfd8c5-8f74-4574-8e7a-02acd6c593c5", "name": "湖州红丰支行", "city": "湖州市", "longitude": 120.09668, "score": "0.991623", "oldname": "湖州红丰支行", "address": "龙溪南路243-251号", "latitude": 30.860384, "guid": "2296d72a-b3ee-11e7-8435-6c92bf041d56"}
{"province": "安徽", "distance": 0.0, "sametype": "same", "thirdId": "b504d328-f5fc-4525-88e4-02ad6b5a2613", "name": "庐江龙桥支行", "city": "合肥市", "longitude": 117.448914, "score": "0.997966", "oldname": "庐江龙桥支行", "address": "庐江县龙桥镇缺口街道裴桂路东侧", "latitude": 31.1403084, "guid": "22972c8e-b3ee-11e7-9796-6c92bf041d56"}
{"province": "广西壮族自治区", "distance": 0.0, "sametype": "same", "thirdId": "d12750b7-3752-4e4e-b0ad-02b2b445d054", "name": "永福苏桥支行", "city": "桂林市", "longitude": 110.0588, "score": "0.999431", "oldname": "永福苏桥支行", "address": "苏桥镇荣镇路", "latitude": 25.10196, "guid": "2297821a-b3ee-11e7-a1bc-6c92bf041d56"}
{"province": "河北省", "distance": 2.184180070962794, "sametype": "same", "thirdId": "faec432d-510d-4ccc-9bbc-02b52171762a", "name": "新乐长寿分理处", "city": "石家庄市", "longitude": 114.702751, "score": "0.992363", "oldname": "沧州东环支行", "address": "新开东路49号", "latitude": 38.3467331, "guid": "224dcbe8-b3ee-11e7-b7ce-6c92bf041d56"}
{"province": "辽宁省", "distance": 4.761847191208526, "sametype": "same", "thirdId": "0333847e-1f50-43ab-9a22-02b5b0dfc383", "name": "辽河支行营业室", "city": "盘锦市", "longitude": 122.0677, "score": "0.985111", "oldname": "蓟县人民东路支行", "address": "石油大街152号", "latitude": 41.1229134, "guid": "227d04bc-b3ee-11e7-86a4-6c92bf041d56"}
{"province": "内蒙古自治区", "distance": 31.06125960292663, "sametype": "same", "thirdId": "8d88fc15-aa71-4210-b817-02b5e69d2268", "name": "呼和浩特奈伦支行", "city": "呼和浩特市", "longitude": 111.689445, "score": "0.880402", "oldname": "伊犁七十六团支行", "address": "新城南街", "latitude": 40.8231163, "guid": "227edc06-b3ee-11e7-a01d-6c92bf041d56"}
{"province": "吉林", "distance": 0.0, "sametype": "same", "thirdId": "9a4f22d1-2d05-4ad5-a120-02b814e26cb1", "name": "四平北一支行", "city": "四平市", "longitude": 124.385155, "score": "0.994655", "oldname": "四平北一支行", "address": "吉林省四平市铁东区北一经街98号", "latitude": 43.1707268, "guid": "2298d548-b3ee-11e7-b711-6c92bf041d56"}
{"province": "山东省", "distance": 0.0, "sametype": "same", "thirdId": "313fbc89-0d03-420f-bbc3-02b83963b859", "name": "淄博淄城分理处", "city": "淄博市", "longitude": 117.966339, "score": "0.998042", "oldname": "淄博淄城分理处", "address": "华洋街南首", "latitude": 36.6494331, "guid": "2299296c-b3ee-11e7-9f08-6c92bf041d56"}
{"province": "江苏省", "distance": 5.880443017000488, "sametype": "same", "thirdId": "9f8a95cc-1688-4e1f-a930-02badb16873d", "name": "泰兴河失支行", "city": "泰州市", "longitude": 120.1435, "score": "0.966024", "oldname": "黎川县支行营业室", "address": "河失镇河头庄五二队", "latitude": 32.2043, "guid": "22a94d92-b3ee-11e7-9efa-6c92bf041d56"}
{"province": "北京市", "distance": 14.943964868155385, "sametype": "same", "thirdId": "9b89ba89-db26-43db-ac93-02bb71441484", "name": "北京来广营支行", "city": "北京市", "longitude": 116.46537, "score": "0.956522", "oldname": "安溪金谷支行", "address": "小营路25号楼1层101室 ", "latitude": 40.0210953, "guid": "22aca1a4-b3ee-11e7-8b28-6c92bf041d56"}
{"province": "甘肃省", "distance": 19.763105900369695, "sametype": "same", "thirdId": "378eeacd-cd47-46f6-873d-02bc1703c9b9", "name": "酒泉雄关路分理处", "city": "酒泉市", "longitude": 98.49776, "score": "0.987647", "oldname": "淄博人民路分理处", "address": "雄关路7号", "latitude": 39.74715, "guid": "229b20f0-b3ee-11e7-9882-6c92bf041d56"}
{"province": "重庆市", "distance": 14.238664519104054, "sametype": "same", "thirdId": "4da1abd0-d945-4a12-85b4-02c2b4e606c7", "name": "铜梁安居支行", "city": "重庆市", "longitude": 106.027351, "score": "0.953114", "oldname": "文成八达支行", "address": "西街1号", "latitude": 29.9888763, "guid": "22897116-b3ee-11e7-9eb2-6c92bf041d56"}
{"province": "湖北省", "distance": 7.040746378332648, "sametype": "same", "thirdId": "398cdad3-5f57-4a0b-88a9-02c345170a7a", "name": "孝感环城支行", "city": "孝感市", "longitude": 113.921478, "score": "0.950076", "oldname": "嵊州临城支行", "address": "城站路97号", "latitude": 30.9290619, "guid": "22f6ea16-b3ee-11e7-91a5-6c92bf041d56"}
{"province": "山东省", "distance": 124.90383564924224, "sametype": "same", "thirdId": "797774d9-11f1-4b7e-bff3-02c5d0c4b9c8", "name": "淄博人民路分理处", "city": "淄博市", "longitude": 118.042091, "score": "0.984366", "oldname": "昆明新螺蛳湾支行", "address": "人民路与步行街交叉路口", "latitude": 36.8146629, "guid": "226ce028-b3ee-11e7-9fe4-6c92bf041d56"}
{"province": "广东省", "distance": 26.052502547114955, "sametype": "same", "thirdId": "122bb078-5fb6-4846-aff9-02c7ec405080", "name": "湛江解放西支行", "city": "湛江市", "longitude": 110.3958, "score": "0.970185", "oldname": "四平北一支行", "address": "华欣路3号", "latitude": 21.1927643, "guid": "2298d548-b3ee-11e7-b711-6c92bf041d56"}
{"province": "山西", "distance": 17.318220757109803, "sametype": "same", "thirdId": "de37721b-bed8-47fe-be53-02c8d02ccddb", "name": "晋中大学城支行营业室", "city": "晋中市", "longitude": 112.727684, "score": "0.687018", "oldname": "宾县胜利分理处", "address": "晋中市榆次区定阳路万科朗润园商业广场1号4-7框", "latitude": 37.73752, "guid": "22b73c86-b3ee-11e7-abf0-6c92bf041d56"}
{"province": "甘肃省", "distance": 26.5405002815371, "sametype": "same", "thirdId": "8621e951-315c-4da9-8ef3-02c9cbc6e7f5", "name": "天水社棠支行", "city": "天水市", "longitude": 105.979073, "score": "0.899652", "oldname": "阿克苏依杆旗乡支行", "address": "社棠镇", "latitude": 34.5581169, "guid": "22bd55da-b3ee-11e7-82ee-6c92bf041d56"}
{"province": "黑龙江省", "distance": 27.720771364761227, "sametype": "same", "thirdId": "45483573-0ab6-44b9-80c9-02ca92b0a655", "name": "哈尔滨红旗大街支行", "city": "哈尔滨市", "longitude": 126.695267, "score": "0.969225", "oldname": "贵阳碧海支行", "address": "闽江路202号", "latitude": 45.74787, "guid": "22ccfd32-b3ee-11e7-b818-6c92bf041d56"}
{"province": "湖北省", "distance": 26.100210854667363, "sametype": "same", "thirdId": "1db57d90-0854-48ad-8b42-02ce428b6c42", "name": "襄阳石桥支行", "city": "襄樊市", "longitude": 111.974136, "score": "0.922246", "oldname": "阜康大黄山支行", "address": "石桥镇银河大道", "latitude": 32.34914, "guid": "22c049f2-b3ee-11e7-8fae-6c92bf041d56"}
{"province": "湖北省", "distance": 5.552986596444968, "sametype": "same", "thirdId": "25108aaa-e12d-42b6-ac24-02d01cc9a026", "name": "枝江民主大道分理处", "city": "宜昌市", "longitude": 111.75634, "score": "0.976900", "oldname": "新华支行营业室", "address": "民主大道34号", "latitude": 30.4243183, "guid": "22a28d86-b3ee-11e7-864d-6c92bf041d56"}
{"province": "湖南省", "distance": 0.0, "sametype": "same", "thirdId": "d5aad49e-cdae-4292-81db-02d24d101b29", "name": "祁阳黎家坪支行", "city": "永州市", "longitude": 111.830093, "score": "0.998900", "oldname": "祁阳黎家坪支行", "address": "黎家坪镇东正街", "latitude": 26.69477, "guid": "229d83e0-b3ee-11e7-a342-6c92bf041d56"}
{"province": "湖南省", "distance": 0.0, "sametype": "same", "thirdId": "11d34e2a-c0da-4203-a594-02d334279eec", "name": "澧县王家厂分理处", "city": "常德市", "longitude": 111.543167, "score": "0.987396", "oldname": "澧县王家厂分理处", "address": "王家厂镇", "latitude": 29.7605972, "guid": "229dd82c-b3ee-11e7-b289-6c92bf041d56"}
{"province": "河北省", "distance": 0.0, "sametype": "same", "thirdId": "f92a435f-2f1e-48d4-bfc8-02d41e0c36ad", "name": "乐亭姜各庄分理处", "city": "唐山市", "longitude": 119.136909, "score": "0.972009", "oldname": "乐亭姜各庄分理处", "address": "姜各庄镇", "latitude": 39.44742, "guid": "229e2d36-b3ee-11e7-8524-6c92bf041d56"}
{"province": "云南省", "distance": 0.0, "sametype": "same", "thirdId": "83b45683-beb1-43ae-9b92-02d4b312bb1b", "name": "腾冲滇滩支行", "city": "保山市", "longitude": 98.4131, "score": "0.993069", "oldname": "腾冲滇滩支行", "address": "滇滩镇滇滩街", "latitude": 25.52079, "guid": "229e820e-b3ee-11e7-bce2-6c92bf041d56"}
{"province": "内蒙古自治区", "distance": 11.680428062935826, "sametype": "same", "thirdId": "c2cacd70-cb78-48b8-b79b-02d97750c02f", "name": "乌兰察布民建路分理处", "city": "乌兰察布市", "longitude": 113.117249, "score": "0.976420", "oldname": "临澧支行营业室", "address": "民建路96号", "latitude": 41.0331879, "guid": "22de841c-b3ee-11e7-a922-6c92bf041d56"}
{"province": "江西省", "distance": 13.322788872916728, "sametype": "same", "thirdId": "c92e3bf1-2556-4847-a0a4-02da6e13db1c", "name": "万安潞田分理处", "city": "吉安市", "longitude": 114.608093, "score": "0.943327", "oldname": "华坪荣将分理处", "address": "潞田镇", "latitude": 26.5333652, "guid": "224e28cc-b3ee-11e7-853e-6c92bf041d56"}
{"province": "吉林省", "distance": 13.85257150685284, "sametype": "same", "thirdId": "3c72d526-773a-438c-9968-02dc3ce31979", "name": "松原宁江支行营业室", "city": "松原市", "longitude": 124.820717, "score": "0.973361", "oldname": "忻府支行营业室", "address": "长宁南街2099号", "latitude": 45.1719933, "guid": "228b1b06-b3ee-11e7-951e-6c92bf041d56"}
{"province": "山东省", "distance": 5.149712513089858, "sametype": "same", "thirdId": "d774d5ed-9258-4d81-921e-02dcb1531177", "name": "高密供销大厦分理处", "city": "潍坊市", "longitude": 119.758308, "score": "0.889936", "oldname": "苏州现代大厦分理处", "address": "供销大厦北侧", "latitude": 36.3822327, "guid": "2254adaa-b3ee-11e7-9b05-6c92bf041d56"}
{"province": "山东省", "distance": 7.907671952313046, "sametype": "same", "thirdId": "c40ee08d-d1da-43fb-82f4-02ddb77a285f", "name": "潍坊坊子支行营业室", "city": "潍坊市", "longitude": 119.166092, "score": "0.875034", "oldname": "锡林浩特阿拉坦分理处", "address": "凤凰街办凤凰大街70号", "latitude": 36.6513329, "guid": "22ad9f6e-b3ee-11e7-b306-6c92bf041d56"}
{"province": "山西省", "distance": 17.69721636275746, "sametype": "same", "thirdId": "64ae99ce-3120-4860-b599-02de7f5589a7", "name": "学府支行营业室", "city": "太原市", "longitude": 112.56517, "score": "0.914630", "oldname": "金平苗族瑶族傣族自治县支行营业室", "address": "学府街106号", "latitude": 37.8188133, "guid": "22b1e4c0-b3ee-11e7-9332-6c92bf041d56"}
{"province": "贵州", "distance": 0.0, "sametype": "same", "thirdId": "5250b85e-0f7c-4032-a3b8-02e0cae61016", "name": "龙里金龙分理处", "city": "黔南布依族苗族自治州", "longitude": 106.980118, "score": "0.997734", "oldname": "龙里金龙分理处", "address": "贵州省黔南州龙里县龙城国际广场1-2号", "latitude": 26.4550514, "guid": "22a0d284-b3ee-11e7-b6c7-6c92bf041d56"}
{"province": "江西省", "distance": 0.0, "sametype": "same", "thirdId": "bd1082d0-6d65-4d3c-bc97-02e15a0c41c0", "name": "九江龙开河支行", "city": "九江市", "longitude": 115.979454, "score": "0.997961", "oldname": "九江龙开河支行", "address": "九龙街", "latitude": 29.7132854, "guid": "22a12842-b3ee-11e7-bbf3-6c92bf041d56"}
{"province": "山东省", "distance": 11.211311161101081, "sametype": "same", "thirdId": "4f8082d1-8f2e-40fc-9d92-02e745223689", "name": "泗水县支行营业室", "city": "济宁市", "longitude": 117.274612, "score": "0.982302", "oldname": "灵武市支行营业室", "address": "光明路018号", "latitude": 35.6503258, "guid": "22dd2e50-b3ee-11e7-8a3f-6c92bf041d56"}
{"province": "内蒙古", "distance": 0.0, "sametype": "same", "thirdId": "8845eb41-f82d-4032-b6d1-02ec1c62c132", "name": "敖汉旗新洲支行", "city": "赤峰市", "longitude": 119.9, "score": "0.996996", "oldname": "敖汉旗新洲支行", "address": "赤峰市敖汉旗新惠镇", "latitude": 42.2889, "guid": "22a1d1de-b3ee-11e7-a32c-6c92bf041d56"}
{"province": "河北省", "distance": 0.0, "sametype": "same", "thirdId": "5b4a80f0-2cb7-4f9b-84b4-02ec49bdf31a", "name": "阳原昌盛街分理处", "city": "张家口市", "longitude": 114.163704, "score": "0.992385", "oldname": "阳原昌盛街分理处", "address": "西城镇昌盛西街", "latitude": 40.1152344, "guid": "22a22e22-b3ee-11e7-bdaa-6c92bf041d56"}
{"province": "贵州省", "distance": 0.0, "sametype": "same", "thirdId": "e480fcfa-fc66-472b-b195-02f4e309d64b", "name": "新华支行营业室", "city": "遵义市", "longitude": 106.924927, "score": "0.986704", "oldname": "新华支行营业室", "address": "凤凰路1号", "latitude": 27.686964, "guid": "22a28d86-b3ee-11e7-864d-6c92bf041d56"}
{"province": "河南省", "distance": 0.0, "sametype": "same", "thirdId": "09c079b0-3ac0-482c-8021-02f76235562e", "name": "新乡汇通支行", "city": "新乡市", "longitude": 113.873566, "score": "0.995098", "oldname": "新乡汇通支行", "address": "文化街61-21号", "latitude": 35.2957077, "guid": "22a2ecd6-b3ee-11e7-8f25-6c92bf041d56"}
{"province": "西藏自治区", "distance": 27.19684336494042, "sametype": "same", "thirdId": "a1e781e3-4beb-4313-a218-02fbc8e36723", "name": "安多县支行营业室", "city": "那曲地区", "longitude": 91.6876, "score": "0.961597", "oldname": "临朐朐山分理处", "address": "沈阳南路42号", "latitude": 32.267662, "guid": "22d1e3d8-b3ee-11e7-a2e3-6c92bf041d56"}
{"province": "河南省", "distance": 4.337456331569841, "sametype": "same", "thirdId": "61e69c60-f5d1-4b05-88eb-0300112e79f5", "name": "郑州中州大道支行", "city": "郑州市", "longitude": 113.712463, "score": "0.970506", "oldname": "仙桃爱民路支行", "address": "中州大道与南三环交叉口东南角", "latitude": 34.7017632, "guid": "22abf5a6-b3ee-11e7-9493-6c92bf041d56"}
{"province": "河北省", "distance": 3.6851650674901397, "sametype": "same", "thirdId": "691700f3-942e-4e35-9f1a-030011e5a93e", "name": "任丘市支行营业室", "city": "沧州市", "longitude": 116.114021, "score": "0.990262", "oldname": "太原晋祠路支行", "address": "裕华中路16号", "latitude": 38.7099342, "guid": "22ebf5a2-b3ee-11e7-bd87-6c92bf041d56"}
{"province": "云南省", "distance": 17.89840723535626, "sametype": "same", "thirdId": "ec3fe5de-496f-4158-a4f5-03021ccea2ea", "name": "鲁甸县支行营业室", "city": "昭通市", "longitude": 103.556343, "score": "0.992188", "oldname": "昆山分行营业部营业室", "address": "文屏镇世纪大道", "latitude": 27.1897144, "guid": "22763b0a-b3ee-11e7-b38d-6c92bf041d56"}
{"province": "湖北省", "distance": 23.743591904325292, "sametype": "same", "thirdId": "110a1f21-eff0-47ba-8818-0308cba516a7", "name": "黄梅蔡山支行", "city": "黄冈市", "longitude": 115.7956, "score": "0.985204", "oldname": "宝泉岭绥滨分理处", "address": "蔡山镇胡世柏街4号", "latitude": 29.8801, "guid": "22ae4770-b3ee-11e7-b281-6c92bf041d56"}
{"province": "河北省", "distance": 16.205353006667476, "sametype": "same", "thirdId": "f0b0a83f-ce22-4940-a999-030c0919b7fd", "name": "曲周县支行营业室", "city": "邯郸市", "longitude": 114.960152, "score": "0.976097", "oldname": "米易河西分理处", "address": "振兴路中段路南", "latitude": 36.77433, "guid": "228e6a36-b3ee-11e7-9cbd-6c92bf041d56"}
{"province": "江苏省", "distance": 14.556309532822517, "sametype": "same", "thirdId": "c658cc71-6251-4525-b555-031196e67ee4", "name": "常熟任阳支行", "city": "苏州市", "longitude": 120.961662, "score": "0.981218", "oldname": "重庆渝北洋河支行", "address": "任阳镇", "latitude": 31.5379581, "guid": "22550cbe-b3ee-11e7-8c04-6c92bf041d56"}
{"province": "四川", "distance": 10.890081055901536, "sametype": "same", "thirdId": "8bb4c66d-40a4-4ba7-9827-0316912e3da1", "name": "雷波锦城支行", "city": "凉山彝族自治州", "longitude": 103.573265, "score": "0.993983", "oldname": "南海联安支行", "address": "四川省雷波县锦城镇老街保健站一楼", "latitude": 28.26275, "guid": "22aba15a-b3ee-11e7-96ef-6c92bf041d56"}
{"province": "江苏省", "distance": 20.15089685551838, "sametype": "same", "thirdId": "3c005294-4ff2-4470-a3eb-0318e95c988d", "name": "张家港西张支行", "city": "苏州市", "longitude": 120.625587, "score": "0.997320", "oldname": "建三江青龙山支行", "address": "凤凰镇西张办事处双龙路18号", "latitude": 31.7910175, "guid": "224d0b0e-b3ee-11e7-b90c-6c92bf041d56"}
{"province": "辽宁省", "distance": 6.118598342375501, "sametype": "same", "thirdId": "a2f8f83a-38fc-4dca-b13e-031cd55a5d63", "name": "海城惠海支行", "city": "鞍山市", "longitude": 122.722656, "score": "0.983801", "oldname": "安达市支行营业室", "address": "兴海大街102-s3", "latitude": 40.86925, "guid": "2250b24a-b3ee-11e7-a756-6c92bf041d56"}
{"province": "山东省", "distance": 3.426030279443539, "sametype": "same", "thirdId": "9235960b-16cd-4ce6-8ee0-0320628a162a", "name": "枣庄汇丰支行", "city": "枣庄市", "longitude": 117.168953, "score": "0.942439", "oldname": "南京兴隆大街支行", "address": "善国南路", "latitude": 35.0684, "guid": "2275e664-b3ee-11e7-9654-6c92bf041d56"}
{"province": "山东省", "distance": 4.03475602715825, "sametype": "same", "thirdId": "200d3633-b8e0-4f33-9fa8-03287e8496d9", "name": "沂水龙家圈分理处", "city": "临沂市", "longitude": 118.608566, "score": "0.993773", "oldname": "天津大口屯支行", "address": "龙家圈乡驻地", "latitude": 35.78798, "guid": "22b13c96-b3ee-11e7-b933-6c92bf041d56"}
{"province": "山东省", "distance": 12.106445100787194, "sametype": "same", "thirdId": "a1ee6015-1895-448c-aa4c-0329372e49a3", "name": "潍坊眉村分理处", "city": "潍坊市", "longitude": 119.359245, "score": "0.992280", "oldname": "尚志中兴分理处", "address": "九龙街办眉南路北段", "latitude": 36.7267761, "guid": "227b9730-b3ee-11e7-a87c-6c92bf041d56"}
{"province": "江苏", "distance": 13.647287753290696, "sametype": "same", "thirdId": "e7424bf7-b405-40c3-8d17-032b66eb881c", "name": "兴化荻垛支行", "city": "泰州市", "longitude": 120.091011, "score": "0.931254", "oldname": "凯里阳光支行", "address": "江苏省兴化市荻垛镇幸福路中段", "latitude": 32.8564568, "guid": "2290153e-b3ee-11e7-91b4-6c92bf041d56"}
{"province": "青海省", "distance": 14.691721244848436, "sametype": "same", "thirdId": "8ff6e527-f2b8-441d-9413-032e893ead13", "name": "同仁县支行营业室", "city": "黄南藏族自治州", "longitude": 102.01844, "score": "0.949764", "oldname": "郴州燕泉支行", "address": "隆务镇中山路1号", "latitude": 35.5148163, "guid": "22b694c0-b3ee-11e7-bbdc-6c92bf041d56"}
{"province": "湖北省", "distance": 0.0, "sametype": "same", "thirdId": "4f3c415a-f39c-4d79-8cbc-03328c22601e", "name": "老河口城区支行", "city": "襄樊市", "longitude": 111.677391, "score": "0.995979", "oldname": "老河口城区支行", "address": "中山路", "latitude": 32.38719, "guid": "22a89fd2-b3ee-11e7-a6d8-6c92bf041d56"}
{"province": "河南省", "distance": 16.441857438003165, "sametype": "same", "thirdId": "4cf0aaac-21f0-4d1f-9fd3-0333842b9dad", "name": "登封市支行营业室", "city": "郑州市", "longitude": 113.036133, "score": "0.965362", "oldname": "吉林市分行营业部营业室", "address": "中岳大街73号", "latitude": 34.4586258, "guid": "2260df3a-b3ee-11e7-ade7-6c92bf041d56"}
{"province": "江西省", "distance": 13.093806609843366, "sametype": "same", "thirdId": "d192ed61-7b86-4ab5-a8a4-033655968db6", "name": "黎川县支行营业室", "city": "抚州市", "longitude": 116.912918, "score": "0.963700", "oldname": "怀仁县支行营业室", "address": "日峰路116号", "latitude": 27.2907524, "guid": "226b88c2-b3ee-11e7-97f9-6c92bf041d56"}
{"province": "湖北省", "distance": 5.757484279746451, "sametype": "same", "thirdId": "5598ec0e-65a3-4e9e-b730-0337dfca2500", "name": "公安闸口支行", "city": "荆州市", "longitude": 112.210037, "score": "0.820811", "oldname": "重庆合川双槐支行", "address": "闸口镇前进路98号", "latitude": 29.9173355, "guid": "22eb3c20-b3ee-11e7-97a6-6c92bf041d56"}
{"province": "江苏省", "distance": 0.5586922313842843, "sametype": "same", "thirdId": "8ebc4275-a8f5-4d11-8533-033a81b3a652", "name": "无锡胡埭支行", "city": "无锡市", "longitude": 120.123253, "score": "0.921355", "oldname": "张家港西张支行", "address": "胡埭镇振胡路21号", "latitude": 31.5464821, "guid": "22a629c8-b3ee-11e7-abae-6c92bf041d56"}
{"province": "广东省", "distance": 13.763578953172294, "sametype": "same", "thirdId": "6b3ea9d0-7654-41c1-8573-033b7c1512b5", "name": "广州庙前直街支行", "city": "广州市", "longitude": 113.295158, "score": "0.968312", "oldname": "沂水城北分理处", "address": "庙前直街45-47号", "latitude": 23.1217575, "guid": "228cc154-b3ee-11e7-bc3d-6c92bf041d56"}
{"province": "山东省", "distance": 16.680486931028987, "sametype": "same", "thirdId": "628c943a-b920-42ec-ab14-033d43a5ddb1", "name": "烟台经济技术开发区支行营业室", "city": "烟台市", "longitude": 121.274567, "score": "0.956683", "oldname": "深圳福田口岸支行", "address": "泰山路98号", "latitude": 37.561657, "guid": "225bd8c8-b3ee-11e7-b893-6c92bf041d56"}
{"province": "安徽省", "distance": 9.869808321201138, "sametype": "same", "thirdId": "5011da24-8bdf-4f41-94b5-033f77297d0d", "name": "宿松县支行营业室", "city": "安庆市", "longitude": 116.119621, "score": "0.990652", "oldname": "北京来广营支行", "address": "人民路164号", "latitude": 30.1573448, "guid": "2299d13c-b3ee-11e7-a76b-6c92bf041d56"}
{"province": "吉林", "distance": 20.801914569984763, "sametype": "same", "thirdId": "be6ceba8-b50a-4975-b541-033f9d32fb4b", "name": "公主岭秦家屯支行", "city": "四平市", "longitude": 124.5883, "score": "0.990065", "oldname": "安远九龙分理处", "address": "吉林省公主岭市秦家屯镇", "latitude": 43.79, "guid": "22540026-b3ee-11e7-a9b2-6c92bf041d56"}
{"province": "广东省", "distance": 10.102683936958412, "sametype": "same", "thirdId": "47bda920-65c9-49ab-a464-033fe65c402a", "name": "南海联安支行", "city": "佛山市", "longitude": 113.162613, "score": "0.970368", "oldname": "达州石梯分理处", "address": "盐步联安综合楼首层1-8号铺", "latitude": 23.1015224, "guid": "22821b46-b3ee-11e7-8dc6-6c92bf041d56"}
{"province": "湖北", "distance": 7.894299367398399, "sametype": "same", "thirdId": "a9d81f83-e422-4e81-9f2a-0342a1d6a7f2", "name": "仙桃爱民路支行", "city": "仙桃市", "longitude": 113.448021, "score": "0.969696", "oldname": "淄博新村西路分理处", "address": "湖北省仙桃市复州大道", "latitude": 30.3723755, "guid": "22e64422-b3ee-11e7-af04-6c92bf041d56"}
{"province": "江西省", "distance": 2.3438488493082343, "sametype": "same", "thirdId": "16bd36fb-87fc-43cd-b0e6-0346c139ab31", "name": "南昌经开支行", "city": "南昌市", "longitude": 115.849594, "score": "0.875739", "oldname": "武汉文昌支行", "address": "昌北经济技术开发区枫庐新天地B3栋102-104", "latitude": 28.7365284, "guid": "22eeeb90-b3ee-11e7-bec8-6c92bf041d56"}
{"province": "福建省", "distance": 6.759055727833195, "sametype": "same", "thirdId": "bd6729d2-1c89-4693-b0de-0348d38c6c35", "name": "安溪金谷支行", "city": "泉州市", "longitude": 118.125084, "score": "0.988242", "oldname": "武汉金山大道支行", "address": "金谷镇金谷街", "latitude": 25.1695824, "guid": "22614114-b3ee-11e7-a320-6c92bf041d56"}
{"province": "甘肃", "distance": 15.951367341428886, "sametype": "same", "thirdId": "a703c4f8-bbc3-426a-b678-034c9a16a839", "name": "甘肃省分行营业部营业室", "city": "兰州市", "longitude": 103.826591, "score": "0.928208", "oldname": "高密市支行营业室", "address": "甘肃省兰州市城关区酒泉路408号", "latitude": 36.058, "guid": "22e44320-b3ee-11e7-8e01-6c92bf041d56"}
{"province": "安徽省", "distance": 0.0, "sametype": "same", "thirdId": "716a158b-06ef-4578-b1f6-034d23b13828", "name": "宿松二郎分理处", "city": "安庆市", "longitude": 116.058762, "score": "0.983653", "oldname": "宿松二郎分理处", "address": "二郎镇", "latitude": 30.2771263, "guid": "22ad4b22-b3ee-11e7-be83-6c92bf041d56"}
{"province": "内蒙古自治区", "distance": 13.483457837719852, "sametype": "same", "thirdId": "bdda8a28-b29e-4d27-8f38-035101e3d6b7", "name": "锡林浩特阿拉坦分理处", "city": "锡林郭勒盟", "longitude": 116.099548, "score": "0.924696", "oldname": "江汉支行营业室", "address": "华油大街7号", "latitude": 43.9402, "guid": "225b2fc2-b3ee-11e7-9ecb-6c92bf041d56"}
{"province": "江苏省", "distance": 6.572674763450846, "sametype": "same", "thirdId": "5234a357-60fe-4c03-8a86-0351e4f45048", "name": "沛县张寨支行", "city": "徐州市", "longitude": 116.962212, "score": "0.900703", "oldname": "大同分行营业部营业室", "address": "张寨市场北侧", "latitude": 34.6238, "guid": "2262f9aa-b3ee-11e7-be6e-6c92bf041d56"}
{"province": "黑龙江省", "distance": 0.0, "sametype": "same", "thirdId": "b79862bf-c9a1-41bc-80a0-0357af3565e5", "name": "宝泉岭绥滨分理处", "city": "鹤岗市", "longitude": 131.685471, "score": "0.992076", "oldname": "宝泉岭绥滨分理处", "address": "绥滨农场和平路北侧", "latitude": 47.52295, "guid": "22ae4770-b3ee-11e7-b281-6c92bf041d56"}
{"province": "新疆维吾尔自治区", "distance": 45.33497249765155, "sametype": "same", "thirdId": "9460e8dd-00d4-4dc7-a013-035e8b06dec9", "name": "阿克陶县支行营业室", "city": "克孜勒苏柯尔克孜自治州", "longitude": 75.94619, "score": "0.682528", "oldname": "福安韩城支行", "address": "南大街9号", "latitude": 39.14454, "guid": "224be8be-b3ee-11e7-8fbb-6c92bf041d56"}
{"province": "重庆市", "distance": 28.258501229313303, "sametype": "same", "thirdId": "09fa93dd-c828-400f-a075-0361b4e22ac7", "name": "潼南塘坝支行", "city": "重庆市", "longitude": 105.7975, "score": "0.699544", "oldname": "察布查尔县支行营业室", "address": "塘坝镇人民街171号", "latitude": 30.0161114, "guid": "22ded75a-b3ee-11e7-b654-6c92bf041d56"}
{"province": "四川省", "distance": 0.0, "sametype": "same", "thirdId": "1944c1db-6ad2-4dab-880e-03680c55fc8d", "name": "大竹乌木分理处", "city": "达州市", "longitude": 107.247864, "score": "0.996912", "oldname": "大竹乌木分理处", "address": "东柳镇柳柏路2-8号", "latitude": 30.74238, "guid": "22af44a4-b3ee-11e7-b112-6c92bf041d56"}
{"province": "湖南省", "distance": 14.925209163519591, "sametype": "same", "thirdId": "363244ef-2759-4000-a94a-0368619ee71c", "name": "洪江支行营业室", "city": "怀化市", "longitude": 109.8297, "score": "0.960615", "oldname": "蓟县人民东路支行", "address": "黔城镇开元大道", "latitude": 27.1971455, "guid": "227d04bc-b3ee-11e7-86a4-6c92bf041d56"}
{"province": "内蒙古自治区", "distance": 14.832470601050936, "sametype": "same", "thirdId": "517a2a42-a395-42a9-932e-03704bfe1b6a", "name": "化德长青支行", "city": "乌兰察布市", "longitude": 113.996536, "score": "0.993946", "oldname": "吉安广贸支行", "address": "长顺镇人民街", "latitude": 41.8960075, "guid": "2266ffdc-b3ee-11e7-8b90-6c92bf041d56"}
{"province": "河南省", "distance": 6.584414994489106, "sametype": "same", "thirdId": "3b4d52d6-52ce-4391-8157-03714755da96", "name": "栾川县支行营业室", "city": "洛阳市", "longitude": 111.609566, "score": "0.979379", "oldname": "重庆渝北洋河支行", "address": "兴华西路", "latitude": 33.785923, "guid": "22550cbe-b3ee-11e7-8c04-6c92bf041d56"}
{"province": "湖南省", "distance": 14.467737681488595, "sametype": "same", "thirdId": "5f038a9c-1a61-4200-b309-0373c3fc5659", "name": "衡阳中山路支行", "city": "衡阳市", "longitude": 112.6124, "score": "0.968069", "oldname": "梁河振兴路分理处", "address": "中山北路58号", "latitude": 26.901104, "guid": "22b98ea0-b3ee-11e7-a670-6c92bf041d56"}
{"province": "河北省", "distance": 0.0, "sametype": "same", "thirdId": "784af0fa-ab7d-41bc-af2b-0373d8d21c2c", "name": "东光东环路分理处", "city": "沧州市", "longitude": 116.559296, "score": "0.997192", "oldname": "东光东环路分理处", "address": "新开发区", "latitude": 37.8821869, "guid": "22b0e8d6-b3ee-11e7-badc-6c92bf041d56"}
{"province": "天津市", "distance": 14.549071199272765, "sametype": "same", "thirdId": "4c93fbaf-254b-4427-ad73-03758fdb8952", "name": "天津大口屯支行", "city": "天津市", "longitude": 117.248581, "score": "0.889438", "oldname": "重庆南川水江支行", "address": "大口屯镇", "latitude": 39.5866241, "guid": "22607fc2-b3ee-11e7-aa4c-6c92bf041d56"}
{"province": "吉林", "distance": 26.351193943045462, "sametype": "same", "thirdId": "02e2fef5-d901-4c87-8933-03769a705e16", "name": "九台城子街支行", "city": "长春市", "longitude": 126.021729, "score": "0.884996", "oldname": "阳春新桥支行", "address": "吉林省九台市城子街镇街道", "latitude": 44.3660965, "guid": "2261f8de-b3ee-11e7-bf15-6c92bf041d56"}
{"province": "云南省", "distance": 15.485244840757646, "sametype": "same", "thirdId": "f2b14930-be94-4aa9-97d9-0377d0243635", "name": "金平苗族瑶族傣族自治县支行营业室", "city": "红河哈尼族彝族自治州", "longitude": 103.23011, "score": "0.968468", "oldname": "翼城红旗分理处", "address": "金河镇金穗路2号", "latitude": 22.7839165, "guid": "22d19040-b3ee-11e7-9f04-6c92bf041d56"}
{"province": "四川省", "distance": 16.827622667966605, "sametype": "same", "thirdId": "d638d9af-88ba-4a22-86ed-037a3d72be13", "name": "成都蓉城支行营业室", "city": "成都市", "longitude": 104.071068, "score": "0.967062", "oldname": "绍兴港区支行", "address": "二环路北二段4号", "latitude": 30.6695461, "guid": "224950fe-b3ee-11e7-9ddd-6c92bf041d56"}
{"province": "云南省", "distance": 0.0, "sametype": "same", "thirdId": "b9ee8c5a-9540-4353-b032-037a4d7a704f", "name": "盐津普洱支行", "city": "昭通市", "longitude": 104.164757, "score": "0.985735", "oldname": "盐津普洱支行", "address": "普洱镇小河中街61号", "latitude": 28.2424679, "guid": "22b28d3a-b3ee-11e7-88af-6c92bf041d56"}
{"province": "吉林省", "distance": 16.39591498609796, "sametype": "same", "thirdId": "d4909435-29d0-4427-a379-037abb898b80", "name": "扶余市支行营业室", "city": "松原市", "longitude": 126.046135, "score": "0.980806", "oldname": "温县支行营业室", "address": "兴华路1737号", "latitude": 44.9824677, "guid": "2263b03e-b3ee-11e7-8a94-6c92bf041d56"}
{"province": "江苏省", "distance": 6.486292054411749, "sametype": "same", "thirdId": "8fa3270c-25a3-4ddf-9106-037b5b5e5f95", "name": "南京洪蓝分理处", "city": "南京市", "longitude": 118.9856, "score": "0.988940", "oldname": "登封市卢店分理处", "address": "洪蓝镇洪溪街13号", "latitude": 31.605, "guid": "22e9e8de-b3ee-11e7-a9d3-6c92bf041d56"}
{"province": "安徽省", "distance": 13.662500629449672, "sametype": "same", "thirdId": "f960cb77-cc4e-439c-995b-037bd2a02fee", "name": "全椒二郎分理处", "city": "滁州市", "longitude": 118.1349, "score": "0.959032", "oldname": "毕节麻园支行", "address": "二郎口镇", "latitude": 31.9703579, "guid": "22e4985c-b3ee-11e7-b654-6c92bf041d56"}
{"province": "河北省", "distance": 16.310714394753564, "sametype": "same", "thirdId": "1aa4fa5e-69e7-4bbc-894d-03800697a649", "name": "邯郸联纺西路分理处", "city": "邯郸市", "longitude": 114.507271, "score": "0.977299", "oldname": "酒泉雄关路分理处", "address": "联纺东路296号", "latitude": 36.62706, "guid": "229a25a6-b3ee-11e7-af15-6c92bf041d56"}
{"province": "广东", "distance": 7.218149709680926, "sametype": "same", "thirdId": "b3bf2ea9-b9e9-4abe-a584-038e12d9e5bf", "name": "广州从化雅居乐支行", "city": "广州市", "longitude": 113.594078, "score": "0.974231", "oldname": "武汉滠口支行", "address": "从化市江埔街沿江南路121、122、123、124、125号", "latitude": 23.5388889, "guid": "228f65c6-b3ee-11e7-a15b-6c92bf041d56"}
{"province": "广西壮族自治区", "distance": 0.0, "sametype": "same", "thirdId": "dcbbb337-df4d-402c-8924-039091bd591e", "name": "河池金城支行", "city": "河池市", "longitude": 108.063736, "score": "0.995641", "oldname": "河池金城支行", "address": "新建路43号", "latitude": 24.6929779, "guid": "22b48702-b3ee-11e7-94f3-6c92bf041d56"}
{"province": "湖南省", "distance": 11.46408409634865, "sametype": "same", "thirdId": "66ace8cd-dabe-438e-a66c-03912a2e76dd", "name": "古丈支行营业室", "city": "湘西土家族苗族自治州", "longitude": 109.949394, "score": "0.967265", "oldname": "台州葭沚支行", "address": "古阳镇正街一号", "latitude": 28.6149635, "guid": "22cc00f8-b3ee-11e7-ac0e-6c92bf041d56"}
{"province": "内蒙古自治区", "distance": 28.714293570523438, "sametype": "same", "thirdId": "362777a4-d28d-4423-a488-03a155015555", "name": "丰镇解放路分理处", "city": "乌兰察布市", "longitude": 113.166161, "score": "0.851785", "oldname": "奎屯五五新镇支行", "address": "城关镇马桥街解放路", "latitude": 40.4434166, "guid": "22477cd4-b3ee-11e7-a022-6c92bf041d56"}
{"province": "四川省", "distance": 9.164752898939508, "sametype": "same", "thirdId": "91513c3c-4974-4c31-9f0e-03a206e5f296", "name": "巴中南泉支行", "city": "巴中市", "longitude": 106.764091, "score": "0.914992", "oldname": "南宁建园支行", "address": "巴州镇南泉街27号", "latitude": 31.8515625, "guid": "22befb88-b3ee-11e7-a037-6c92bf041d56"}
{"province": "湖南省", "distance": 0.0, "sametype": "same", "thirdId": "0b3cbe02-d1eb-4a4a-bad8-03a29222454c", "name": "华容中心分理处", "city": "岳阳市", "longitude": 112.567787, "score": "0.993598", "oldname": "华容中心分理处", "address": "城关镇北正街", "latitude": 29.5233383, "guid": "22b5dfa8-b3ee-11e7-a2c0-6c92bf041d56"}
{"province": "西藏自治区", "distance": 16.114244510731606, "sametype": "same", "thirdId": "6c44cc82-724f-46c5-acf2-03a3534d89c3", "name": "芒康老然营业所", "city": "昌都地区", "longitude": 98.60828, "score": "0.974251", "oldname": "广州芳城支行", "address": "老然乡", "latitude": 29.8566666, "guid": "22f42d76-b3ee-11e7-adb8-6c92bf041d56"}
{"province": "湖南省", "distance": 10.507589051479583, "sametype": "same", "thirdId": "41f33069-b746-4b95-8351-03a5341f3899", "name": "郴州燕泉支行", "city": "郴州市", "longitude": 113.021713, "score": "0.989846", "oldname": "盐城金穗支行", "address": "国庆南路21号", "latitude": 25.7795887, "guid": "22f0dff4-b3ee-11e7-879b-6c92bf041d56"}
{"province": "安徽省", "distance": 5.755988937467217, "sametype": "same", "thirdId": "eb5df10d-9dce-4f15-ae6f-03aaac955195", "name": "濉溪临涣支行", "city": "淮北市", "longitude": 116.557167, "score": "0.957325", "oldname": "东阳上卢支行", "address": "临涣镇", "latitude": 33.6894951, "guid": "22891acc-b3ee-11e7-8c96-6c92bf041d56"}
{"province": "黑龙江省", "distance": 0.585471345168007, "sametype": "same", "thirdId": "7deb07b0-dc0d-45f1-a51b-03ad0d2a1aa0", "name": "宾县胜利分理处", "city": "哈尔滨市", "longitude": 128.056717, "score": "0.924686", "oldname": "尚志中兴分理处", "address": "胜利镇中心街", "latitude": 45.79615, "guid": "227b9730-b3ee-11e7-a87c-6c92bf041d56"}
{"province": "浙江省", "distance": 19.87393379634961, "sametype": "same", "thirdId": "ebbeb96e-39df-4b5a-818e-03ad640491d2", "name": "龙游县支行营业室", "city": "衢州市", "longitude": 119.178604, "score": "0.960805", "oldname": "绥棱上集支行", "address": "龙洲街道太平东路108号", "latitude": 29.0261841, "guid": "22ed9b8c-b3ee-11e7-b74e-6c92bf041d56"}
{"province": "江苏省", "distance": 7.281720537020467, "sametype": "same", "thirdId": "45c85b70-35d3-4f23-a384-03ae8b3f94e8", "name": "南京玉兰路支行", "city": "南京市", "longitude": 118.7973, "score": "0.976330", "oldname": "天津阳光支行", "address": "宁南大道20号01幢115室", "latitude": 31.979, "guid": "22f1d904-b3ee-11e7-a62f-6c92bf041d56"}
{"province": "新疆维吾尔自治区", "distance": 23.694085552921077, "sametype": "same", "thirdId": "69beb386-4212-4e44-ac51-03b17b53ed70", "name": "五家渠市兵团支行营业室", "city": "自治区直辖县级行政区划", "longitude": 87.5472946, "score": "0.989426", "oldname": "璧山县支行营业室", "address": "天山南路158号", "latitude": 44.1662178, "guid": "2287c028-b3ee-11e7-8461-6c92bf041d56"}
{"province": "浙江省", "distance": 8.131352685108242, "sametype": "same", "thirdId": "207954e6-4653-426b-9247-03b838dd1f69", "name": "温州中山支行营业室", "city": "温州市", "longitude": 120.666969, "score": "0.901959", "oldname": "衡阳中山路支行", "address": "飞霞北路175号", "latitude": 28.01592, "guid": "22b094e4-b3ee-11e7-88eb-6c92bf041d56"}
{"province": "辽宁省", "distance": 0.0, "sametype": "same", "thirdId": "86180b20-b2a0-4301-965f-03b8c71cbfb1", "name": "葫芦岛中兴支行", "city": "葫芦岛市", "longitude": 120.855804, "score": "0.993330", "oldname": "葫芦岛中兴支行", "address": "兴工路2-2号", "latitude": 40.75763, "guid": "22b8e612-b3ee-11e7-8ed9-6c92bf041d56"}
{"province": "湖北省", "distance": 6.577671323543313, "sametype": "same", "thirdId": "50357bba-9792-4c87-ba99-03ba5b781bfe", "name": "三峡西陵支行营业室", "city": "宜昌市", "longitude": 111.285088, "score": "0.975511", "oldname": "黎川县支行营业室", "address": "云集路43号", "latitude": 30.6956444, "guid": "22a94d92-b3ee-11e7-9efa-6c92bf041d56"}
{"province": "云南省", "distance": 8.838181181616289, "sametype": "same", "thirdId": "782815d5-7e02-4926-ac4d-03bd2bed8d93", "name": "梁河振兴路分理处", "city": "德宏傣族景颇族自治州", "longitude": 98.29724, "score": "0.985032", "oldname": "龙里金龙分理处", "address": "遮岛镇振兴路15号", "latitude": 24.8054829, "guid": "22a0d284-b3ee-11e7-b6c7-6c92bf041d56"}
{"province": "上海市", "distance": 14.825485870414756, "sametype": "same", "thirdId": "fd3b0147-202a-4363-ad84-03c0ad9813b2", "name": "上海北新泾支行", "city": "上海市", "longitude": 121.371521, "score": "0.981343", "oldname": "榆树泗河支行", "address": "天山西路205号", "latitude": 31.2170334, "guid": "22ea3d0c-b3ee-11e7-a776-6c92bf041d56"}
{"province": "辽宁", "distance": 2.9129435537541464, "sametype": "same", "thirdId": "2cc1a642-ff18-494c-8c67-03c1601e8e3e", "name": "沈阳兴盛支行", "city": "沈阳市", "longitude": 123.3312, "score": "0.905260", "oldname": "农安隆兴支行", "address": "沈阳市铁西区北四西路15-1号12门、13门、14门、15门", "latitude": 41.8117638, "guid": "22f132b0-b3ee-11e7-879d-6c92bf041d56"}
{"province": "辽宁省", "distance": 10.670245231529856, "sametype": "same", "thirdId": "a4341660-6d55-475f-b517-03cec1a323be", "name": "北票转盘街支行", "city": "朝阳市", "longitude": 120.771049, "score": "0.935525", "oldname": "登封市支行营业室", "address": "南山街三段1-1号", "latitude": 41.80881, "guid": "22a8f7f2-b3ee-11e7-a8d1-6c92bf041d56"}
{"province": "河北省", "distance": 0.0, "sametype": "same", "thirdId": "f5f4c5f2-a071-488f-9920-03d884541651", "name": "蔚县支行营业室", "city": "张家口市", "longitude": 114.587921, "score": "0.973942", "oldname": "蔚县支行营业室", "address": "蔚州镇人民路78号", "latitude": 39.88757, "guid": "22baf5d8-b3ee-11e7-a344-6c92bf041d56"}
{"province": "广西壮族自治区", "distance": 1.835780010557093, "sametype": "same", "thirdId": "b10df6ce-3957-4124-bd1e-03d958b4e789", "name": "陆川中心支行", "city": "玉林市", "longitude": 110.261932, "score": "0.978827", "oldname": "徐闻曲界支行", "address": "温泉镇新洲中路28号", "latitude": 22.31671, "guid": "225e7d76-b3ee-11e7-afa4-6c92bf041d56"}
{"province": "四川省", "distance": 6.730987855494283, "sametype": "same", "thirdId": "e557bdf8-4303-4e6e-8140-03db962c2093", "name": "通江新城分理处", "city": "巴中市", "longitude": 107.215782, "score": "0.915979", "oldname": "中阳新城支行", "address": "诺江镇诺江东路8号", "latitude": 31.9220219, "guid": "227ae0a6-b3ee-11e7-8e15-6c92bf041d56"}
{"province": "河北省", "distance": 7.362558955314465, "sametype": "same", "thirdId": "0e0e64b2-c4f0-48af-8190-03e236900bad", "name": "秦皇岛世纪星园分理处", "city": "秦皇岛市", "longitude": 119.589767, "score": "0.907349", "oldname": "太原晋祠路支行", "address": "建设大街世纪星园小区", "latitude": 39.9423027, "guid": "22ebf5a2-b3ee-11e7-bd87-6c92bf041d56"}
{"province": "四川省", "distance": 9.381855820708674, "sametype": "same", "thirdId": "164e480c-ae4e-472c-b618-03e2448630c6", "name": "营山骆市分理处", "city": "南充市", "longitude": 106.686127, "score": "0.981640", "oldname": "武安新华北大街分理处", "address": "骆市镇正街35号", "latitude": 31.0633373, "guid": "22f08c5c-b3ee-11e7-be77-6c92bf041d56"}
{"province": "上海市", "distance": 17.591446201698876, "sametype": "same", "thirdId": "3f93ef73-53cb-4b2a-9535-03e2dadff18d", "name": "上海曲阳支行", "city": "上海市", "longitude": 121.493874, "score": "0.977337", "oldname": "盐津普洱支行", "address": "虹口区曲阳路2号", "latitude": 31.26913, "guid": "22b28d3a-b3ee-11e7-88af-6c92bf041d56"}
{"province": "陕西省", "distance": 8.127419000288846, "sametype": "same", "thirdId": "a8451fe2-51c1-412d-bdf0-03e30356eed4", "name": "蒲城县朝阳街分理处", "city": "渭南市", "longitude": 109.593163, "score": "0.962689", "oldname": "章丘绣惠支行", "address": "红旗路文庙对面", "latitude": 34.9537125, "guid": "22ed479a-b3ee-11e7-8453-6c92bf041d56"}
{"province": "新疆维吾尔自治区", "distance": 42.993504694904956, "sametype": "same", "thirdId": "077bd289-bec1-445a-b87e-03e957ac3fb7", "name": "阿克苏依杆旗乡支行", "city": "阿克苏地区", "longitude": 80.27129, "score": "0.979728", "oldname": "台州葭沚支行", "address": "南大街71号", "latitude": 41.15418, "guid": "22cc00f8-b3ee-11e7-ac0e-6c92bf041d56"}
{"province": "河南省", "distance": 5.263239710317702, "sametype": "same", "thirdId": "d5e5aa37-da4e-431f-9315-03f05fa6b63c", "name": "济源思礼支行", "city": "省直辖县级行政区划", "longitude": 112.508362, "score": "0.905537", "oldname": "莱芜口镇支行", "address": "思礼镇三河水库北", "latitude": 35.0993423, "guid": "2249b558-b3ee-11e7-b22c-6c92bf041d56"}
{"province": "黑龙江省", "distance": 16.772851062673606, "sametype": "same", "thirdId": "b8cc192b-113a-497c-8e94-03f5be63ade7", "name": "伊春乌伊岭支行营业室", "city": "伊春市", "longitude": 129.451126, "score": "0.780513", "oldname": "沂源县支行营业室", "address": "友谊路育林街道16号", "latitude": 48.5988579, "guid": "22df33f8-b3ee-11e7-a855-6c92bf041d56"}
{"province": "河南", "distance": 125.10508877479005, "sametype": "same", "thirdId": "58c5b35f-2ab2-4800-a53e-03f7eb9126d0", "name": "虞城县站集分理处", "city": "商丘市", "longitude": -1, "score": "0.846011", "oldname": "高邮兴晨支行", "address": "虞城县站集镇", "latitude": -1, "guid": "22c85c82-b3ee-11e7-9784-6c92bf041d56"}
{"province": "四川省", "distance": 0.0, "sametype": "same", "thirdId": "3807fcf7-00ec-4d67-b28e-03fb836cd432", "name": "彭州通济分理处", "city": "成都市", "longitude": 103.829582, "score": "0.987873", "oldname": "彭州通济分理处", "address": "通济镇金融街", "latitude": 31.1602688, "guid": "22bea764-b3ee-11e7-ae60-6c92bf041d56"}
{"province": "广西壮族自治区", "distance": 15.672251616496311, "sametype": "same", "thirdId": "11f45438-d8c3-41b8-8777-03fd6e844971", "name": "南宁建园支行", "city": "南宁市", "longitude": 108.338737, "score": "0.911966", "oldname": "上海淞南支行", "address": "建政路12-13号", "latitude": 22.8230972, "guid": "2274e57a-b3ee-11e7-8865-6c92bf041d56"}
{"province": "西藏", "distance": 0.0, "sametype": "same", "thirdId": "ca86ae91-62f5-462a-acf2-03fd7a02cd17", "name": "南木林芒热营业所", "city": "日喀则市", "longitude": 89.67639, "score": "0.994041", "oldname": "南木林芒热营业所", "address": "西藏日喀则地区南木林县芒热乡石木村", "latitude": 29.69222, "guid": "22bf4f20-b3ee-11e7-9006-6c92bf041d56"}
{"province": "天津市", "distance": 16.53819729145094, "sametype": "same", "thirdId": "c51575a4-9184-4da5-9b0d-03fd9d14e10c", "name": "天津咸水沽支行", "city": "天津市", "longitude": 117.3849, "score": "0.950406", "oldname": "深圳新生支行", "address": "咸水沽镇育才楼", "latitude": 38.9915, "guid": "22c907a4-b3ee-11e7-9f85-6c92bf041d56"}
{"province": "河南省", "distance": 11.360534185928449, "sametype": "same", "thirdId": "71b62f0a-cf62-449c-9b5c-03fdce5ec3b6", "name": "罗山县灵山分理处", "city": "信阳市", "longitude": 114.313072, "score": "0.871981", "oldname": "雷波锦城支行", "address": "涩港镇街", "latitude": 31.96657, "guid": "22a5d45a-b3ee-11e7-b635-6c92bf041d56"}
{"province": "新疆维吾尔自治区", "distance": 6.564263796457697, "sametype": "same", "thirdId": "e48cfb58-cd66-4810-84a8-03feae7836ae", "name": "阜康大黄山支行", "city": "昌吉回族自治州", "longitude": 88.6412048, "score": "0.864860", "oldname": "博乐友好支行", "address": "大黄山煤矿迎宾路１６７号", "latitude": 44.0450935, "guid": "22602072-b3ee-11e7-865a-6c92bf041d56"}
{"province": "四川省", "distance": 7.32690675095515, "sametype": "same", "thirdId": "89a36d31-140f-4799-9dcd-04014bddbc16", "name": "达州赵家支行", "city": "达州市", "longitude": 107.408989, "score": "0.902652", "oldname": "永兴马田支行", "address": "赵家镇老街171号", "latitude": 30.96068, "guid": "22cb03e2-b3ee-11e7-9519-6c92bf041d56"}
{"province": "江西省", "distance": 26.161653823940615, "sametype": "same", "thirdId": "0ccf0815-752c-4b46-80db-04026f47087d", "name": "湘东支行营业室", "city": "萍乡市", "longitude": 113.753662, "score": "0.963759", "oldname": "拉孜曲下营业所", "address": "泉湖南路97号", "latitude": 27.6383953, "guid": "22c5b2f2-b3ee-11e7-8777-6c92bf041d56"}
{"province": "内蒙古自治区", "distance": 10.570745943254565, "sametype": "same", "thirdId": "95304318-5e6e-4cd1-83f3-0402cb623c68", "name": "新华桥支行营业室", "city": "呼和浩特市", "longitude": 111.653275, "score": "0.942640", "oldname": "江汉支行营业室", "address": "新华西街7号", "latitude": 40.8189278, "guid": "225b2fc2-b3ee-11e7-9ecb-6c92bf041d56"}
{"province": "山东省", "distance": 0.0, "sametype": "same", "thirdId": "0200fe5d-595e-408b-a1c3-0403cb1a9998", "name": "招远道头分理处", "city": "烟台市", "longitude": 120.370323, "score": "0.993746", "oldname": "招远道头分理处", "address": "齐山镇政府驻地", "latitude": 37.2423477, "guid": "22c1c34a-b3ee-11e7-9e06-6c92bf041d56"}
{"province": "天津市", "distance": 0.04994473821544754, "sametype": "same", "thirdId": "9aa00562-bb93-4d75-9f01-04045fccef84", "name": "天津信济里支行", "city": "天津市", "longitude": 117.199577, "score": "0.982504", "oldname": "天津第六田园支行", "address": "佟楼宾友道16号", "latitude": 39.0964355, "guid": "22e2ebba-b3ee-11e7-a096-6c92bf041d56"}
{"province": "浙江省", "distance": 0.0, "sametype": "same", "thirdId": "750fd207-ce70-426e-b826-0405853e23ea", "name": "湖州菰城支行", "city": "湖州市", "longitude": 120.11998, "score": "0.997171", "oldname": "湖州菰城支行", "address": "外环东路374号", "latitude": 30.8646469, "guid": "22c2837a-b3ee-11e7-9b20-6c92bf041d56"}
{"province": "山东省", "distance": 0.0, "sametype": "same", "thirdId": "affc0dd8-af23-4bc5-b38a-040ad4cbb75b", "name": "昌乐红河分理处", "city": "潍坊市", "longitude": 118.923737, "score": "0.993925", "oldname": "昌乐红河分理处", "address": "红河镇政府东邻", "latitude": 36.4048958, "guid": "22c2e176-b3ee-11e7-876b-6c92bf041d56"}
{"province": "安徽省", "distance": 13.47303277975809, "sametype": "same", "thirdId": "677c198b-141b-42e5-ad4e-040e5c3f78f6", "name": "颍上耿棚支行", "city": "阜阳市", "longitude": 116.119507, "score": "0.929841", "oldname": "徐闻曲界支行", "address": "耿棚镇", "latitude": 32.64012, "guid": "225e7d76-b3ee-11e7-afa4-6c92bf041d56"}
{"province": "山东省", "distance": 0.8051336728932869, "sametype": "same", "thirdId": "03c37bf9-6e3f-4e96-84c9-040f83f321c5", "name": "东营五台山路分理处", "city": "东营市", "longitude": 118.503761, "score": "0.943592", "oldname": "淄博新村西路分理处", "address": "西三路159-4号", "latitude": 37.45181, "guid": "22e64422-b3ee-11e7-af04-6c92bf041d56"}
{"province": "西藏", "distance": 0.0, "sametype": "same", "thirdId": "eb7f0927-38a9-43e3-b825-0411f7b67044", "name": "米林派营业所", "city": "林芝市", "longitude": 95.4173, "score": "0.993913", "oldname": "米林派营业所", "address": "林芝市米林县派镇", "latitude": 29.8447, "guid": "22c400c4-b3ee-11e7-a975-6c92bf041d56"}
{"province": "安徽", "distance": 8.166577874110912, "sametype": "same", "thirdId": "941da5e6-949b-4f4a-9edd-0412e7098a16", "name": "合肥桃花工业园区支行", "city": "合肥市", "longitude": 117.221405, "score": "0.945751", "oldname": "北京定福庄支行", "address": "安徽省肥西县桃花镇民营企业区", "latitude": 31.7761459, "guid": "22e292c8-b3ee-11e7-93da-6c92bf041d56"}
{"province": "广东省", "distance": 0.0, "sametype": "same", "thirdId": "fe05e67f-9757-4a79-b4ed-0415f3e6888b", "name": "湛江人民支行", "city": "湛江市", "longitude": 110.404648, "score": "0.998899", "oldname": "湛江人民支行", "address": "人民南路53号3幢一层53号商铺", "latitude": 21.1975, "guid": "22c4b014-b3ee-11e7-b1bd-6c92bf041d56"}
{"province": "广西壮族自治区", "distance": 15.617540050513592, "sametype": "same", "thirdId": "aa97e798-5f77-4ef7-a6ca-04179e100f94", "name": "百色城西分理处", "city": "百色市", "longitude": 106.604836, "score": "0.942644", "oldname": "扬中城西支行", "address": "中山二路尾", "latitude": 23.88965, "guid": "22edef10-b3ee-11e7-9f93-6c92bf041d56"}
{"province": "贵州省", "distance": 18.545155427911, "sametype": "same", "thirdId": "e2c5ce50-e273-4ef2-a991-0418292a19f0", "name": "贞丰县支行营业室", "city": "黔西南布依族苗族自治州", "longitude": 105.654686, "score": "0.904576", "oldname": "三河市支行营业室", "address": "珉谷镇水井巷44号", "latitude": 25.3820934, "guid": "226df99a-b3ee-11e7-acdb-6c92bf041d56"}
{"province": "西藏", "distance": 24.01358304031126, "sametype": "same", "thirdId": "b3ab3ee9-d451-4659-a6e8-0418dc129cf8", "name": "拉孜曲下营业所", "city": "日喀则市", "longitude": 87.6322, "score": "0.626468", "oldname": "临澧支行营业室", "address": "西藏日喀则地区拉孜县曲下镇", "latitude": 29.088, "guid": "22de841c-b3ee-11e7-a922-6c92bf041d56"}
{"province": "山西省", "distance": 7.120108074935228, "sametype": "same", "thirdId": "be662103-8137-458b-bce6-041e74393eaf", "name": "阳泉新世纪分理处", "city": "阳泉市", "longitude": 113.544212, "score": "0.932348", "oldname": "合肥桃花工业园区支行", "address": "桃北中路1号", "latitude": 37.87321, "guid": "22c4598e-b3ee-11e7-9e27-6c92bf041d56"}
{"province": "河北省", "distance": 16.381640367180164, "sametype": "same", "thirdId": "62a33610-dfe2-4bc3-8c84-041fbbd102f8", "name": "唐山新华西道支行营业室", "city": "唐山市", "longitude": 118.141953, "score": "0.943495", "oldname": "新华支行营业室", "address": "新华西道61号", "latitude": 39.6258278, "guid": "22a28d86-b3ee-11e7-864d-6c92bf041d56"}
{"province": "吉林省", "distance": 29.008613921948925, "sametype": "same", "thirdId": "1cc79e3b-4cce-4874-9d85-04244361ce91", "name": "图们市支行营业室", "city": "延边朝鲜族自治州", "longitude": 129.84938, "score": "0.927402", "oldname": "湟中县支行营业室", "address": "图们大路1115号", "latitude": 42.968, "guid": "2252eda8-b3ee-11e7-a0a9-6c92bf041d56"}
{"province": "新疆维吾尔自治区", "distance": 41.851150533155185, "sametype": "same", "thirdId": "9ae59526-f46e-4991-a07f-042661c7e89d", "name": "克拉玛依独山子支行营业室", "city": "克拉玛依市", "longitude": 84.86833, "score": "0.896228", "oldname": "哈尔滨红旗大街支行", "address": "大庆路31号", "latitude": 44.3244438, "guid": "229c7144-b3ee-11e7-902c-6c92bf041d56"}
{"province": "陕西省", "distance": 0.0, "sametype": "same", "thirdId": "e597703a-3c37-4bfd-a17d-0429421d11bb", "name": "西安国亨市场支行", "city": "西安市", "longitude": 108.875465, "score": "0.994963", "oldname": "西安国亨市场支行", "address": "邓六路国亨市场东门内侧", "latitude": 34.2881546, "guid": "22c75bd4-b3ee-11e7-8b10-6c92bf041d56"}
{"province": "河北省", "distance": 8.597202731066536, "sametype": "same", "thirdId": "d0b7b9aa-19a1-471e-af78-0429a919e1f2", "name": "邢台清风分理处", "city": "邢台市", "longitude": 114.508751, "score": "0.991360", "oldname": "昆山分行营业部营业室", "address": "府前东街1号", "latitude": 37.0665359, "guid": "22763b0a-b3ee-11e7-b38d-6c92bf041d56"}
{"province": "四川省", "distance": 12.943831309236199, "sametype": "same", "thirdId": "f308f46b-b4ce-4562-8376-0432543bb6b5", "name": "蓬安罗家分理处", "city": "南充市", "longitude": 106.5635, "score": "0.949266", "oldname": "淄博人民路分理处", "address": "罗家镇东街68号", "latitude": 30.83263, "guid": "229b20f0-b3ee-11e7-9882-6c92bf041d56"}
{"province": "江苏省", "distance": 11.772606006899561, "sametype": "same", "thirdId": "db695571-94c4-4b65-9f23-0436c83ffb67", "name": "高邮兴晨支行", "city": "扬州市", "longitude": 119.4618, "score": "0.961683", "oldname": "顺德青松支行", "address": "高邮镇武安路8号", "latitude": 32.76741, "guid": "229335c0-b3ee-11e7-87fb-6c92bf041d56"}
{"province": "山东省", "distance": 6.86599704327092, "sametype": "same", "thirdId": "55b9f864-13e0-469c-9609-0439c2b701f0", "name": "邹平黄山支行", "city": "滨州市", "longitude": 117.747, "score": "0.907621", "oldname": "栾川县支行营业室", "address": "月河一路106号", "latitude": 36.86388, "guid": "22b04160-b3ee-11e7-933b-6c92bf041d56"}
{"province": "广东省", "distance": 20.333872695674945, "sametype": "same", "thirdId": "223bc892-9829-4a21-90aa-043a640c46ac", "name": "深圳新生支行", "city": "深圳市", "longitude": 114.27713, "score": "0.923110", "oldname": "敖汉旗新洲支行", "address": "新城路水岸新都花园一期商铺14栋109-111号一、二楼", "latitude": 22.7479248, "guid": "22a1d1de-b3ee-11e7-a32c-6c92bf041d56"}
{"province": "广西壮族自治区", "distance": 9.048258902180276, "sametype": "same", "thirdId": "838cdd3c-b4ec-4f09-8c03-043c80ccc2a0", "name": "梧州金祥支行", "city": "梧州市", "longitude": 111.274261, "score": "0.821868", "oldname": "南充潆溪支行", "address": "新兴三路金祥花园行政办公楼地层5-8门面", "latitude": 23.4783287, "guid": "22d74b52-b3ee-11e7-ac5e-6c92bf041d56"}
{"province": "广西壮族自治区", "distance": 122.45071668357029, "sametype": "same", "thirdId": "d4d7084a-63fb-43c9-8976-043d251cd007", "name": "南宁武鸣支行营业室", "city": "南宁市", "longitude": 0, "score": "0.968213", "oldname": "罗源县支行营业室", "address": "城厢镇灵源路西段7号", "latitude": 0, "guid": "227ca666-b3ee-11e7-85f1-6c92bf041d56"}
{"province": "福建", "distance": 11.307730069446126, "sametype": "same", "thirdId": "6c4d831c-261f-4091-97f9-0441f56ca623", "name": "武平上中支行", "city": "龙岩市", "longitude": 116.269363, "score": "0.969626", "oldname": "铜梁安居支行", "address": "武平县中堡镇朱坊村", "latitude": 25.1965961, "guid": "229a78da-b3ee-11e7-a900-6c92bf041d56"}
{"province": "河南省", "distance": 5.396523725438607, "sametype": "same", "thirdId": "9fcd5910-feab-4980-a20f-0442505492c6", "name": "信阳行政区分理处", "city": "信阳市", "longitude": 114.068672, "score": "0.912070", "oldname": "济南银河支行营业室", "address": "东方红大道", "latitude": 32.1227341, "guid": "227090f6-b3ee-11e7-ac20-6c92bf041d56"}
{"province": "海南省", "distance": 112.42823149739445, "sametype": "same", "thirdId": "8ab9691f-3fd1-4a5e-a2b5-044550e00e70", "name": "文昌会文分理处", "city": "省直辖县级行政区划", "longitude": 110.730888, "score": "0.957517", "oldname": "重庆南川西外支行", "address": "会文镇华侨新街", "latitude": 19.4622116, "guid": "22f795ec-b3ee-11e7-9a2d-6c92bf041d56"}
{"province": "湖南省", "distance": 20.88814310775525, "sametype": "same", "thirdId": "ee640b8e-2f82-456d-a887-0446854a90e5", "name": "永兴马田支行", "city": "郴州市", "longitude": 112.893745, "score": "0.957654", "oldname": "东丰西城分理处", "address": "马田镇和平路82号", "latitude": 26.1025925, "guid": "2257201c-b3ee-11e7-97a3-6c92bf041d56"}
{"province": "湖南省", "distance": 0.0, "sametype": "same", "thirdId": "cb5f1ff7-0452-4c9e-8a27-044908b072d4", "name": "醴陵泗汾分理处", "city": "株洲市", "longitude": 113.501938, "score": "0.985568", "oldname": "醴陵泗汾分理处", "address": "泗汾镇", "latitude": 27.5141277, "guid": "22cb5914-b3ee-11e7-982e-6c92bf041d56"}
{"province": "重庆市", "distance": 14.6467989516784, "sametype": "same", "thirdId": "1fabf79d-c94a-4bac-bf42-0450566101d4", "name": "重庆渝北龙湖支行", "city": "重庆市", "longitude": 106.499329, "score": "0.977008", "oldname": "临海东湖支行", "address": "龙溪镇新南路6号附2号", "latitude": 29.601223, "guid": "22dc85fe-b3ee-11e7-a5fe-6c92bf041d56"}
{"province": "浙江省", "distance": 0.0, "sametype": "same", "thirdId": "4124fd5d-2246-493b-95f8-04541eb9a786", "name": "台州葭沚支行", "city": "台州市", "longitude": 121.41333, "score": "0.998786", "oldname": "台州葭沚支行", "address": "葭沚街道集圣庙老年活动中心", "latitude": 28.6732349, "guid": "22cc00f8-b3ee-11e7-ac0e-6c92bf041d56"}
{"province": "重庆市", "distance": 8.555889790120155, "sametype": "same", "thirdId": "8985e867-11a4-41f5-a136-045581e662cf", "name": "忠县白石支行", "city": "重庆市", "longitude": 107.885979, "score": "0.967425", "oldname": "颍上耿棚支行", "address": "白石镇白石铺37号", "latitude": 30.3136921, "guid": "22c340bc-b3ee-11e7-97d4-6c92bf041d56"}
{"province": "河北省", "distance": 2.638574455994252, "sametype": "same", "thirdId": "58827743-306e-43a6-a16c-0455fc359d3c", "name": "宁晋大陆村支行", "city": "邢台市", "longitude": 115.038963, "score": "0.959642", "oldname": "北京中关村支行", "address": "大陆村镇赵南村村南", "latitude": 37.6682243, "guid": "224a16b0-b3ee-11e7-b9dd-6c92bf041d56"}
{"province": "贵州省", "distance": 0.0, "sametype": "same", "thirdId": "e3f0ec8f-dfe6-413c-a60e-04562e91bc0b", "name": "贵阳碧海支行", "city": "贵阳市", "longitude": 106.62233, "score": "0.995442", "oldname": "贵阳碧海支行", "address": "金阳新区金阳南路碧海花园丽阳天下B3栋负2层9-11号", "latitude": 26.6293354, "guid": "22ccfd32-b3ee-11e7-b818-6c92bf041d56"}
{"province": "江西省", "distance": 0.0, "sametype": "same", "thirdId": "e5831aee-abd4-407b-8e23-0459cae848de", "name": "吉安禾埠支行", "city": "吉安市", "longitude": 114.976944, "score": "0.995261", "oldname": "吉安禾埠支行", "address": "井岗山大道52号", "latitude": 27.0910339, "guid": "22cd5192-b3ee-11e7-a1cb-6c92bf041d56"}
{"province": "山西省", "distance": 15.120458334937581, "sametype": "same", "thirdId": "53baae3e-1e76-472d-a3b1-045afc7bab4a", "name": "新绛城关分理处", "city": "运城市", "longitude": 111.215691, "score": "0.975884", "oldname": "金平苗族瑶族傣族自治县支行营业室", "address": "龙兴街105号", "latitude": 35.62365, "guid": "22b1e4c0-b3ee-11e7-9332-6c92bf041d56"}
{"province": "天津", "distance": 16.515367063737937, "sametype": "same", "thirdId": "c5e3659d-9cdd-4668-8bf8-045c8f48067f", "name": "天津紫云分理处", "city": "天津市", "longitude": 117.6944, "score": "0.967739", "oldname": "惠州惠阳秋长支行", "address": "天津市塘沽区馨苑新城2-2-A-01号", "latitude": 39.0102, "guid": "225618ca-b3ee-11e7-ba56-6c92bf041d56"}
{"province": "甘肃省", "distance": 0.0, "sametype": "same", "thirdId": "f0cab7e6-e104-4042-b2b3-045ce588725f", "name": "宁县平子支行", "city": "庆阳市", "longitude": 108.186249, "score": "0.994501", "oldname": "宁县平子支行", "address": "平子镇平子街2号", "latitude": 35.45023, "guid": "22ce4cc8-b3ee-11e7-a274-6c92bf041d56"}
{"province": "湖北省", "distance": 4.95675186959303, "sametype": "same", "thirdId": "b29e9e35-7264-4a28-99d2-045d894f551a", "name": "兴山县支行营业室", "city": "宜昌市", "longitude": 110.7547, "score": "0.982778", "oldname": "英山县支行营业室", "address": "古夫镇昭君路15号", "latitude": 31.3466549, "guid": "22545788-b3ee-11e7-b17e-6c92bf041d56"}
{"province": "广东", "distance": 17.238538023367443, "sametype": "same", "thirdId": "2c80bdb6-fb5c-48cf-bea0-045e2f9fb07e", "name": "东莞会展支行", "city": "东莞市", "longitude": 113.758919, "score": "0.948698", "oldname": "民和县川口支行", "address": "东莞市南城区新城市中心区会展中心北侧东莞市会展国际大酒店首层西区", "latitude": 23.0161457, "guid": "22f63076-b3ee-11e7-ad24-6c92bf041d56"}
{"province": "广西壮族自治区", "distance": 17.260181220326924, "sametype": "same", "thirdId": "33870031-6283-4141-820f-045ee58f204b", "name": "横县陶圩分理处", "city": "南宁市", "longitude": 109.129395, "score": "0.967774", "oldname": "潍坊眉村分理处", "address": "陶圩镇南街", "latitude": 22.8248329, "guid": "22a78a52-b3ee-11e7-99bb-6c92bf041d56"}
{"province": "广东省", "distance": 8.309942153317197, "sametype": "same", "thirdId": "ff8191a2-937c-4cc5-9eb6-046478a8d7b0", "name": "开平新华支行", "city": "江门市", "longitude": 112.680344, "score": "0.975931", "oldname": "武穴余川支行", "address": "祥龙中路15号A地下", "latitude": 22.3560047, "guid": "225ed1a4-b3ee-11e7-86e7-6c92bf041d56"}
{"province": "山东省", "distance": 0.0, "sametype": "same", "thirdId": "05c9063e-5739-44b6-89cb-0466985b7e65", "name": "临沂汤头支行", "city": "临沂市", "longitude": 118.511841, "score": "0.994631", "oldname": "临沂汤头支行", "address": "汤头街道办事处", "latitude": 35.2665977, "guid": "22cfee70-b3ee-11e7-b09e-6c92bf041d56"}
{"province": "山东省", "distance": 12.606250362867751, "sametype": "same", "thirdId": "4a89f94d-28e3-42ee-a58e-046e6fa52932", "name": "邹城城北支行", "city": "济宁市", "longitude": 116.960106, "score": "0.984870", "oldname": "凯里阳光支行", "address": "龙山路北首路西", "latitude": 35.4166832, "guid": "2290153e-b3ee-11e7-91b4-6c92bf041d56"}
{"province": "陕西省", "distance": 5.31049471290984, "sametype": "same", "thirdId": "c888c4b9-72e0-43e1-ad35-046e961eba26", "name": "渭南乐天花园分理处", "city": "渭南市", "longitude": 109.53878, "score": "0.961435", "oldname": "滑县高平支行", "address": "乐天大街中段", "latitude": 34.50972, "guid": "226e5890-b3ee-11e7-ab95-6c92bf041d56"}
{"province": "山西省", "distance": 9.8251957168714, "sametype": "same", "thirdId": "e99a8864-8642-4bba-b693-046f5bdc783e", "name": "太原双塔支行", "city": "太原市", "longitude": 112.583145, "score": "0.970906", "oldname": "无锡胡埭支行", "address": "双塔西街37号", "latitude": 37.845787, "guid": "22a9f792-b3ee-11e7-9f99-6c92bf041d56"}
{"province": "江西省", "distance": 10.074410756400239, "sametype": "same", "thirdId": "00ba3261-cd9a-4dae-a4ec-04775c9934b3", "name": "安远县支行营业室", "city": "赣州市", "longitude": 115.394951, "score": "0.992859", "oldname": "温县支行营业室", "address": "欣山镇龙泉路12号", "latitude": 25.1336517, "guid": "2263b03e-b3ee-11e7-8a94-6c92bf041d56"}
{"province": "山西省", "distance": 7.486340858385647, "sametype": "same", "thirdId": "54962b5b-26b5-4e26-962d-0484241d9290", "name": "翼城红旗分理处", "city": "临汾市", "longitude": 111.712357, "score": "0.880271", "oldname": "安庆华中路分理处", "address": "农机公司门前", "latitude": 35.73939, "guid": "22d8470a-b3ee-11e7-b0b8-6c92bf041d56"}
{"province": "山东省", "distance": 10.171117722748072, "sametype": "same", "thirdId": "07b17b09-b0c0-4b7f-8c98-0486ca95afbf", "name": "临朐朐山分理处", "city": "潍坊市", "longitude": 118.55336, "score": "0.651253", "oldname": "常德鼎城善卷分理处", "address": "临朐南路59号", "latitude": 36.49841, "guid": "22ecf434-b3ee-11e7-9492-6c92bf041d56"}
{"province": "河北省", "distance": 9.69031937952363, "sametype": "same", "thirdId": "b56a953d-44f6-4071-9471-048841e7159d", "name": "迁安滨河分理处", "city": "唐山市", "longitude": 118.580406, "score": "0.936619", "oldname": "榆树泗河支行", "address": "滨河村", "latitude": 39.9931068, "guid": "22ea3d0c-b3ee-11e7-a776-6c92bf041d56"}
{"province": "湖南省", "distance": 0.0, "sametype": "same", "thirdId": "47d2224c-c8bf-4a6b-806a-048b032a5406", "name": "祁阳金洞营业所", "city": "永州市", "longitude": 112.088112, "score": "0.995222", "oldname": "祁阳金洞营业所", "address": "金洞镇金洞街6号", "latitude": 26.2647152, "guid": "22d28a0e-b3ee-11e7-a73e-6c92bf041d56"}
{"province": "广东省", "distance": 7.90930649392908, "sametype": "same", "thirdId": "8da3c0c8-7f29-4950-b6a7-048c039dcc42", "name": "佛山龙角支行", "city": "佛山市", "longitude": 113.11676, "score": "0.894789", "oldname": "三峡龙泉支行", "address": "普澜路石头管理区南方不锈钢市场16号铺", "latitude": 22.98498, "guid": "22952fec-b3ee-11e7-af53-6c92bf041d56"}
{"province": "广西壮族自治区", "distance": 8.399479117953923, "sametype": "same", "thirdId": "403e9be5-b1c7-4c5b-a972-048c3e2e6f6a", "name": "南宁迎宾支行", "city": "南宁市", "longitude": 108.366508, "score": "0.921344", "oldname": "三峡西陵支行营业室", "address": "迎宾路1号", "latitude": 22.8195324, "guid": "22b93a9a-b3ee-11e7-83b9-6c92bf041d56"}
{"province": "江苏省", "distance": 13.308824024401998, "sametype": "same", "thirdId": "4f399d9a-1db0-44f3-96ba-048c762a5ed5", "name": "无锡太科园支行", "city": "无锡市", "longitude": 120.3877, "score": "0.906518", "oldname": "武宣城北支行", "address": "新区新安街道中心街20号", "latitude": 31.48335, "guid": "225fccb2-b3ee-11e7-b0de-6c92bf041d56"}
{"province": "甘肃省", "distance": 11.479812731780118, "sametype": "same", "thirdId": "0253220d-7ad8-47c1-829b-0490b35340c3", "name": "定西友谊路分理处", "city": "定西市", "longitude": 104.618767, "score": "0.989500", "oldname": "武邑建设西路分理处", "address": "友谊北路104号6", "latitude": 35.5820351, "guid": "22e1737a-b3ee-11e7-b177-6c92bf041d56"}
{"province": "甘肃省", "distance": 20.009865270766678, "sametype": "same", "thirdId": "e48d7c83-96da-4f14-a5ba-0494257a6a8b", "name": "酒泉肃州支行营业室", "city": "酒泉市", "longitude": 98.513, "score": "0.976656", "oldname": "贵港分行营业部营业室", "address": "盘旋东路2号", "latitude": 39.74543, "guid": "2256c3ba-b3ee-11e7-902d-6c92bf041d56"}
{"province": "四川省", "distance": 13.752037465424692, "sametype": "same", "thirdId": "6f8ec97a-7dcf-4114-aef5-049850f7b9c0", "name": "梓潼南门分理处", "city": "绵阳市", "longitude": 105.163612, "score": "0.938762", "oldname": "淄博淄城分理处", "address": "文昌路中段30、32号", "latitude": 31.6286049, "guid": "2299296c-b3ee-11e7-9f08-6c92bf041d56"}
{"province": "江苏省", "distance": 0.6603761791270488, "sametype": "same", "thirdId": "274129a4-a247-40a4-a269-04a72b1980f6", "name": "苏州石路支行", "city": "苏州市", "longitude": 120.603516, "score": "0.993641", "oldname": "湖州菰城支行", "address": "广济路小商品市场内", "latitude": 31.3144131, "guid": "22c2837a-b3ee-11e7-9b20-6c92bf041d56"}
{"province": "安徽", "distance": 2.5109262970317987, "sametype": "same", "thirdId": "4661a933-45fd-4c3f-afac-04aa2ba95279", "name": "铜陵南区支行", "city": "铜陵市", "longitude": 117.772209, "score": "0.995791", "oldname": "德安蒲亭分理处", "address": "安徽省铜陵市郊区民主安置点2号网点", "latitude": 30.834013, "guid": "2264113c-b3ee-11e7-b4ec-6c92bf041d56"}
{"province": "广东", "distance": 0.0, "sametype": "same", "thirdId": "d36690e1-90be-4038-bcd2-04b0b3b290b0", "name": "广州花城支行", "city": "广州市", "longitude": 113.326, "score": "0.984774", "oldname": "广州花城支行", "address": "广州市天河区珠江新城珠江东路32号利通广场规划设计楼层5层02单元（自编楼层5层02单元）", "latitude": 23.1258, "guid": "22d5a630-b3ee-11e7-bb6e-6c92bf041d56"}
{"province": "辽宁", "distance": 0.0, "sametype": "same", "thirdId": "10c561ed-15cf-43ee-a6df-04b12a198f5f", "name": "海城海洲支行", "city": "鞍山市", "longitude": 122.75679, "score": "0.993703", "oldname": "海城海洲支行", "address": "辽宁省海城市海州管理区东关街东风委", "latitude": 40.8445435, "guid": "22d5faea-b3ee-11e7-891d-6c92bf041d56"}
{"province": "河南省", "distance": 0.0, "sametype": "same", "thirdId": "a24f8915-0656-47e6-b7a4-04b135b5ac06", "name": "正阳县陡沟分理处", "city": "驻马店市", "longitude": 114.343269, "score": "0.940796", "oldname": "正阳县陡沟分理处", "address": "陡沟镇北街", "latitude": 32.37589, "guid": "22d64ebe-b3ee-11e7-a342-6c92bf041d56"}
{"province": "河北", "distance": 15.15236410984045, "sametype": "same", "thirdId": "571c2baf-0c05-42a6-a0ae-04b3faaa9b51", "name": "廊坊西大街支行", "city": "廊坊市", "longitude": 116.684181, "score": "0.957463", "oldname": "韶关鞍山支行", "address": "河北省廊坊市安次区永兴路88号蓝波湾小区D区16号", "latitude": 39.5127, "guid": "2253a4c8-b3ee-11e7-99c0-6c92bf041d56"}
{"province": "贵州省", "distance": 0.0, "sametype": "same", "thirdId": "2618327a-1ad6-4d6b-8cd2-04bad649c046", "name": "都匀龙山支行", "city": "黔南布依族苗族自治州", "longitude": 107.514687, "score": "0.993715", "oldname": "都匀龙山支行", "address": "开发区黔玥公寓1号楼2号门面", "latitude": 26.2744923, "guid": "22d6f83c-b3ee-11e7-bce3-6c92bf041d56"}
{"province": "四川省", "distance": 4.82468417887516, "sametype": "same", "thirdId": "2d7487e0-ce99-4754-aaf3-04beb71908bf", "name": "南充潆溪支行", "city": "南充市", "longitude": 106.064018, "score": "0.994208", "oldname": "都匀龙山支行", "address": "潆溪镇禹王街36号", "latitude": 30.87592, "guid": "22d6f83c-b3ee-11e7-bce3-6c92bf041d56"}
{"province": "河南省", "distance": 0.0, "sametype": "same", "thirdId": "6d420b33-7f5d-478a-ae91-04bff40b1b20", "name": "虞城县振华分理处", "city": "商丘市", "longitude": 115.871811, "score": "0.989505", "oldname": "虞城县振华分理处", "address": "人民路南段", "latitude": 34.3909645, "guid": "22d79ecc-b3ee-11e7-86c8-6c92bf041d56"}
{"province": "山西省", "distance": 3.2972281453002314, "sametype": "same", "thirdId": "a00b1db1-172b-43ec-9b36-04c267ab03d3", "name": "大同苹果园分理处", "city": "大同市", "longitude": 113.293747, "score": "0.753885", "oldname": "包头桂圆支行", "address": "东花园里11排1号", "latitude": 40.1142464, "guid": "22619fb0-b3ee-11e7-83a9-6c92bf041d56"}
{"province": "安徽省", "distance": 0.0, "sametype": "same", "thirdId": "60c130fa-5387-46ed-b104-04c277a74f8c", "name": "安庆华中路分理处", "city": "安庆市", "longitude": 117.067017, "score": "0.996277", "oldname": "安庆华中路分理处", "address": "华中西路106号", "latitude": 30.5074768, "guid": "22d8470a-b3ee-11e7-b0b8-6c92bf041d56"}
{"province": "山东省", "distance": 0.0, "sametype": "same", "thirdId": "fec7004d-24ce-4f77-900a-04c284f7d885", "name": "济南文苑支行", "city": "济南市", "longitude": 117.04129, "score": "0.998416", "oldname": "济南文苑支行", "address": "文化东路88-1号", "latitude": 36.6547661, "guid": "22d89aca-b3ee-11e7-9071-6c92bf041d56"}
{"province": "安徽省", "distance": 0.0, "sametype": "same", "thirdId": "b303168a-7b8d-40d2-bab3-04c3690dd675", "name": "蚌埠蓝天分理处", "city": "蚌埠市", "longitude": 117.364822, "score": "0.985271", "oldname": "蚌埠蓝天分理处", "address": "南山古玩市场内", "latitude": 32.9272156, "guid": "22d8ef5c-b3ee-11e7-909c-6c92bf041d56"}
{"province": "甘肃省", "distance": 0.0, "sametype": "same", "thirdId": "b1c72f78-de9a-4708-96f4-04c3f9019b6e", "name": "天水南滨河支行", "city": "天水市", "longitude": 105.895805, "score": "0.993879", "oldname": "天水南滨河支行", "address": "埠南路25号", "latitude": 34.55471, "guid": "22d942b8-b3ee-11e7-96bc-6c92bf041d56"}
{"province": "青海省", "distance": 0.0, "sametype": "same", "thirdId": "fbabe4f1-b5ab-462a-a324-04cddafd69ed", "name": "湟中县新墩支行", "city": "西宁市", "longitude": 101.5297, "score": "0.997154", "oldname": "湟中县新墩支行", "address": "多巴镇新墩村", "latitude": 36.64579, "guid": "22d9960a-b3ee-11e7-a656-6c92bf041d56"}
{"province": "重庆市", "distance": 28.816994178417005, "sametype": "same", "thirdId": "431c207c-db8f-43cb-a06d-04cebd17788d", "name": "垫江桂东支行", "city": "重庆市", "longitude": 107.356857, "score": "0.965043", "oldname": "博乐友好支行", "address": "桂溪镇石岩路1号", "latitude": 30.3283138, "guid": "22602072-b3ee-11e7-865a-6c92bf041d56"}
{"province": "江苏省", "distance": 0.0, "sametype": "same", "thirdId": "bf83448c-2a05-4762-bcf5-04d9ebd0ca83", "name": "泰州江洲路支行", "city": "泰州市", "longitude": 119.902847, "score": "0.995334", "oldname": "泰州江洲路支行", "address": "扬州路201号", "latitude": 32.46718, "guid": "22da3cb8-b3ee-11e7-9e66-6c92bf041d56"}
{"province": "四川省", "distance": 0.0, "sametype": "same", "thirdId": "d11821d3-8db3-4cc0-89ff-04dbc1f471d1", "name": "成都太升支行", "city": "成都市", "longitude": 104.082619, "score": "0.990959", "oldname": "成都太升支行", "address": "太升北路56号江信大厦底楼", "latitude": 30.67189, "guid": "22da90aa-b3ee-11e7-b6f7-6c92bf041d56"}
{"province": "吉林", "distance": 0.8315548079552476, "sametype": "same", "thirdId": "df6cee7d-cb9a-4b60-8008-04de4f3d45ca", "name": "公主岭范家屯支行", "city": "四平市", "longitude": 125.0658, "score": "0.885569", "oldname": "梨树十家堡支行", "address": "吉林省公主岭市范家屯镇", "latitude": 43.715, "guid": "227e1c8a-b3ee-11e7-b5f4-6c92bf041d56"}
{"province": "湖南省", "distance": 3.220675365705623, "sametype": "same", "thirdId": "c22fe13f-9ae3-438d-a5d8-04e3a7462aff", "name": "岳阳太阳桥分理处", "city": "岳阳市", "longitude": 113.167854, "score": "0.979200", "oldname": "襄阳石桥支行", "address": "巴陵中路614号岳阳市房产大厦一楼", "latitude": 29.3578548, "guid": "229ccda6-b3ee-11e7-a148-6c92bf041d56"}
{"province": "山西省", "distance": 1.1929299293860507, "sametype": "same", "thirdId": "2887eb20-1094-46b4-8b40-04e55be22333", "name": "泽州大东沟分理处", "city": "晋城市", "longitude": 112.71122, "score": "0.995302", "oldname": "登封市卢店分理处", "address": "大东沟镇大东沟村", "latitude": 35.56469, "guid": "22e9e8de-b3ee-11e7-a9d3-6c92bf041d56"}
{"province": "山东省", "distance": 3.8740428665481854, "sametype": "same", "thirdId": "e784ab76-b2bf-4dab-ac4a-04e6f41fb7d1", "name": "滕州善国支行", "city": "枣庄市", "longitude": 117.159805, "score": "0.992857", "oldname": "静海王口支行", "address": "荆河中路84号", "latitude": 35.07982, "guid": "225983e8-b3ee-11e7-abed-6c92bf041d56"}
{"province": "河南", "distance": 126.68988470863262, "sametype": "same", "thirdId": "d487366f-efd9-4582-a465-04eeaa915181", "name": "睢县蓼堤分理处", "city": "商丘市", "longitude": -1, "score": "0.902223", "oldname": "上海淞南支行", "address": "河南省睢县蓼堤镇", "latitude": -1, "guid": "2274e57a-b3ee-11e7-8865-6c92bf041d56"}
{"province": "浙江省", "distance": 0.0, "sametype": "same", "thirdId": "31260240-560b-4cb3-b3ab-04f14db87574", "name": "临海东湖支行", "city": "台州市", "longitude": 121.126488, "score": "0.991910", "oldname": "临海东湖支行", "address": "回浦路34号", "latitude": 28.8429756, "guid": "22dc85fe-b3ee-11e7-a5fe-6c92bf041d56"}
{"province": "辽宁省", "distance": 0.0, "sametype": "same", "thirdId": "2dcda49d-3827-49e0-aafd-04f1d57c41ee", "name": "大连青春街分理处", "city": "大连市", "longitude": 121.645172, "score": "0.997762", "oldname": "大连青春街分理处", "address": "八一路122号", "latitude": 38.88529, "guid": "22dcdaa4-b3ee-11e7-9ef4-6c92bf041d56"}
{"province": "宁夏回族自治区", "distance": 9.39359949153884, "sametype": "same", "thirdId": "7a58f868-f474-4b2d-be22-04f3117ba5d7", "name": "灵武市支行营业室", "city": "银川市", "longitude": 106.332886, "score": "0.942687", "oldname": "枝江民主大道分理处", "address": "西街", "latitude": 38.09412, "guid": "229d2d14-b3ee-11e7-9542-6c92bf041d56"}
{"province": "江苏省", "distance": 7.600926198742427, "sametype": "same", "thirdId": "1b9917ce-8422-407a-8df2-04f4631ebd5e", "name": "无锡西门支行", "city": "无锡市", "longitude": 120.291077, "score": "0.959331", "oldname": "方城县赵河支行", "address": "五爱路17-2号", "latitude": 31.5735, "guid": "22de30ac-b3ee-11e7-b72f-6c92bf041d56"}
{"province": "新疆维吾尔自治区", "distance": 35.19628525924668, "sametype": "same", "thirdId": "e6c90069-0c96-4805-9be4-04f90c09615b", "name": "塔城163团支行", "city": "塔城地区", "longitude": 82.89974, "score": "0.953310", "oldname": "天津中山门支行", "address": "阿克桥镇", "latitude": 46.7256546, "guid": "228bc330-b3ee-11e7-bc1c-6c92bf041d56"}
{"province": "河南省", "distance": 0.0, "sametype": "same", "thirdId": "42ba6350-8475-4f02-888a-04faf998051a", "name": "方城县赵河支行", "city": "南阳市", "longitude": 112.8652, "score": "0.998409", "oldname": "方城县赵河支行", "address": "赵河镇赵河街", "latitude": 33.19536, "guid": "22de30ac-b3ee-11e7-b72f-6c92bf041d56"}
{"province": "湖南省", "distance": 115.46107799070094, "sametype": "same", "thirdId": "9be6a325-f3f0-4631-be41-04fbbc069269", "name": "临澧支行营业室", "city": "常德市", "longitude": 111.643112, "score": "0.905360", "oldname": "南宁武鸣支行营业室", "address": "城关镇55号", "latitude": 29.4461555, "guid": "22c9b190-b3ee-11e7-966b-6c92bf041d56"}
{"province": "新疆维吾尔自治区", "distance": 0.0, "sametype": "same", "thirdId": "f5b3c4b8-36dd-4e49-a777-050283e8c34b", "name": "察布查尔县支行营业室", "city": "伊犁哈萨克自治州", "longitude": 81.1505356, "score": "0.981894", "oldname": "察布查尔县支行营业室", "address": "杜林拜街", "latitude": 43.83892, "guid": "22ded75a-b3ee-11e7-b654-6c92bf041d56"}
{"province": "山东省", "distance": 9.79880193814432, "sametype": "same", "thirdId": "f547c5a8-d558-4ef5-a5e1-05032f03fefe", "name": "沂源县支行营业室", "city": "淄博市", "longitude": 118.168159, "score": "0.977760", "oldname": "罗源县支行营业室", "address": "胜利路15号", "latitude": 36.18825, "guid": "227ca666-b3ee-11e7-85f1-6c92bf041d56"}
{"province": "山东省", "distance": 12.382195277960761, "sametype": "same", "thirdId": "65e33e54-4834-47f7-97ba-05037cee849c", "name": "高青县支行营业室", "city": "淄博市", "longitude": 117.836273, "score": "0.963608", "oldname": "秦安县支行营业室", "address": "高苑路13号", "latitude": 37.1651726, "guid": "22748ff8-b3ee-11e7-88ed-6c92bf041d56"}
{"province": "云南省", "distance": 0.0, "sametype": "same", "thirdId": "a3febe27-6318-45a2-9421-050f498374a9", "name": "富源老厂分理处", "city": "曲靖市", "longitude": 104.3119, "score": "0.998133", "oldname": "富源老厂分理处", "address": "老厂乡红旗街80号", "latitude": 25.1319, "guid": "22dff360-b3ee-11e7-b9e0-6c92bf041d56"}
{"province": "山东省", "distance": 0.0, "sametype": "same", "thirdId": "b35b63a1-c5b4-438c-ad72-051190e59365", "name": "菏泽水浒支行", "city": "菏泽市", "longitude": 115.945747, "score": "0.993869", "oldname": "菏泽水浒支行", "address": "东门街中段", "latitude": 35.5976219, "guid": "22e053e6-b3ee-11e7-a1df-6c92bf041d56"}
{"province": "北京市", "distance": 0.0, "sametype": "same", "thirdId": "ac2e52d9-3576-4b9b-807f-0515b6e6673b", "name": "北京新外支行", "city": "北京市", "longitude": 116.371185, "score": "0.989716", "oldname": "北京新外支行", "address": "新外大街K8号", "latitude": 39.96193, "guid": "22e0b296-b3ee-11e7-b945-6c92bf041d56"}
{"province": "新疆维吾尔自治区", "distance": 32.22653165736464, "sametype": "same", "thirdId": "0cf914ca-f065-4614-bd06-0516f0521ed9", "name": "石河子桃花镇支行", "city": "自治区直辖县级行政区划", "longitude": 85.271225, "score": "0.975950", "oldname": "武宣城北支行", "address": "农八师133团团部", "latitude": 44.66675, "guid": "225fccb2-b3ee-11e7-b0de-6c92bf041d56"}
{"province": "河北省", "distance": 14.892567989987485, "sametype": "same", "thirdId": "ab330f26-59ab-4ff0-8381-0517bd44d8bb", "name": "武邑建设西路分理处", "city": "衡水市", "longitude": 115.8823, "score": "0.857352", "oldname": "图们市支行营业室", "address": "西环路东侧腾达南大街13号、15号", "latitude": 37.7999, "guid": "22c6b1fc-b3ee-11e7-b699-6c92bf041d56"}
{"province": "福建省", "distance": 15.110848523683977, "sametype": "same", "thirdId": "7d2552c5-330b-4979-a8a0-0518ced71d2b", "name": "厦门自贸试验区港区支行", "city": "厦门市", "longitude": 117.982758, "score": "0.981899", "oldname": "乐山嘉州支行", "address": "海沧镇海沧街大路头15号", "latitude": 24.4607067, "guid": "227032aa-b3ee-11e7-af13-6c92bf041d56"}
{"province": "辽宁省", "distance": 0.0, "sametype": "same", "thirdId": "db18fd4b-c4cb-4f99-8256-05191409b0b3", "name": "兴城东辛庄支行", "city": "葫芦岛市", "longitude": 120.443924, "score": "0.993334", "oldname": "兴城东辛庄支行", "address": "东辛镇镇本街", "latitude": 40.3668175, "guid": "22e23346-b3ee-11e7-95c8-6c92bf041d56"}
{"province": "北京市", "distance": 9.86661624017625, "sametype": "same", "thirdId": "941094d4-18d4-4ac6-9357-051a5bf2d2ec", "name": "北京定福庄支行", "city": "北京市", "longitude": 116.557388, "score": "0.862149", "oldname": "武穴余川支行", "address": "北京市朝阳区定福庄东街1号", "latitude": 39.9156837, "guid": "225ed1a4-b3ee-11e7-86e7-6c92bf041d56"}
{"province": "天津", "distance": 16.403346941516958, "sametype": "same", "thirdId": "45b7489e-0c9f-44de-a713-051bff6b5fd3", "name": "天津第六田园支行", "city": "天津市", "longitude": 117.230942, "score": "0.998259", "oldname": "广州花城支行", "address": "天津市河西区解放南路468号增2号", "latitude": 39.0575676, "guid": "22d5a630-b3ee-11e7-bb6e-6c92bf041d56"}
{"province": "四川", "distance": 28.12184412205943, "sametype": "same", "thirdId": "95a95e04-9273-4311-8c92-051ec6ad8200", "name": "会东新马分理处", "city": "凉山彝族自治州", "longitude": 102.675392, "score": "0.996043", "oldname": "东丰西城分理处", "address": "四川省会东县新马乡麻栎树村2组（新马乡政府大院内）", "latitude": 26.3531818, "guid": "2257201c-b3ee-11e7-97a3-6c92bf041d56"}
{"province": "浙江", "distance": 1.3999815003810736, "sametype": "same", "thirdId": "eaf72853-20b1-436b-b70e-051f266b5010", "name": "杭州萧山分行营业部营业室", "city": "杭州市", "longitude": 120.272057, "score": "0.911324", "oldname": "昆山分行营业部营业室", "address": "浙江省杭州市萧山区人民路156号", "latitude": 30.1597424, "guid": "22763b0a-b3ee-11e7-b38d-6c92bf041d56"}
{"province": "内蒙古自治区", "distance": 0.0, "sametype": "same", "thirdId": "bd8fb177-b9a8-4a45-898d-0521130a7221", "name": "鄂尔多斯东胜民生广场支行", "city": "鄂尔多斯市", "longitude": 110.0023, "score": "0.996938", "oldname": "鄂尔多斯东胜民生广场支行", "address": "民生广场C区23号", "latitude": 39.8142052, "guid": "22e3ee02-b3ee-11e7-ae45-6c92bf041d56"}
{"province": "山东省", "distance": 13.103589526458512, "sametype": "same", "thirdId": "cbf0f770-5ced-4f81-b9d9-052598e54182", "name": "高密市支行营业室", "city": "潍坊市", "longitude": 119.774689, "score": "0.943077", "oldname": "宁远柏家坪支行", "address": "夷安大道128号", "latitude": 36.38094, "guid": "22ef9284-b3ee-11e7-b87f-6c92bf041d56"}
{"province": "贵州省", "distance": 14.355047097723771, "sametype": "same", "thirdId": "4c806727-8190-4fac-b0d0-0525b6f85826", "name": "毕节麻园支行", "city": "毕节地区", "longitude": 105.295135, "score": "0.937189", "oldname": "福安韩城支行", "address": "麻园路地区政法委宿舍1-2号门面", "latitude": 27.3008442, "guid": "224be8be-b3ee-11e7-8fbb-6c92bf041d56"}
{"province": "浙江省", "distance": 0.0, "sametype": "same", "thirdId": "3d555c2f-e2e9-412d-a141-052706a45269", "name": "金华汤溪支行", "city": "金华市", "longitude": 119.403038, "score": "0.996324", "oldname": "金华汤溪支行", "address": "汤溪镇护城路18号", "latitude": 29.0496368, "guid": "22e4ef14-b3ee-11e7-96bc-6c92bf041d56"}
{"province": "内蒙古自治区", "distance": 0.0, "sametype": "same", "thirdId": "85b9661a-f3b5-479d-a423-05275395efeb", "name": "赤峰松山钢铁支行", "city": "赤峰市", "longitude": 118.954445, "score": "0.995459", "oldname": "赤峰松山钢铁支行", "address": "军分区十字路口南", "latitude": 42.26389, "guid": "22e5445a-b3ee-11e7-9575-6c92bf041d56"}
{"province": "河北省", "distance": 0.0, "sametype": "same", "thirdId": "fb88403a-fcf4-43e8-a65a-052829677e12", "name": "石家庄西清分理处", "city": "石家庄市", "longitude": 114.460854, "score": "0.992263", "oldname": "石家庄西清分理处", "address": "工农路455号", "latitude": 38.03204, "guid": "22e599fa-b3ee-11e7-bfb8-6c92bf041d56"}
{"province": "西藏自治区", "distance": 21.369416450054974, "sametype": "same", "thirdId": "bf8969b1-b71a-4f6f-8c23-05287323b0b2", "name": "尼玛县支行营业室", "city": "那曲地区", "longitude": 87.2365646, "score": "0.918547", "oldname": "礼泉县建设路分理处", "address": "建设东路86号", "latitude": 31.7865467, "guid": "228dbf96-b3ee-11e7-a061-6c92bf041d56"}
{"province": "山东省", "distance": 0.0, "sametype": "same", "thirdId": "8bee0ad6-66c4-48a0-8f5e-0528f81aa620", "name": "淄博新村西路分理处", "city": "淄博市", "longitude": 118.027596, "score": "0.997190", "oldname": "淄博新村西路分理处", "address": "新村西路省水利学院对过", "latitude": 36.8025742, "guid": "22e64422-b3ee-11e7-af04-6c92bf041d56"}
{"province": "广东省", "distance": 0.0, "sametype": "same", "thirdId": "d430e8f5-e532-4e44-bf54-052a23b886a8", "name": "新兴天堂支行", "city": "云浮市", "longitude": 112.00882, "score": "0.992785", "oldname": "新兴天堂支行", "address": "天堂镇解放南路7－9号", "latitude": 22.5576134, "guid": "22e69a12-b3ee-11e7-b31e-6c92bf041d56"}
{"province": "河北省", "distance": 2.3558110372971526, "sametype": "same", "thirdId": "af6301a6-fc98-4f33-8129-0534bdf4f340", "name": "任丘裕华支行", "city": "沧州市", "longitude": 116.106804, "score": "0.996072", "oldname": "章丘绣惠支行", "address": "裕华路百货商场一楼", "latitude": 38.7106247, "guid": "22ed479a-b3ee-11e7-8453-6c92bf041d56"}
{"province": "山东省", "distance": 0.0, "sametype": "same", "thirdId": "12177a54-9791-404d-9e84-053b52c78257", "name": "巨野银星分理处", "city": "菏泽市", "longitude": 116.089691, "score": "0.996976", "oldname": "巨野银星分理处", "address": "人民路中段路南", "latitude": 35.39182, "guid": "22e745d4-b3ee-11e7-9624-6c92bf041d56"}
{"province": "广东省", "distance": 13.147330572714294, "sametype": "same", "thirdId": "3fe6bbe4-df27-4090-a087-0544206baa50", "name": "兴宁市支行营业室", "city": "梅州市", "longitude": 115.726173, "score": "0.975189", "oldname": "广饶大王支行", "address": "兴城镇兴华路16号", "latitude": 24.1403351, "guid": "224f8f3c-b3ee-11e7-84e5-6c92bf041d56"}
{"province": "内蒙古", "distance": 15.289564234961766, "sametype": "same", "thirdId": "9097e566-ebad-490a-8e99-0547abcc976c", "name": "巴彦淖尔丰河路支行", "city": "巴彦淖尔市", "longitude": 107.376869, "score": "0.956697", "oldname": "溧阳城中支行", "address": "巴彦淖尔市临河区丰河路临河区财政局楼下", "latitude": 40.7593422, "guid": "22f2d386-b3ee-11e7-9bd8-6c92bf041d56"}
{"province": "海南省", "distance": 11.943326272824663, "sametype": "same", "thirdId": "bb09d23d-1c16-444b-a09d-054a11ccc255", "name": "万宁三更罗支行", "city": "省直辖县级行政区划", "longitude": 110.189095, "score": "0.991239", "oldname": "三峡龙泉支行", "address": "新中农场", "latitude": 18.8542385, "guid": "22952fec-b3ee-11e7-af53-6c92bf041d56"}
{"province": "广东省", "distance": 0.0, "sametype": "same", "thirdId": "86cf0441-8c16-401d-a942-054b6d86c0c7", "name": "中山世纪新城支行", "city": "中山市", "longitude": 113.3528, "score": "0.993567", "oldname": "中山世纪新城支行", "address": "西区翠景花园46幢地下3--4卡", "latitude": 22.50545, "guid": "22e8993e-b3ee-11e7-8105-6c92bf041d56"}
{"province": "黑龙江省", "distance": 0.0, "sametype": "same", "thirdId": "e06512e5-81d9-4067-9111-0558190cc7d5", "name": "鹤岗中心分理处", "city": "鹤岗市", "longitude": 130.2736, "score": "0.971541", "oldname": "鹤岗中心分理处", "address": "内环路五号楼1楼", "latitude": 47.3223343, "guid": "22e8ecfe-b3ee-11e7-b0f3-6c92bf041d56"}
{"province": "福建省", "distance": 25.844556758564067, "sametype": "same", "thirdId": "ad66b636-51c9-4fdd-b22b-055a79a23133", "name": "长汀濯田支行", "city": "龙岩市", "longitude": 116.33812, "score": "0.815290", "oldname": "鹤岗中心分理处", "address": "濯田镇街上村", "latitude": 25.5566845, "guid": "22e8ecfe-b3ee-11e7-b0f3-6c92bf041d56"}
{"province": "湖南省", "distance": 21.050736195793565, "sametype": "same", "thirdId": "e5d19100-87e5-407f-b892-055b2d4f6e48", "name": "隆回司门前支行", "city": "邵阳市", "longitude": 110.1307, "score": "0.965048", "oldname": "梨树十家堡支行", "address": "司门前镇兴隆居委会1组", "latitude": 27.7789, "guid": "227e1c8a-b3ee-11e7-b5f4-6c92bf041d56"}
{"province": "河南省", "distance": 7.31207688564975, "sametype": "same", "thirdId": "e3cad476-3bab-462c-9609-055d89b7d9e8", "name": "登封市卢店分理处", "city": "郑州市", "longitude": 113.161415, "score": "0.926395", "oldname": "营山骆市分理处", "address": "卢店镇迎宾路", "latitude": 34.45997, "guid": "22bc4816-b3ee-11e7-9de5-6c92bf041d56"}
{"province": "吉林省", "distance": 9.994253392017598, "sametype": "same", "thirdId": "b0f94fcf-fe12-4f18-aa85-05620f1a54f0", "name": "榆树泗河支行", "city": "长春市", "longitude": 126.890953, "score": "0.914820", "oldname": "海阳东村支行", "address": "泗河镇供销社相邻", "latitude": 44.97679, "guid": "22827320-b3ee-11e7-b7d5-6c92bf041d56"}
{"province": "辽宁省", "distance": 0.0, "sametype": "same", "thirdId": "74de9e88-5499-4e0b-9fdd-0562bb59a72b", "name": "大连西南路支行", "city": "大连市", "longitude": 121.562561, "score": "0.997451", "oldname": "大连西南路支行", "address": "西南路352号", "latitude": 38.90294, "guid": "22ea914e-b3ee-11e7-99ec-6c92bf041d56"}
{"province": "云南省", "distance": 0.0, "sametype": "same", "thirdId": "ae1da4c3-3edc-48a6-890a-05634fdaefdf", "name": "大理鸳浦街分理处", "city": "大理白族自治州", "longitude": 100.226479, "score": "0.998218", "oldname": "大理鸳浦街分理处", "address": "下关镇鸳浦街中心广场415号", "latitude": 25.5786171, "guid": "22eae586-b3ee-11e7-a2d3-6c92bf041d56"}
{"province": "重庆市", "distance": 9.061583257075663, "sametype": "same", "thirdId": "3ac0da50-22ff-4865-bdc8-0563faea4791", "name": "重庆合川双槐支行", "city": "重庆市", "longitude": 106.458611, "score": "0.977787", "oldname": "吉安禾埠支行", "address": "渭溪文明街9号", "latitude": 30.1813889, "guid": "22cd5192-b3ee-11e7-a1cb-6c92bf041d56"}
{"province": "广东省", "distance": 0.0, "sametype": "same", "thirdId": "43e3e0af-0968-4335-869f-0564fd02aa3e", "name": "信宜白石支行", "city": "茂名市", "longitude": 111.088242, "score": "0.993012", "oldname": "信宜白石支行", "address": "白石镇墟尾", "latitude": 22.3612671, "guid": "22eb9756-b3ee-11e7-ac23-6c92bf041d56"}
{"province": "山西省", "distance": 0.0, "sametype": "same", "thirdId": "85cf3983-b270-4b1c-ae3e-056546a2b12e", "name": "太原晋祠路支行", "city": "太原市", "longitude": 112.529877, "score": "0.997288", "oldname": "太原晋祠路支行", "address": "晋祠路一段9号", "latitude": 37.85299, "guid": "22ebf5a2-b3ee-11e7-bd87-6c92bf041d56"}
{"province": "山东省", "distance": 0.0, "sametype": "same", "thirdId": "9d1c3a4a-34bf-404b-9a5f-05661bba598f", "name": "利津盐窝分理处", "city": "东营市", "longitude": 118.383347, "score": "0.995884", "oldname": "利津盐窝分理处", "address": "盐窝镇新世纪商贸城北首", "latitude": 37.6474724, "guid": "22ec4c32-b3ee-11e7-9584-6c92bf041d56"}
{"province": "四川省", "distance": 9.864178042839454, "sametype": "same", "thirdId": "da7ab83f-d950-4532-8b25-056d0b40e243", "name": "成都簇锦南路支行", "city": "成都市", "longitude": 103.996, "score": "0.980082", "oldname": "中阳新城支行", "address": "簇锦南路13－23号", "latitude": 30.6001, "guid": "227ae0a6-b3ee-11e7-8e15-6c92bf041d56"}
{"province": "湖南省", "distance": 6.0758140547808726, "sametype": "same", "thirdId": "2d2e6df1-f8b9-4800-81fa-0578f7b12d86", "name": "常德鼎城善卷分理处", "city": "常德市", "longitude": 111.68116, "score": "0.911699", "oldname": "广州金鹰大厦支行", "address": "武陵镇仿古城", "latitude": 29.00011, "guid": "226870c4-b3ee-11e7-b2e9-6c92bf041d56"}
{"province": "山东省", "distance": 14.680185205066955, "sametype": "same", "thirdId": "8e219bf4-d621-4921-adc5-058137d4a0d2", "name": "章丘绣惠支行", "city": "济南市", "longitude": 117.504723, "score": "0.918580", "oldname": "顺德青松支行", "address": "绣惠镇城关", "latitude": 36.8144, "guid": "229335c0-b3ee-11e7-87fb-6c92bf041d56"}
{"province": "黑龙江省", "distance": 14.324135320377911, "sametype": "same", "thirdId": "e02aa865-d1fd-4260-a3eb-05814b0cfb66", "name": "绥棱上集支行", "city": "绥化市", "longitude": 127.328239, "score": "0.974115", "oldname": "沂水龙家圈分理处", "address": "上集镇政府对面", "latitude": 47.152317, "guid": "22a72cba-b3ee-11e7-b30e-6c92bf041d56"}
{"province": "江苏省", "distance": 5.406369563159371, "sametype": "same", "thirdId": "3de29f93-27f1-4fe4-bb83-0582521a5816", "name": "扬中城西支行", "city": "镇江市", "longitude": 119.805, "score": "0.902628", "oldname": "龙口南山支行", "address": "开发区新扬路18号", "latitude": 32.2361, "guid": "2281bdea-b3ee-11e7-b958-6c92bf041d56"}
{"province": "广东省", "distance": 6.7105407597109314, "sametype": "same", "thirdId": "71d31f41-48bb-4965-a554-0583813a76f3", "name": "潮安浮洋支行", "city": "潮州市", "longitude": 116.59716, "score": "0.969573", "oldname": "宿松二郎分理处", "address": "浮洋镇公路旁", "latitude": 23.5882187, "guid": "22ad4b22-b3ee-11e7-be83-6c92bf041d56"}
{"province": "四川省", "distance": 19.34846558223211, "sametype": "same", "thirdId": "7cd98b74-fdee-4095-83de-0586050b6f6a", "name": "攀枝花新华街支行", "city": "攀枝花市", "longitude": 101.716194, "score": "0.993929", "oldname": "嵊州临城支行", "address": "炳草岗大街93号", "latitude": 26.5806446, "guid": "22f6ea16-b3ee-11e7-91a5-6c92bf041d56"}
{"province": "湖北省", "distance": 7.854267660097981, "sametype": "same", "thirdId": "d78f9cb8-c46c-4569-a276-058849d26f97", "name": "武汉文昌支行", "city": "武汉市", "longitude": 114.812019, "score": "0.995532", "oldname": "广州花城支行", "address": "齐安大道大街口", "latitude": 30.83821, "guid": "22d5a630-b3ee-11e7-bb6e-6c92bf041d56"}
{"province": "山东省", "distance": 7.917104624803865, "sametype": "same", "thirdId": "d748263b-bbcd-4f33-a285-058d34369846", "name": "泰安岱岳支行营业室", "city": "泰安市", "longitude": 117.0388, "score": "0.981689", "oldname": "鄂尔多斯东胜民生广场支行", "address": "泰山大街西段", "latitude": 36.1854019, "guid": "22e3ee02-b3ee-11e7-ae45-6c92bf041d56"}
{"province": "湖南省", "distance": 0.8697373009427872, "sametype": "same", "thirdId": "abd3155e-a487-4b40-b284-058df068a4b9", "name": "宁远柏家坪支行", "city": "永州市", "longitude": 111.9906, "score": "0.994115", "oldname": "祁阳黎家坪支行", "address": "柏家坪镇柏家坪村", "latitude": 25.8399715, "guid": "229d83e0-b3ee-11e7-a342-6c92bf041d56"}
{"province": "江苏省", "distance": 0.0, "sametype": "same", "thirdId": "63c7b47d-661f-416c-a388-058e25f485e7", "name": "东海石榴支行", "city": "连云港市", "longitude": 118.76709, "score": "0.994085", "oldname": "东海石榴支行", "address": "石榴镇政府驻地", "latitude": 34.57112, "guid": "22efe590-b3ee-11e7-a412-6c92bf041d56"}
{"province": "江苏省", "distance": 8.743654948277868, "sametype": "same", "thirdId": "215cb55a-21bf-4eb7-80fe-05910d21d98c", "name": "阜宁益林支行", "city": "盐城市", "longitude": 119.606949, "score": "0.942446", "oldname": "漳平桂林支行", "address": "益林镇人民中路175号", "latitude": 33.58906, "guid": "22832716-b3ee-11e7-b0ea-6c92bf041d56"}
{"province": "河北省", "distance": 9.500745904218737, "sametype": "same", "thirdId": "82976fe1-14f5-4cc4-9c15-05923881697b", "name": "武安新华北大街分理处", "city": "邯郸市", "longitude": 114.184929, "score": "0.951832", "oldname": "海城惠海支行", "address": "新华北大街金色花园门口北侧", "latitude": 36.70135, "guid": "22a68134-b3ee-11e7-b37d-6c92bf041d56"}
{"province": "江苏省", "distance": 4.380885908831232, "sametype": "same", "thirdId": "8778b4f1-8eb6-4003-8883-0592458426fd", "name": "盐城金穗支行", "city": "盐城市", "longitude": 120.464943, "score": "0.857779", "oldname": "颍上耿棚支行", "address": "黄海西路79号", "latitude": 33.19631, "guid": "22c340bc-b3ee-11e7-97d4-6c92bf041d56"}
{"province": "吉林", "distance": 23.95734097347683, "sametype": "same", "thirdId": "34107643-b8e3-4c49-9909-059562010f95", "name": "农安隆兴支行", "city": "长春市", "longitude": 125.194115, "score": "0.966736", "oldname": "钟山兴钟支行", "address": "吉林省长春市农安县合隆镇长农大街鑫海蓝城小区正门北侧厢房1-2层6-9号", "latitude": 44.051136, "guid": "225c2e04-b3ee-11e7-b819-6c92bf041d56"}
{"province": "甘肃省", "distance": 14.549238418902666, "sametype": "same", "thirdId": "cb95c547-8fbe-40f8-8039-0598003202af", "name": "兰州先锋路分理处", "city": "兰州市", "longitude": 103.638374, "score": "0.983405", "oldname": "万安潞田分理处", "address": "庄浪东路334号", "latitude": 36.0908546, "guid": "229f2ae2-b3ee-11e7-9eab-6c92bf041d56"}
{"province": "天津市", "distance": 13.127468340671967, "sametype": "same", "thirdId": "601a7ff7-61d1-4200-81fd-059fa39b29ef", "name": "天津阳光支行", "city": "天津市", "longitude": 117.148888, "score": "0.918290", "oldname": "垫江桂东支行", "address": "港宁西路27号", "latitude": 39.0716858, "guid": "22d9e9ac-b3ee-11e7-b975-6c92bf041d56"}
{"province": "云南省", "distance": 0.0, "sametype": "same", "thirdId": "4d2cfec0-c874-4ffc-89b4-05a4080d852f", "name": "景洪城西支行", "city": "西双版纳傣族自治州", "longitude": 100.7809, "score": "0.997020", "oldname": "景洪城西支行", "address": "宣慰大道170号", "latitude": 22.0004, "guid": "22f22cb0-b3ee-11e7-9fe7-6c92bf041d56"}
{"province": "河北省", "distance": 19.39389985815897, "sametype": "same", "thirdId": "4765bbba-6fca-4f44-b454-05a97d4a1f92", "name": "廊坊银河支行", "city": "廊坊市", "longitude": 116.697258, "score": "0.976727", "oldname": "湛江人民支行", "address": "银河北路181号农行廊坊分行培训学校西门南侧", "latitude": 39.5421562, "guid": "22c4b014-b3ee-11e7-b1bd-6c92bf041d56"}
{"province": "江苏省", "distance": 5.569756988781618, "sametype": "same", "thirdId": "ee4fca24-3152-496e-ade1-05a9d480a6a2", "name": "溧阳城中支行", "city": "常州市", "longitude": 119.4886, "score": "0.936419", "oldname": "淄博新村西路分理处", "address": "西大街37号", "latitude": 31.42785, "guid": "22e64422-b3ee-11e7-af04-6c92bf041d56"}
{"province": "湖北省", "distance": 7.858935194874671, "sametype": "same", "thirdId": "e0b223e5-c0fb-4fc4-ab07-05b28685658b", "name": "荆州太湖支行", "city": "荆州市", "longitude": 112.075439, "score": "0.894790", "oldname": "宁晋大陆村支行", "address": "太湖农场太东路54号", "latitude": 30.3894615, "guid": "22cca8fa-b3ee-11e7-b6b8-6c92bf041d56"}
{"province": "四川省", "distance": 11.700963907365812, "sametype": "same", "thirdId": "be52e3f3-fb6f-421d-8e58-05b611f2df78", "name": "开江普安分理处", "city": "达州市", "longitude": 107.8339, "score": "0.865101", "oldname": "淄博人民路分理处", "address": "普安镇十字街68号", "latitude": 31.0958, "guid": "229b20f0-b3ee-11e7-9882-6c92bf041d56"}
{"province": "江苏省", "distance": 0.0, "sametype": "same", "thirdId": "3b49783d-7679-4c31-ba90-05bac19f2a98", "name": "南京华茂大厦支行", "city": "南京市", "longitude": 118.739128, "score": "0.998592", "oldname": "南京华茂大厦支行", "address": "江东北路269号", "latitude": 32.0521736, "guid": "22f3d13c-b3ee-11e7-b8ea-6c92bf041d56"}
{"province": "广东省", "distance": 0.0, "sametype": "same", "thirdId": "a09cad5e-f5b4-46de-bae6-05bb1810cac1", "name": "广州芳城支行", "city": "广州市", "longitude": 113.237068, "score": "0.994715", "oldname": "广州芳城支行", "address": "芳村区陆居路19号", "latitude": 23.0988979, "guid": "22f42d76-b3ee-11e7-adb8-6c92bf041d56"}
{"province": "陕西省", "distance": 10.706407091743603, "sametype": "same", "thirdId": "2b76be35-6ed7-493c-84d9-05bd2684c46e", "name": "杨凌示范区康乐路分理处", "city": "咸阳市", "longitude": 108.081032, "score": "0.988097", "oldname": "临朐朐山分理处", "address": "康乐路8号", "latitude": 34.2718658, "guid": "22d1e3d8-b3ee-11e7-a2e3-6c92bf041d56"}
{"province": "云南省", "distance": 0.0, "sametype": "same", "thirdId": "10b69332-6c73-47b6-8d2b-05bfd802a03b", "name": "陇川景罕分理处", "city": "德宏傣族景颇族自治州", "longitude": 97.87804, "score": "0.997027", "oldname": "陇川景罕分理处", "address": "景罕镇", "latitude": 24.2486057, "guid": "22f4e194-b3ee-11e7-9452-6c92bf041d56"}
{"province": "江苏省", "distance": 0.0, "sametype": "same", "thirdId": "f7b22d57-e4ca-47ed-8e17-05c07524e1c6", "name": "宜兴西郊支行", "city": "无锡市", "longitude": 119.799332, "score": "0.996534", "oldname": "宜兴西郊支行", "address": "环科园丰泽苑一幢15-17号", "latitude": 31.3584213, "guid": "22f534d2-b3ee-11e7-aee7-6c92bf041d56"}
{"province": "重庆市", "distance": 25.243037221224693, "sametype": "same", "thirdId": "fb5fc5b1-0004-4f92-9a73-05c8e7332110", "name": "重庆沙坪坝汉渝路支行", "city": "重庆市", "longitude": 106.469612, "score": "0.930900", "oldname": "大庆卧里屯支行营业室", "address": "汉渝路一巷8-9号", "latitude": 29.5592079, "guid": "22f5dbd0-b3ee-11e7-8756-6c92bf041d56"}
{"province": "黑龙江省", "distance": 12.461793426073147, "sametype": "same", "thirdId": "fbd3ab0b-1ed0-476f-8e8c-05ca0a5624ae", "name": "大庆卧里屯支行营业室", "city": "大庆市", "longitude": 125.213013, "score": "0.926389", "oldname": "沂源县支行营业室", "address": "卧里屯大街52号", "latitude": 46.4676628, "guid": "22df33f8-b3ee-11e7-a855-6c92bf041d56"}
{"province": "青海省", "distance": 0.0, "sametype": "same", "thirdId": "6916ea11-03ae-4c91-bfbe-05cfdd8bbb7c", "name": "民和县川口支行", "city": "海东地区", "longitude": 102.8069, "score": "0.996577", "oldname": "民和县川口支行", "address": "川口镇东大街8-11号", "latitude": 36.3285637, "guid": "22f63076-b3ee-11e7-ad24-6c92bf041d56"}
{"province": "吉林", "distance": 8.51457288217227, "sametype": "same", "thirdId": "6fbacf0b-fe60-4904-b2a0-05d2c53e4e38", "name": "梨树大马路支行", "city": "四平市", "longitude": 124.335075, "score": "0.884391", "oldname": "廊坊银河支行", "address": "吉林省梨树县梨树镇梨树南大路56号", "latitude": 43.30536, "guid": "22f27fda-b3ee-11e7-9f17-6c92bf041d56"}
{"province": "浙江省", "distance": 9.465434817651394, "sametype": "same", "thirdId": "3621aedd-f52d-407e-91db-05d3aad1e8fd", "name": "嵊州临城支行", "city": "绍兴市", "longitude": 120.831215, "score": "0.975558", "oldname": "深圳新生支行", "address": "惠民街468号", "latitude": 29.577158, "guid": "22c907a4-b3ee-11e7-9f85-6c92bf041d56"}
{"province": "浙江省", "distance": 0.0, "sametype": "same", "thirdId": "57da7fef-521c-434b-9012-05db06be65a6", "name": "东阳横店支行", "city": "金华市", "longitude": 120.316673, "score": "0.997146", "oldname": "东阳横店支行", "address": "横店镇万盛街56号", "latitude": 29.1519833, "guid": "22f74164-b3ee-11e7-8ff3-6c92bf041d56"}
{"province": "重庆", "distance": 0.0, "sametype": "same", "thirdId": "91ee1721-575c-467d-bf03-05de41aad3b3", "name": "重庆南川西外支行", "city": "重庆市", "longitude": 0, "score": "0.994935", "oldname": "重庆南川西外支行", "address": "重庆市南川区西城街道办事处西大街居委西大街13号", "latitude": 0, "guid": "22f795ec-b3ee-11e7-9a2d-6c92bf041d56"}
{"province": "福建省", "distance": 0.0, "sametype": "same", "thirdId": "e6e702f6-5e66-4fad-9d7d-05df45cd65af", "name": "晋江市支行营业室", "city": "泉州市", "longitude": 118.573349, "score": "0.968128", "oldname": "晋江市支行营业室", "address": "青阳街道办事处曾井金融小区银星大厦", "latitude": 24.80367, "guid": "22f7eae2-b3ee-11e7-a27d-6c92bf041d56"}
{"province": "安徽", "distance": 0.0, "sametype": "same", "thirdId": "16f23abb-0965-47de-b1a5-05dfdb33e1e6", "name": "合肥滨湖支行营业室", "city": "合肥市", "longitude": 117.289879, "score": "0.985185", "oldname": "合肥滨湖支行营业室", "address": "合肥市滨湖新区徽州大道与紫云路交口世纪金源购物中心S2~125-129室", "latitude": 31.7437248, "guid": "22f83f38-b3ee-11e7-ae29-6c92bf041d56"}
