{"province": "北京市", "distance": 123.1467299972653, "sametype": "same", "thirdId": "ea3a5697-bc4a-4d21-8583-00025d0e13cf", "name": "北京王四营支行", "city": "北京市", "longitude": 116.511932, "score": "0.997317", "oldname": "中国银行成都交大路支行", "address": "大柳树甲1号", "latitude": 39.8758926, "guid": "22358588-b3ee-11e7-9aee-6c92bf041d56"}
{"province": "浙江省", "distance": 124.05073274306348, "sametype": "same", "thirdId": "fc1e2eab-041e-40b4-9faf-0003d2db0f14", "name": "绍兴江桥分理处", "city": "绍兴市", "longitude": 120.336761, "score": "0.998208", "oldname": "中国银行昆山城北支行", "address": "杨汛桥镇唐家桥", "latitude": 30.1272011, "guid": "220b3332-b3ee-11e7-aa6a-6c92bf041d56"}
{"province": "海南", "distance": 111.03235686483619, "sametype": "same", "thirdId": "cd8b5f9c-aa72-4f77-b8e3-000b498e24dd", "name": "三亚临春支行", "city": "三亚市", "longitude": 109.51976, "score": "0.994912", "oldname": "中国银行温江万春路支行", "address": "三亚市凤凰路103号“汇丰国际度假公寓”12号楼1-1铺面", "latitude": 18.2648964, "guid": "22135c24-b3ee-11e7-87d4-6c92bf041d56"}
{"province": "新疆维吾尔自治区", "distance": 95.93165028525945, "sametype": "same", "thirdId": "baf0a606-d01e-4557-bb36-000ef58a123b", "name": "奎屯五五新镇支行", "city": "伊犁哈萨克自治州", "longitude": 84.79425, "score": "0.996983", "oldname": "中国银行富阳支行营业部", "address": "农七师129团部天池路5号", "latitude": 44.8644257, "guid": "21cf0826-b3ee-11e7-aaa2-6c92bf041d56"}
{"province": "吉林", "distance": 130.9579001695039, "sametype": "same", "thirdId": "fa9cc6d3-bfe8-4ae3-b967-000fc76d60ea", "name": "双辽郑家屯支行", "city": "四平市", "longitude": 123.513657, "score": "0.994097", "oldname": "中国银行新津支行营业部", "address": "双辽市辽河路1077号", "latitude": 43.52411, "guid": "2210fd08-b3ee-11e7-8ca0-6c92bf041d56"}
{"province": "上海市", "distance": 125.17144941429218, "sametype": "same", "thirdId": "a76e672d-687c-4f27-afb2-00109d494707", "name": "上海山阳支行", "city": "上海市", "longitude": 121.335907, "score": "0.992548", "oldname": "中国银行乌鲁木齐市北京路支行营业部", "address": "山阳镇海丰路181号", "latitude": 30.7488117, "guid": "21e4ad52-b3ee-11e7-ad34-6c92bf041d56"}
{"province": "广西壮族自治区", "distance": 111.59782886164604, "sametype": "same", "thirdId": "1a178852-4df2-4653-86b1-00174d024800", "name": "横县洪德支行", "city": "南宁市", "longitude": 109.268692, "score": "0.993436", "oldname": "中国银行衢州紫荆支行", "address": "横州镇洪德路33号", "latitude": 22.6810131, "guid": "21bb2202-b3ee-11e7-860d-6c92bf041d56"}
{"province": "重庆市", "distance": 112.65872960394601, "sametype": "same", "thirdId": "f270c787-0f76-461b-bfbb-002745c8de5c", "name": "秀山新城支行", "city": "重庆市", "longitude": 109.0093, "score": "0.997471", "oldname": "中国银行成都蜀汉路支行", "address": "中和镇渝秀大道", "latitude": 28.442255, "guid": "2230090a-b3ee-11e7-85fc-6c92bf041d56"}
{"province": "浙江省", "distance": 124.5917943061435, "sametype": "same", "thirdId": "8ba4b955-a069-4b8c-9791-0027781c4831", "name": "绍兴港区支行", "city": "绍兴市", "longitude": 120.890457, "score": "0.994132", "oldname": "中国银行眉山分行营业部", "address": "杭州湾精细化工园区东纬九路白云宾馆底层", "latitude": 30.1432018, "guid": "2220b8e2-b3ee-11e7-b1f1-6c92bf041d56"}
{"province": "山东省", "distance": 123.10734971811593, "sametype": "same", "thirdId": "a987156f-1e78-4695-87bb-002851e055cb", "name": "莱芜口镇支行", "city": "莱芜市", "longitude": 117.62941, "score": "0.988901", "oldname": "中国银行绍兴百福园支行", "address": "口镇驻地", "latitude": 36.31448, "guid": "21b9d8ac-b3ee-11e7-b1b0-6c92bf041d56"}
{"province": "北京市", "distance": 122.99122648962671, "sametype": "same", "thirdId": "4e1798ff-8c51-4753-a260-0028fcb68a61", "name": "北京中关村支行", "city": "北京市", "longitude": 116.31205, "score": "0.997425", "oldname": "中国银行苏州渭塘支行", "address": "丹棱街3号中国电子大厦一层", "latitude": 39.9793549, "guid": "2203e05a-b3ee-11e7-970a-6c92bf041d56"}
{"province": "云南省", "distance": 107.23569932451673, "sametype": "same", "thirdId": "91e70bbf-45ce-4ac3-9694-002f30294b24", "name": "罗平环城分理处", "city": "曲靖市", "longitude": 104.310768, "score": "0.991205", "oldname": "中国银行重庆弹子石支行", "address": "罗雄镇云贵路15号", "latitude": 24.8748646, "guid": "21a4f054-b3ee-11e7-b731-6c92bf041d56"}
{"province": "河南省", "distance": 118.50293453985387, "sametype": "same", "thirdId": "f2581a5f-eba5-4396-8deb-0030ce35f9c9", "name": "禹州市第三分理处", "city": "许昌市", "longitude": 113.472458, "score": "0.983931", "oldname": "中国银行重庆大渡口支行营业部", "address": "颖河大街中段", "latitude": 34.1606026, "guid": "21a54388-b3ee-11e7-8ff4-6c92bf041d56"}
{"province": "宁夏回族自治区", "distance": 112.7242083680584, "sametype": "same", "thirdId": "56af1d05-d8a9-44ff-8319-003bb685288b", "name": "青铜峡邵岗分理处", "city": "吴忠市", "longitude": 106.069061, "score": "0.733315", "oldname": "中国银行衢州市衢化支行营业部", "address": "邵岗乡", "latitude": 38.1588974, "guid": "21bb75ae-b3ee-11e7-a473-6c92bf041d56"}
{"province": "上海市", "distance": 125.33205364152595, "sametype": "same", "thirdId": "7a1f8d0c-9243-4122-8c00-003c52a514a8", "name": "上海江海支行", "city": "上海市", "longitude": 121.462044, "score": "0.995596", "oldname": "中国银行重庆爱都会支行", "address": "南桥镇江海路204号", "latitude": 30.90462, "guid": "21a87a4e-b3ee-11e7-bde1-6c92bf041d56"}
{"province": "福建省", "distance": 122.67661471370454, "sametype": "same", "thirdId": "eff912a5-4eee-42c7-b026-003fbc589824", "name": "福安韩城支行", "city": "宁德市", "longitude": 119.648605, "score": "0.965729", "oldname": "中国银行金山支行营业部", "address": "冠后路华鸿园12幢S101-103", "latitude": 27.0880623, "guid": "223e40e2-b3ee-11e7-96ef-6c92bf041d56"}
{"province": "北京市", "distance": 123.066278283046, "sametype": "same", "thirdId": "4288e2ec-7097-4ddc-bd97-004012ec53aa", "name": "北京崇文门支行", "city": "北京市", "longitude": 116.418739, "score": "0.953724", "oldname": "中国银行昆明市民族村支行", "address": "崇外大街18号", "latitude": 39.8997, "guid": "21d763b8-b3ee-11e7-92f4-6c92bf041d56"}
{"province": "浙江省", "distance": 125.17870032485449, "sametype": "same", "thirdId": "d9ae40ab-f106-4235-b5e3-0041274f6e5e", "name": "宁波兴宁支行", "city": "宁波市", "longitude": 121.567085, "score": "0.988077", "oldname": "中国银行苏州园区行政中心支行", "address": "兴宁路78号", "latitude": 29.85215, "guid": "22019f8e-b3ee-11e7-a9ea-6c92bf041d56"}
{"province": "黑龙江省", "distance": 141.26875514803794, "sametype": "same", "thirdId": "a293b107-3ecc-44f2-8e5d-00463c844f6d", "name": "建三江青龙山支行", "city": "佳木斯市", "longitude": 132.963837, "score": "0.992004", "oldname": "中国银行成都丽都支行", "address": "建三江管局青龙山农场青龙街39号", "latitude": 47.7229424, "guid": "2232d824-b3ee-11e7-ad89-6c92bf041d56"}
{"province": "山西省", "distance": 118.8840819557192, "sametype": "same", "thirdId": "fb2dd5e4-1a8e-41c9-b1a4-0049c689fb76", "name": "晋中新集支行", "city": "晋中市", "longitude": 112.752831, "score": "0.967497", "oldname": "中国银行天津洪湖雅园支行", "address": "府兴路81号", "latitude": 37.68586, "guid": "21f432fe-b3ee-11e7-8499-6c92bf041d56"}
{"province": "河北省", "distance": 123.00094842469532, "sametype": "same", "thirdId": "a59a86f0-f73b-4a9e-9c0f-004a1ebea403", "name": "沧州东环支行", "city": "沧州市", "longitude": 116.886406, "score": "0.988003", "oldname": "中国银行温州龙湾支行营业部", "address": "解放东路58号", "latitude": 38.2988434, "guid": "21b208de-b3ee-11e7-a96e-6c92bf041d56"}
{"province": "云南省", "distance": 104.71245270502186, "sametype": "same", "thirdId": "4a0eace3-da82-4383-bf10-004b103d9e40", "name": "华坪荣将分理处", "city": "丽江市", "longitude": 101.285355, "score": "0.999143", "oldname": "中国银行温州七都支行", "address": "荣将镇", "latitude": 26.5701828, "guid": "21b1b460-b3ee-11e7-8e05-6c92bf041d56"}
{"province": "湖南省", "distance": 116.09755153484922, "sametype": "same", "thirdId": "01859787-a297-4798-b01c-004ed782c258", "name": "衡山两路口分理处", "city": "衡阳市", "longitude": 112.854713, "score": "0.998125", "oldname": "中国银行温州龙湾支行营业部", "address": "开云镇麋城路13号", "latitude": 27.2480316, "guid": "21b208de-b3ee-11e7-a96e-6c92bf041d56"}
{"province": "河北省", "distance": 119.96247561327559, "sametype": "same", "thirdId": "6cbc4fcd-5c0a-41b5-b601-004ffb8a1fae", "name": "武安车站支行", "city": "邯郸市", "longitude": 114.217171, "score": "0.990255", "oldname": "中国银行温岭大溪支行", "address": "南环路与纸厂街交叉口南行100米路西", "latitude": 36.68015, "guid": "21b3ad4c-b3ee-11e7-8421-6c92bf041d56"}
{"province": "内蒙古自治区", "distance": 120.33441327026291, "sametype": "same", "thirdId": "9d74993e-70e0-420c-b688-00507d80ffc5", "name": "察哈尔右翼前旗支行营业室", "city": "乌兰察布市", "longitude": 113.211838, "score": "0.977751", "oldname": "中国银行临沧市分行营业部", "address": "土镇向阳街", "latitude": 40.7854233, "guid": "21d4236a-b3ee-11e7-b974-6c92bf041d56"}
{"province": "山东", "distance": 124.16511166883812, "sametype": "same", "thirdId": "2ec7b388-0103-4566-9e8c-00514a288c00", "name": "广饶大王支行", "city": "东营市", "longitude": 118.528679, "score": "0.991911", "oldname": "中国银行桐乡支行营业部", "address": "广饶县大王镇政府驻地", "latitude": 36.9855, "guid": "21b402f6-b3ee-11e7-a9f5-6c92bf041d56"}
{"province": "黑龙江省", "distance": 137.6686644806856, "sametype": "same", "thirdId": "84499e01-d558-40a3-bf4d-0055f79d6f3d", "name": "伊春上甘岭支行营业室", "city": "伊春市", "longitude": 129.035828, "score": "0.983033", "oldname": "中国银行台州市椒江支行营业部", "address": "上甘岭大街19号", "latitude": 47.9835, "guid": "21b5a43a-b3ee-11e7-873d-6c92bf041d56"}
{"province": "重庆市", "distance": 110.48207482064893, "sametype": "same", "thirdId": "a7674e0e-4498-4ba1-b09f-0058c43bc12a", "name": "重庆沙坪坝歌乐山支行", "city": "重庆市", "longitude": 106.442696, "score": "0.925927", "oldname": "中国银行富阳支行营业部", "address": "歌乐山正街153号", "latitude": 29.6013737, "guid": "21cf0826-b3ee-11e7-aaa2-6c92bf041d56"}
{"province": "黑龙江省", "distance": 133.64456627761817, "sametype": "same", "thirdId": "90e71c85-abe3-457d-bfc0-005c21e5e820", "name": "安达市支行营业室", "city": "绥化市", "longitude": 125.329437, "score": "0.992865", "oldname": "中国银行台州市分行营业部", "address": "牛市路141号", "latitude": 46.4047661, "guid": "21b5f688-b3ee-11e7-ab2f-6c92bf041d56"}
{"province": "江苏省", "distance": 125.25570403059496, "sametype": "same", "thirdId": "5b32c0d6-7030-456f-96f7-005d3fe1526c", "name": "南通骑岸分理处", "city": "南通市", "longitude": 121.0524, "score": "0.816980", "oldname": "中国银行乐清市支行营业部", "address": "骑岸镇十字街东侧新华楼底层", "latitude": 32.1762, "guid": "21c18e62-b3ee-11e7-ad5f-6c92bf041d56"}
{"province": "福建省", "distance": 121.29840318880814, "sametype": "same", "thirdId": "bff52233-394a-4fbb-afbb-005eb4b80c50", "name": "惠安洛阳支行", "city": "泉州市", "longitude": 118.703453, "score": "0.994565", "oldname": "中国银行绍兴市分行营业部", "address": "洛阳镇桥乡综合市场东", "latitude": 24.9558182, "guid": "21b83b14-b3ee-11e7-bb33-6c92bf041d56"}
{"province": "山东省", "distance": 127.92979507101084, "sametype": "same", "thirdId": "a81110d5-3baa-4446-9146-0065da1c7c72", "name": "荣成荣安路分理处", "city": "威海市", "longitude": 122.416908, "score": "0.998831", "oldname": "中国银行绍兴袍江开发区支行", "address": "南山中路69号", "latitude": 37.1501427, "guid": "21b9342e-b3ee-11e7-83fa-6c92bf041d56"}
{"province": "重庆市", "distance": 110.59786444015957, "sametype": "same", "thirdId": "5cf8c17e-3706-42e9-a221-006afe5e3e48", "name": "重庆渝中较场口支行", "city": "重庆市", "longitude": 106.575943, "score": "0.946854", "oldname": "中国银行吴江盛泽广场支行", "address": "民权路57号", "latitude": 29.5542889, "guid": "21fea856-b3ee-11e7-8e6b-6c92bf041d56"}
{"province": "甘肃省", "distance": 109.4742866436419, "sametype": "same", "thirdId": "aeef43c4-9131-43d6-9db5-006f540f9e50", "name": "武威凉州武南支行", "city": "武威市", "longitude": 102.733978, "score": "0.995628", "oldname": "中国银行衢州市分行营业部", "address": "武南镇二马路", "latitude": 37.8199577, "guid": "21bbc75c-b3ee-11e7-b3d3-6c92bf041d56"}
{"province": "青海省", "distance": 107.93033631858177, "sametype": "same", "thirdId": "1dd7bbf1-9f54-4db7-9386-00712ac8ac40", "name": "湟中县支行营业室", "city": "西宁市", "longitude": 101.570763, "score": "0.989255", "oldname": "中国银行苏州园区行政中心支行", "address": "鲁沙尔镇团结南路140号", "latitude": 36.5012, "guid": "22019f8e-b3ee-11e7-a9ea-6c92bf041d56"}
{"province": "河南省", "distance": 119.47629499467833, "sametype": "same", "thirdId": "3d7dcf91-b39d-428d-9d95-0071466fa472", "name": "项城市孙店分理处", "city": "周口市", "longitude": 114.760536, "score": "0.951044", "oldname": "中国银行凉山分行营业部", "address": "孙店镇政府街", "latitude": 33.23559, "guid": "22226886-b3ee-11e7-999b-6c92bf041d56"}
{"province": "广东省", "distance": 116.24898471901287, "sametype": "same", "thirdId": "ea0adce7-2308-4741-bd3d-007262b70edc", "name": "韶关鞍山支行", "city": "韶关市", "longitude": 113.599472, "score": "0.998218", "oldname": "中国银行青田温溪支行", "address": "马坝镇中华西路中华园西苑二号楼", "latitude": 24.67765, "guid": "21bd0d6a-b3ee-11e7-ab65-6c92bf041d56"}
{"province": "江西省", "distance": 118.0972774997728, "sametype": "same", "thirdId": "e47b48d6-3c11-490c-9c83-0073bd6e03a5", "name": "安远九龙分理处", "city": "赣州市", "longitude": 115.392349, "score": "0.852308", "oldname": "中国银行重庆綦江支行营业部", "address": "欣山镇九龙路46号", "latitude": 25.1311111, "guid": "219d8b5c-b3ee-11e7-b8b0-6c92bf041d56"}
{"province": "湖北省", "distance": 119.68907340960578, "sametype": "same", "thirdId": "0b770b2c-9641-4b6c-a3ae-007641d90769", "name": "英山县支行营业室", "city": "黄冈市", "longitude": 115.6742, "score": "0.984248", "oldname": "中国银行克孜勒苏柯尔克孜自治州分行营业部", "address": "温泉镇金石路64号", "latitude": 30.7401, "guid": "21e5f978-b3ee-11e7-af46-6c92bf041d56"}
{"province": "江苏", "distance": 124.72126253496896, "sametype": "same", "thirdId": "4205ce3f-51c5-4f07-92f9-0077943a3258", "name": "苏州现代大厦分理处", "city": "苏州市", "longitude": 120.7237, "score": "0.978026", "oldname": "中国银行乐清市支行营业部", "address": "江苏省苏州市工业园区苏春西路158号", "latitude": 31.3238182, "guid": "21c18e62-b3ee-11e7-ad5f-6c92bf041d56"}
{"province": "重庆市", "distance": 110.56899093024344, "sametype": "same", "thirdId": "5d3206b9-d809-41f3-9857-00794813eb83", "name": "重庆渝北洋河支行", "city": "重庆市", "longitude": 106.536484, "score": "0.990005", "oldname": "中国银行天津金钟支行", "address": "观音桥街道洋河花园34-35号1-1", "latitude": 29.5885, "guid": "21f290fc-b3ee-11e7-b00d-6c92bf041d56"}
{"province": "河北省", "distance": 120.70247211599023, "sametype": "same", "thirdId": "0e31262b-aaf8-422b-acc6-007b40e368a1", "name": "石家庄东城支行营业室", "city": "石家庄市", "longitude": 114.550316, "score": "0.944285", "oldname": "中国银行金华市金东支行营业部", "address": "中山东路467号", "latitude": 38.0435524, "guid": "21c378ee-b3ee-11e7-85de-6c92bf041d56"}
{"province": "四川省", "distance": 108.69216432031392, "sametype": "same", "thirdId": "b24c28ee-a287-4609-be19-007cdfb32653", "name": "宜宾李庄分理处", "city": "宜宾市", "longitude": 104.80629, "score": "0.993216", "oldname": "中国银行黄岩支行营业部", "address": "李庄镇天府堂街37号", "latitude": 28.8032665, "guid": "21c61dd8-b3ee-11e7-8e6d-6c92bf041d56"}
{"province": "广东省", "distance": 116.6864711476442, "sametype": "same", "thirdId": "9bb0610b-5c79-4d8d-a0ce-007d261b2349", "name": "惠州惠阳秋长支行", "city": "惠州市", "longitude": 114.4333, "score": "0.941911", "oldname": "中国银行遂宁船山支行", "address": "秋长街道办人民二路128号", "latitude": 22.82, "guid": "2214aa34-b3ee-11e7-b247-6c92bf041d56"}
{"province": "上海市", "distance": 125.19893673998489, "sametype": "same", "thirdId": "641e5d8d-28b2-44dc-a8db-007f20e73f1e", "name": "上海华新支行", "city": "上海市", "longitude": 121.236336, "score": "0.993129", "oldname": "中国银行杭州余杭乔司支行", "address": "华新镇新益路445号", "latitude": 31.2493935, "guid": "21c7130a-b3ee-11e7-9cd5-6c92bf041d56"}
{"province": "广西壮族自治区", "distance": 112.00636835874779, "sametype": "same", "thirdId": "5c0a2636-26aa-473a-8033-008045113cc9", "name": "贵港分行营业部营业室", "city": "贵港市", "longitude": 109.600861, "score": "0.961372", "oldname": "中国银行杭州萧山开发区支行", "address": "中山中路12号", "latitude": 23.0884781, "guid": "21c808be-b3ee-11e7-b99d-6c92bf041d56"}
{"province": "吉林省", "distance": 132.60959923653192, "sametype": "same", "thirdId": "583c0f29-a373-473c-a192-00846fdf786e", "name": "东丰西城分理处", "city": "辽源市", "longitude": 125.536652, "score": "0.997425", "oldname": "中国银行杭州文一支行", "address": "向阳路", "latitude": 42.7300224, "guid": "21c8fe54-b3ee-11e7-9363-6c92bf041d56"}
{"province": "湖北省", "distance": 118.1247094656155, "sametype": "same", "thirdId": "5a067fae-9462-4dbe-bc7f-0084e8f08daf", "name": "咸宁南山支行", "city": "咸宁市", "longitude": 114.285759, "score": "0.937312", "oldname": "中国银行绵阳南河路支行", "address": "长安大道1号", "latitude": 29.8699226, "guid": "2220132e-b3ee-11e7-818d-6c92bf041d56"}
{"province": "广东省", "distance": 115.25839028477444, "sametype": "same", "thirdId": "3d370841-5ea0-4e02-a1a9-00888bf1b1c4", "name": "江门新会南隅支行", "city": "江门市", "longitude": 113.037369, "score": "0.982119", "oldname": "中国银行昆明市丹霞路支行", "address": "会城镇南隅路54-60号", "latitude": 22.517765, "guid": "21dcfb52-b3ee-11e7-96dd-6c92bf041d56"}
{"province": "湖北", "distance": 118.0716574141223, "sametype": "same", "thirdId": "ed1cb554-3925-4ba6-a045-008c479d2169", "name": "武汉走马岭支行", "city": "武汉市", "longitude": 114.023384, "score": "0.990131", "oldname": "中国银行杭州市开元支行营业部", "address": "湖北省武汉市东西湖走马岭农场", "latitude": 30.6526375, "guid": "21cae7f0-b3ee-11e7-b1b2-6c92bf041d56"}
{"province": "西藏", "distance": 99.37901480896257, "sametype": "same", "thirdId": "f40fff46-5378-4f42-8e89-009466a5275a", "name": "米林羌纳营业所", "city": "林芝市", "longitude": 94.8334, "score": "0.993840", "oldname": "中国银行杭州九堡支行", "address": "林芝市米林县羌纳乡", "latitude": 29.7122, "guid": "21cc366e-b3ee-11e7-ad98-6c92bf041d56"}
{"province": "湖北省", "distance": 114.84656513341224, "sametype": "same", "thirdId": "c7e78d68-49c1-4d55-bef4-009b50c6d167", "name": "竹山人民路支行", "city": "十堰市", "longitude": 110.233894, "score": "0.998217", "oldname": "中国银行杭州滨江支行营业部", "address": "城关镇人民路71号", "latitude": 32.2214546, "guid": "21cdae90-b3ee-11e7-b4c7-6c92bf041d56"}
{"province": "浙江省", "distance": 123.87220221639247, "sametype": "same", "thirdId": "82e28b56-cebc-4865-a8e9-009e58e75867", "name": "杭州竞舟支行", "city": "杭州市", "longitude": 120.112389, "score": "0.993248", "oldname": "中国银行富阳支行营业部", "address": "文一西路199号", "latitude": 30.2875633, "guid": "21cf0826-b3ee-11e7-aaa2-6c92bf041d56"}
{"province": "天津市", "distance": 123.08554158112865, "sametype": "same", "thirdId": "4957711a-2973-41df-a9fa-009f025acb70", "name": "静海王口支行", "city": "天津市", "longitude": 116.765633, "score": "0.983205", "oldname": "中国银行天津津玉大厦支行", "address": "王口镇大瓦头村", "latitude": 38.9337578, "guid": "21f141f2-b3ee-11e7-ad88-6c92bf041d56"}
{"province": "湖南省", "distance": 116.83220311919105, "sametype": "same", "thirdId": "33d6a293-bfff-4c92-bf9d-00a0272885c7", "name": "醴陵城东分理处", "city": "株洲市", "longitude": 113.510773, "score": "0.979435", "oldname": "中国银行西双版纳州分行营业部", "address": "解放路东段", "latitude": 27.6598644, "guid": "21d28122-b3ee-11e7-b302-6c92bf041d56"}
{"province": "四川省", "distance": 108.37322154745068, "sametype": "same", "thirdId": "f33060de-950b-4787-8924-00a048fd25d3", "name": "仁寿陵阳支行", "city": "眉山市", "longitude": 104.140327, "score": "0.997606", "oldname": "中国银行曲靖市分行营业部", "address": "文林镇金马路一段73号", "latitude": 29.9924564, "guid": "21d32848-b3ee-11e7-8251-6c92bf041d56"}
{"province": "贵州省", "distance": 107.58306671387658, "sametype": "same", "thirdId": "9a37a492-885d-47cd-98bc-00a28efe89d7", "name": "盘县红桥支行", "city": "六盘水市", "longitude": 104.468773, "score": "0.922130", "oldname": "中国银行省分行营业部", "address": "红果镇干沟桥盘江大道西段", "latitude": 25.6980877, "guid": "22179190-b3ee-11e7-925a-6c92bf041d56"}
{"province": "江苏省", "distance": 124.2557684729365, "sametype": "same", "thirdId": "eaac211b-08ec-4df1-ad7b-00a2e3d99b1b", "name": "泰兴大庆路支行", "city": "泰州市", "longitude": 120.0182, "score": "0.996887", "oldname": "中国银行昆明市西山支行营业部", "address": "泰兴镇大庆东路1号", "latitude": 32.1734, "guid": "21d51fd6-b3ee-11e7-a2bb-6c92bf041d56"}
{"province": "湖北省", "distance": 118.30151792983436, "sametype": "same", "thirdId": "3a08c96d-b2a0-4ba2-bb40-00a35152694b", "name": "江汉支行营业室", "city": "武汉市", "longitude": 114.280861, "score": "0.981376", "oldname": "中国银行临沧市分行营业部", "address": "汉口前进一路181-1号", "latitude": 30.57996, "guid": "21d4236a-b3ee-11e7-b974-6c92bf041d56"}
{"province": "广东省", "distance": 118.769501173314, "sametype": "same", "thirdId": "a6ff5e08-ba7e-43f6-9f5a-00a5c2c13ce0", "name": "汕头潮阳和平支行", "city": "汕头市", "longitude": 116.471191, "score": "0.908309", "oldname": "中国银行吐鲁番地区分行营业部", "address": "和平镇沿江路17号", "latitude": 23.2520123, "guid": "21e500ae-b3ee-11e7-bb01-6c92bf041d56"}
{"province": "广东省", "distance": 116.26715313222118, "sametype": "same", "thirdId": "49154f66-f1f4-4816-8a29-00a98b952b05", "name": "深圳福田口岸支行", "city": "深圳市", "longitude": 114.065437, "score": "0.993258", "oldname": "中国银行普洱市分行营业部", "address": "金田路1003-1号御庭园裙楼101-106", "latitude": 22.51948, "guid": "21d37b9a-b3ee-11e7-8a78-6c92bf041d56"}
{"province": "广西壮族自治区", "distance": 113.97348390495073, "sametype": "same", "thirdId": "b0e2031c-5698-4530-a5df-00af0eb766cd", "name": "钟山兴钟支行", "city": "贺州市", "longitude": 111.301781, "score": "0.831236", "oldname": "中国银行重庆梁平支行营业部", "address": "钟山镇兴钟中路10号", "latitude": 24.53301, "guid": "219f28ea-b3ee-11e7-85fc-6c92bf041d56"}
{"province": "广东省", "distance": 115.37714399477333, "sametype": "same", "thirdId": "f0a4c4df-574e-4bdd-89c6-00b18946fce0", "name": "佛山三水范湖支行", "city": "佛山市", "longitude": 112.996872, "score": "0.993889", "oldname": "中国银行嘉兴经济开发区支行", "address": "乐平镇范湖金缸路26号", "latitude": 23.3150654, "guid": "21c56c30-b3ee-11e7-82f9-6c92bf041d56"}
{"province": "江苏省", "distance": 123.78576106250357, "sametype": "same", "thirdId": "a17ad1e6-4318-4435-8c5e-00b27f636c61", "name": "丹阳新民路支行", "city": "镇江市", "longitude": 119.5806, "score": "0.998414", "oldname": "中国银行怒江州分行", "address": "新民东路23号", "latitude": 31.9905415, "guid": "21d3cfbe-b3ee-11e7-8a63-6c92bf041d56"}
{"province": "湖北省", "distance": 115.17358031683888, "sametype": "same", "thirdId": "232c57e8-47cb-44e3-9827-00b5d4368a98", "name": "秭归茅坪分理处", "city": "宜昌市", "longitude": 110.972496, "score": "0.990506", "oldname": "中国银行昆明市新闻路支行", "address": "茅坪镇建平路3号", "latitude": 30.8230228, "guid": "21d4cc02-b3ee-11e7-a0eb-6c92bf041d56"}
{"province": "浙江省", "distance": 123.47495515564819, "sametype": "same", "thirdId": "dda4dec4-089f-46e1-9d5e-00b6bb1cd592", "name": "永康市支行营业室", "city": "金华市", "longitude": 120.047485, "score": "0.972016", "oldname": "中国银行昆明市体育城支行", "address": "东城街道九铃东路3388号", "latitude": 28.8905849, "guid": "21d5c5a8-b3ee-11e7-9cba-6c92bf041d56"}
{"province": "浙江省", "distance": 123.70818903176021, "sametype": "same", "thirdId": "fda1c594-8909-4d0d-97d1-00c3c81f805c", "name": "诸暨安华支行", "city": "绍兴市", "longitude": 120.126389, "score": "0.991889", "oldname": "中国银行昆明市人民西路支行", "address": "安华镇东街31号", "latitude": 29.5527782, "guid": "21d66b2a-b3ee-11e7-9796-6c92bf041d56"}
{"province": "广东省", "distance": 115.54168327962857, "sametype": "same", "thirdId": "b772a154-b17f-4172-b65f-00ca2223e994", "name": "清远洲心支行", "city": "清远市", "longitude": 113.0897, "score": "0.985382", "oldname": "中国银行郫县红光支行", "address": "洲心龙华大道27号", "latitude": 23.677, "guid": "221a24c8-b3ee-11e7-bc85-6c92bf041d56"}
{"province": "广东省", "distance": 112.20001743960694, "sametype": "same", "thirdId": "8e8fcb51-eab5-49d0-8acd-00d53eb772aa", "name": "徐闻曲界支行", "city": "湛江市", "longitude": 110.314751, "score": "0.997114", "oldname": "中国银行昆明市江东支行", "address": "曲界镇", "latitude": 20.48169, "guid": "21d9caae-b3ee-11e7-9c91-6c92bf041d56"}
{"province": "湖北省", "distance": 119.58321237113509, "sametype": "same", "thirdId": "0bad809b-9f6a-4074-a44e-00d5ac57c7e8", "name": "武穴余川支行", "city": "黄冈市", "longitude": 115.7374, "score": "0.992571", "oldname": "中国银行昆明市环南支行", "address": "余川镇松山嘴", "latitude": 30.0832, "guid": "21da27c4-b3ee-11e7-b3d6-6c92bf041d56"}
{"province": "河北省", "distance": 122.66593432298443, "sametype": "same", "thirdId": "f02225d1-f518-4149-9f01-00ddec631ad6", "name": "文安火车站分理处", "city": "廊坊市", "longitude": 116.339973, "score": "0.862802", "oldname": "中国银行庆元县支行营业部", "address": "大留镇镇小王东村", "latitude": 38.8837, "guid": "21bc6a68-b3ee-11e7-ac30-6c92bf041d56"}
{"province": "上海市", "distance": 125.57615032115321, "sametype": "same", "thirdId": "46d3f750-053b-47ab-9635-00dfcaa5e8e8", "name": "上海张江集电港支行", "city": "上海市", "longitude": 121.63282, "score": "0.994689", "oldname": "中国银行昆明市崇仁支行", "address": "龙东大道3000号2号楼104室", "latitude": 31.2222137, "guid": "21dd5764-b3ee-11e7-8b7d-6c92bf041d56"}
{"province": "广西壮族自治区", "distance": 112.17353992809535, "sametype": "same", "thirdId": "135850d4-a88e-4d61-81c6-00e6dca31848", "name": "武宣城北支行", "city": "来宾市", "longitude": 109.662, "score": "0.963988", "oldname": "中国银行大理州分行营业部", "address": "武宣镇城北路202号", "latitude": 23.604, "guid": "21e17344-b3ee-11e7-b618-6c92bf041d56"}
{"province": "新疆", "distance": 93.20498191083995, "sametype": "same", "thirdId": "5f11af56-a0a2-4a45-b7ab-00e76f908f0a", "name": "博乐友好支行", "city": "博尔塔拉蒙古自治州", "longitude": 82.078, "score": "0.996076", "oldname": "中国银行宣威支行营业部", "address": "新疆博州博乐市北京路295号", "latitude": 44.163, "guid": "21e010bc-b3ee-11e7-af2e-6c92bf041d56"}
{"province": "重庆市", "distance": 111.0084258786851, "sametype": "same", "thirdId": "6bf732f2-6998-4520-99f1-00e7713bf9a0", "name": "重庆南川水江支行", "city": "重庆市", "longitude": 107.1131, "score": "0.995808", "oldname": "中国银行楚雄州分行营业部", "address": "南陵路487号", "latitude": 29.1488323, "guid": "21e1c5ba-b3ee-11e7-aa12-6c92bf041d56"}
{"province": "吉林省", "distance": 133.91986274631742, "sametype": "same", "thirdId": "411cb675-c190-4d33-80b5-00eab85b3669", "name": "吉林市分行营业部营业室", "city": "吉林市", "longitude": 126.542778, "score": "0.976316", "oldname": "中国银行成都益州支行", "address": "松江路81号", "latitude": 43.834404, "guid": "222c6624-b3ee-11e7-b6eb-6c92bf041d56"}
{"province": "湖北省", "distance": 118.19310226553591, "sametype": "same", "thirdId": "e621a454-1827-4d70-b435-00ecfa4b5347", "name": "武汉金山大道支行", "city": "武汉市", "longitude": 114.152977, "score": "0.872975", "oldname": "中国银行成都锦城大道支行", "address": "严家渡张柏路30号", "latitude": 30.63833, "guid": "2233e2b4-b3ee-11e7-a1a7-6c92bf041d56"}
{"province": "内蒙古自治区", "distance": 117.27507270784446, "sametype": "same", "thirdId": "b481add1-0a7e-4582-a8c3-00ed57c54e8c", "name": "包头桂圆支行", "city": "包头市", "longitude": 110.029831, "score": "0.994585", "oldname": "中国银行新疆维吾尔自治区分行营业部", "address": "南门外大街3-1", "latitude": 40.5817566, "guid": "21e2bd4e-b3ee-11e7-9978-6c92bf041d56"}
{"province": "广东省", "distance": 113.97713044788345, "sametype": "same", "thirdId": "442b69f7-c591-4d00-86c6-00ee5985cccf", "name": "阳春新桥支行", "city": "阳江市", "longitude": 111.797432, "score": "0.997363", "oldname": "中国银行新疆维吾尔自治区分行营业部", "address": "春城镇二桥东桥头", "latitude": 22.1837883, "guid": "21e2bd4e-b3ee-11e7-9978-6c92bf041d56"}
{"province": "山东省", "distance": 121.58724278398823, "sametype": "same", "thirdId": "21897862-aa2e-4959-bf59-00efa42d22fb", "name": "聊城人民广场分理处", "city": "聊城市", "longitude": 115.98925, "score": "0.976469", "oldname": "中国银行大理州分行营业部", "address": "兴华西路23号", "latitude": 36.4685, "guid": "21e17344-b3ee-11e7-b618-6c92bf041d56"}
{"province": "黑龙江省", "distance": 140.9109255953953, "sametype": "same", "thirdId": "6f8023fb-89c9-4696-b06c-00f09663b929", "name": "红兴隆小清河支行", "city": "双鸭山市", "longitude": 133.00795, "score": "0.810471", "oldname": "中国银行上虞松厦支行", "address": "八五三农场B区03委35栋126号", "latitude": 46.5271339, "guid": "21ba2b22-b3ee-11e7-99a9-6c92bf041d56"}
{"province": "山西省", "distance": 120.17097770686765, "sametype": "same", "thirdId": "f92ac2c8-c5e6-4ca6-8910-00f30a88b29c", "name": "大同分行营业部营业室", "city": "大同市", "longitude": 113.291565, "score": "0.986531", "oldname": "中国银行乌鲁木齐市克拉玛依东路支行", "address": "迎宾西路80号", "latitude": 40.0759926, "guid": "21e3b492-b3ee-11e7-a91c-6c92bf041d56"}
{"province": "四川省", "distance": 108.51134905198003, "sametype": "same", "thirdId": "9b1145fa-497a-4610-94f0-00f723b900d7", "name": "成都北站东路支行", "city": "成都市", "longitude": 104.079758, "score": "0.956865", "oldname": "中国银行张家港分行营业部", "address": "二环路北三段北站东二路口", "latitude": 30.693922, "guid": "21fd0f00-b3ee-11e7-9819-6c92bf041d56"}
{"province": "河南省", "distance": 118.3603759447122, "sametype": "same", "thirdId": "4488f63b-ec28-408b-8f75-00f88e8b191b", "name": "温县支行营业室", "city": "焦作市", "longitude": 113.085747, "score": "0.982953", "oldname": "中国银行昌吉回族自治州分行营业部", "address": "黄河路42号", "latitude": 34.93984, "guid": "21e79544-b3ee-11e7-ae07-6c92bf041d56"}
{"province": "江西省", "distance": 119.42004533707762, "sametype": "same", "thirdId": "21a4e9bc-56df-45ce-8dbe-00f9ac0a0352", "name": "德安蒲亭分理处", "city": "九江市", "longitude": 115.7626, "score": "0.926232", "oldname": "中国银行温江支行营业部", "address": "解放路20号", "latitude": 29.3286152, "guid": "2213086e-b3ee-11e7-bdd7-6c92bf041d56"}
{"province": "广东省", "distance": 115.46095777567238, "sametype": "same", "thirdId": "5de105a6-960c-4af5-b0ef-00fe4be8f348", "name": "顺德齐赞支行", "city": "佛山市", "longitude": 113.1945, "score": "0.999633", "oldname": "中国银行天津新港支行", "address": "杏坛镇高赞村委会二环路6号东联大楼首层102-105", "latitude": 22.76484, "guid": "21eb12dc-b3ee-11e7-99ca-6c92bf041d56"}
{"province": "新疆维吾尔自治区", "distance": 92.47394015933756, "sametype": "same", "thirdId": "97b56377-cfa1-47be-a6a2-0101e5749b10", "name": "新和县支行营业室", "city": "阿克苏地区", "longitude": 82.61388, "score": "0.973082", "oldname": "中国银行天津武清振华西道支行", "address": "新沙路48号", "latitude": 41.5496864, "guid": "21ec8676-b3ee-11e7-9e3f-6c92bf041d56"}
{"province": "四川省", "distance": 107.48887108231253, "sametype": "same", "thirdId": "f64b0a75-2a4b-487a-9ddb-0108062f1edb", "name": "马边张坝分理处", "city": "乐山市", "longitude": 103.546951, "score": "0.838784", "oldname": "中国银行重庆南岸支行营业部", "address": "建设街92号", "latitude": 28.84244, "guid": "219e30f2-b3ee-11e7-903e-6c92bf041d56"}
{"province": "福建省", "distance": 121.26175244700038, "sametype": "same", "thirdId": "5cea3d24-663a-468a-a72a-01088f80a2fe", "name": "洛江支行营业室", "city": "泉州市", "longitude": 118.668427, "score": "0.971277", "oldname": "中国银行天津津塘路支行", "address": "国土资源局档案综合大楼一、二层", "latitude": 24.9442787, "guid": "21f194fe-b3ee-11e7-8ee8-6c92bf041d56"}
{"province": "陕西省", "distance": 114.42996961868802, "sametype": "same", "thirdId": "c2937b2e-e261-4303-bdee-0109e9a53d37", "name": "富平县庄里分理处", "city": "渭南市", "longitude": 109.115158, "score": "0.947662", "oldname": "中国银行昆明市新闻路支行", "address": "庄里镇北新街", "latitude": 34.46883, "guid": "21d4cc02-b3ee-11e7-a0eb-6c92bf041d56"}
{"province": "上海市", "distance": 125.42790135663621, "sametype": "same", "thirdId": "873735ec-b530-4dbb-9212-010ce3ed8348", "name": "上海株洲路支行", "city": "上海市", "longitude": 121.465172, "score": "0.997420", "oldname": "中国银行广元人民路支行", "address": "中山北一路909号", "latitude": 31.2789135, "guid": "2225fb9a-b3ee-11e7-a9cf-6c92bf041d56"}
{"province": "广西壮族自治区", "distance": 112.27255304752316, "sametype": "same", "thirdId": "04b78492-a03d-440e-b728-010d4fe39222", "name": "北流民安分理处", "city": "玉林市", "longitude": 110.072861, "score": "0.991974", "oldname": "中国银行天津东方名居支行", "address": "民安镇十字铺永兴街50号", "latitude": 22.1154118, "guid": "21f81702-b3ee-11e7-8a03-6c92bf041d56"}
{"province": "江西省", "distance": 118.16501263848308, "sametype": "same", "thirdId": "964b82f1-0539-4a15-aeb7-010dfe37c4d4", "name": "吉安广贸支行", "city": "吉安市", "longitude": 115.015808, "score": "0.995421", "oldname": "中国银行天津北城街支行", "address": "吉安贸易广场中心街73、75、77号", "latitude": 27.0986, "guid": "21fa080a-b3ee-11e7-9803-6c92bf041d56"}
{"province": "广西壮族自治区", "distance": 110.09050766975285, "sametype": "same", "thirdId": "bc58178c-5352-4ec5-8714-011388ba4b88", "name": "平果旺江支行", "city": "百色市", "longitude": 107.591385, "score": "0.958861", "oldname": "中国银行温岭支行营业部", "address": "马头镇教育路518-1号", "latitude": 23.3241024, "guid": "21b3064e-b3ee-11e7-9721-6c92bf041d56"}
{"province": "四川省", "distance": 107.77307243329815, "sametype": "same", "thirdId": "edc82c03-bc11-4972-88a3-0119e4c2e63a", "name": "丹棱齐乐分理处", "city": "眉山市", "longitude": 103.509521, "score": "0.902892", "oldname": "中国银行大理州分行营业部", "address": "小南街25号", "latitude": 30.013567, "guid": "21e17344-b3ee-11e7-b618-6c92bf041d56"}
{"province": "江西省", "distance": 117.70746108783685, "sametype": "same", "thirdId": "c8396d7a-1fa3-45e6-bac4-0120312ae80f", "name": "信丰县支行营业室", "city": "赣州市", "longitude": 114.93766, "score": "0.955807", "oldname": "中国银行张家港金港支行", "address": "嘉定镇阳明北路140号", "latitude": 25.384655, "guid": "21fcbd16-b3ee-11e7-9b4f-6c92bf041d56"}
{"province": "广东省", "distance": 115.61713551697892, "sametype": "same", "thirdId": "223169da-250b-4a6f-bde4-01222a5e55e4", "name": "广州金鹰大厦支行", "city": "广州市", "longitude": 113.278229, "score": "0.913481", "oldname": "中国银行重庆双龙路支行", "address": "北教场横路1号大楼首层", "latitude": 23.1379528, "guid": "219b4d7e-b3ee-11e7-80e6-6c92bf041d56"}
{"province": "黑龙江省", "distance": 140.63047733817814, "sametype": "same", "thirdId": "60906ee0-5710-44d7-957f-01225fed4d93", "name": "虎林文化街分理处", "city": "鸡西市", "longitude": 132.974319, "score": "0.833783", "oldname": "中国银行昆明市华山西路支行", "address": "虎林镇文化街9巷5号", "latitude": 45.7685661, "guid": "21da8520-b3ee-11e7-9d07-6c92bf041d56"}
{"province": "上海市", "distance": 125.13916322259094, "sametype": "same", "thirdId": "a14daabf-4258-474c-957e-0122c583a79b", "name": "上海安亭支行", "city": "上海市", "longitude": 121.162857, "score": "0.993370", "oldname": "中国银行苏州木渎支行", "address": "安亭镇昌吉路187号", "latitude": 31.2949238, "guid": "220486c2-b3ee-11e7-ba40-6c92bf041d56"}
{"province": "西藏", "distance": 94.12375878502196, "sametype": "same", "thirdId": "e9ca30b0-2f4d-4fac-8d9a-01231567448a", "name": "江孜江热营业所", "city": "日喀则市", "longitude": 89.57611, "score": "0.895795", "oldname": "中国银行长兴县支行营业部", "address": "西藏日喀则地区江孜县江热乡", "latitude": 28.90333, "guid": "21aaa544-b3ee-11e7-a55d-6c92bf041d56"}
{"province": "辽宁省", "distance": 128.67198487082484, "sametype": "same", "thirdId": "a7e49264-ef72-4bfe-b585-01235c083095", "name": "阜新细河支行", "city": "阜新市", "longitude": 121.623924, "score": "0.997150", "oldname": "中国银行苏州沧浪支行", "address": "四合大街235号", "latitude": 42.0012, "guid": "22086274-b3ee-11e7-bf87-6c92bf041d56"}
{"province": "福建省", "distance": 121.68434090748899, "sametype": "same", "thirdId": "87d6f274-39b7-4cf3-9c64-01248854d239", "name": "古田松吉支行", "city": "宁德市", "longitude": 118.7465, "score": "0.938218", "oldname": "中国银行新疆维吾尔自治区分行营业部", "address": "六一四路331号", "latitude": 26.5772, "guid": "21e2bd4e-b3ee-11e7-9978-6c92bf041d56"}
{"province": "重庆市", "distance": 111.34032941468244, "sametype": "same", "thirdId": "e4d757dd-1f2a-4665-a31b-012490bb7523", "name": "重庆武隆鸭江支行", "city": "重庆市", "longitude": 107.3739, "score": "0.995565", "oldname": "中国银行自贡高新支行", "address": "鸭江镇金龙街152号", "latitude": 29.4536, "guid": "220daf22-b3ee-11e7-bdfa-6c92bf041d56"}
{"province": "吉林省", "distance": 132.81015996799326, "sametype": "same", "thirdId": "b2b94f2e-4655-433a-8ed0-01253b4eb880", "name": "长春全安支行", "city": "长春市", "longitude": 125.349419, "score": "0.961185", "oldname": "中国银行天津静海支行营业部", "address": "亚泰大街2555号", "latitude": 43.88692, "guid": "21f0ee14-b3ee-11e7-b6f4-6c92bf041d56"}
{"province": "河北省", "distance": 125.55853334968477, "sametype": "same", "thirdId": "7dd5fa05-49f8-45e2-9128-0126b240033f", "name": "卢龙陈官屯分理处", "city": "秦皇岛市", "longitude": 119.024048, "score": "0.964769", "oldname": "中国银行重庆火车北站支行", "address": "陈官屯乡陈官屯村", "latitude": 39.97776, "guid": "21a20dbc-b3ee-11e7-927d-6c92bf041d56"}
{"province": "山西省", "distance": 119.90310729148213, "sametype": "same", "thirdId": "44ebafdb-b7a9-4722-850e-012b405984ab", "name": "怀仁县支行营业室", "city": "朔州市", "longitude": 113.098976, "score": "0.977608", "oldname": "中国银行资阳分行营业部", "address": "迎宾西街86号", "latitude": 39.81679, "guid": "220eaec2-b3ee-11e7-a094-6c92bf041d56"}
{"province": "西藏", "distance": 93.58278455445927, "sametype": "same", "thirdId": "1e86b682-7cf6-4afc-8701-012da462d57d", "name": "桑珠孜城南支行", "city": "日喀则市", "longitude": 88.89549, "score": "0.916862", "oldname": "中国银行重庆荣昌支行营业部", "address": "日喀则市桑珠孜新区", "latitude": 29.2460155, "guid": "219c9292-b3ee-11e7-9257-6c92bf041d56"}
{"province": "湖南省", "distance": 115.71091899626528, "sametype": "same", "thirdId": "c73f063a-716b-4f22-b0ac-012e40fa1ff0", "name": "湘乡月山支行", "city": "湘潭市", "longitude": 112.315063, "score": "0.996781", "oldname": "中国银行雅安分行营业部", "address": "月山镇新桥村", "latitude": 27.8270264, "guid": "2210a826-b3ee-11e7-b96c-6c92bf041d56"}
{"province": "云南省", "distance": 107.534139337911, "sametype": "same", "thirdId": "b8990f75-7094-434e-b892-013135eba422", "name": "大关县支行营业室", "city": "昭通市", "longitude": 103.892212, "score": "0.973429", "oldname": "中国银行郫县支行营业部", "address": "翠华镇辕门街27号", "latitude": 27.7488632, "guid": "22198036-b3ee-11e7-b472-6c92bf041d56"}
{"province": "云南", "distance": 1.4142135623730951, "sametype": "same", "thirdId": "8b646409-7dd9-4b1b-92b1-0131d2f1abb5", "name": "昆明新螺蛳湾支行", "city": "昆明市", "longitude": -1, "score": "0.971416", "oldname": "中国银行昆明市世纪城支行", "address": "昆明市彩云北路昆明螺蛳湾国际商贸城商业街28幢101-107、113-118号", "latitude": -1, "guid": "21d61800-b3ee-11e7-8c91-6c92bf041d56"}
{"province": "吉林省", "distance": 134.1858243251258, "sametype": "same", "thirdId": "6cac0cba-25c7-4f77-acd7-01384db211eb", "name": "桦甸红石中心支行", "city": "吉林市", "longitude": 127.112511, "score": "0.996180", "oldname": "中国银行温江南浦路支行", "address": "长大路1423号", "latitude": 42.99122, "guid": "2213afa8-b3ee-11e7-8919-6c92bf041d56"}
{"province": "河北省", "distance": 125.23337469472993, "sametype": "same", "thirdId": "8eedccd1-0d7d-4250-89d1-0139a93c77eb", "name": "迁安马兰新村支行", "city": "唐山市", "longitude": 118.639374, "score": "0.994171", "oldname": "中国银行遂宁南津北路支行", "address": "马兰庄镇刘官营村南", "latitude": 40.1010857, "guid": "22140296-b3ee-11e7-a2f0-6c92bf041d56"}
{"province": "河北省", "distance": 123.71612051096679, "sametype": "same", "thirdId": "39c08944-b31a-4991-9775-013f03490d90", "name": "三河市支行营业室", "city": "廊坊市", "longitude": 117.072823, "score": "0.895238", "oldname": "中国银行柯桥支行营业部", "address": "迎宾北路40号", "latitude": 39.9954071, "guid": "21c23236-b3ee-11e7-b65c-6c92bf041d56"}
{"province": "河南省", "distance": 120.1058400080182, "sametype": "same", "thirdId": "f8a846b3-5ef5-4c93-a0fb-014119cff8f8", "name": "滑县高平支行", "city": "安阳市", "longitude": 114.778496, "score": "0.993759", "oldname": "中国银行双流蛟龙港支行", "address": "高平镇高平集", "latitude": 35.3738556, "guid": "22154f70-b3ee-11e7-a832-6c92bf041d56"}
{"province": "内蒙古自治区", "distance": 128.03327383344333, "sametype": "same", "thirdId": "914f693d-c1a2-475f-939b-0141744c66dd", "name": "霍林郭勒商贸分理处", "city": "通辽市", "longitude": 119.663109, "score": "0.974124", "oldname": "中国银行成都红星路支行", "address": "珠斯花大街中段商贸中心一楼", "latitude": 45.53306, "guid": "2236e52c-b3ee-11e7-94be-6c92bf041d56"}
{"province": "江西省", "distance": 117.86932849439091, "sametype": "same", "thirdId": "eedd7050-2727-4efc-9dad-0148c3db12ba", "name": "修水渣津分理处", "city": "九江市", "longitude": 114.244911, "score": "0.988963", "oldname": "中国银行荣县支行营业部", "address": "渣津镇", "latitude": 29.0048084, "guid": "221887e4-b3ee-11e7-84d3-6c92bf041d56"}
{"province": "辽宁", "distance": 130.82548387384588, "sametype": "same", "thirdId": "a543abe8-6f5a-4a8f-ab55-014a18d1bc9d", "name": "抚顺圣大支行", "city": "抚顺市", "longitude": 123.940193, "score": "0.958649", "oldname": "中国银行义乌嘉和支行", "address": "抚顺市顺城区新城路东段8号楼", "latitude": 41.8824043, "guid": "21ac6b2c-b3ee-11e7-8282-6c92bf041d56"}
{"province": "西藏自治区", "distance": 101.400161093196, "sametype": "same", "thirdId": "218b1fa9-39c0-48b0-be76-014fd33a9088", "name": "类乌齐巴夏营业所", "city": "昌都地区", "longitude": 96.49861, "score": "0.895704", "oldname": "中国银行杭州萧山开发区支行", "address": "卡玛多乡", "latitude": 31.1449986, "guid": "21c808be-b3ee-11e7-b99d-6c92bf041d56"}
{"province": "四川省", "distance": 107.89843816828943, "sametype": "same", "thirdId": "cf45adad-48c8-4a1c-b1dd-0150d6571230", "name": "乐山嘉州支行", "city": "乐山市", "longitude": 103.765007, "score": "0.995022", "oldname": "中国银行南充龙门支行", "address": "嘉定中路54号", "latitude": 29.5786457, "guid": "221dd852-b3ee-11e7-9a81-6c92bf041d56"}
{"province": "山东省", "distance": 122.60496157607909, "sametype": "same", "thirdId": "f961e2a1-705f-42f2-82d9-0152a4f98b48", "name": "济南银河支行营业室", "city": "济南市", "longitude": 116.997223, "score": "0.981360", "oldname": "中国银行浦江县支行营业部", "address": "经七路168号", "latitude": 36.65551, "guid": "21bdb35a-b3ee-11e7-8d5c-6c92bf041d56"}
{"province": "江西省", "distance": 119.09504356556667, "sametype": "same", "thirdId": "c30a01dd-fb7b-4846-817d-01539a3a904e", "name": "安义龙津分理处", "city": "南昌市", "longitude": 115.550232, "score": "0.995385", "oldname": "中国银行南充分行营业部", "address": "东门路149号", "latitude": 28.84048, "guid": "221e2a14-b3ee-11e7-b133-6c92bf041d56"}
{"province": "甘肃省", "distance": 107.73376485967572, "sametype": "same", "thirdId": "69a871a6-72df-41a9-9682-01572e5c4052", "name": "张掖县府街支行", "city": "张掖市", "longitude": 100.452347, "score": "0.988610", "oldname": "中国银行绵阳永兴支行", "address": "县府街11号", "latitude": 38.934433, "guid": "221f705e-b3ee-11e7-8e53-6c92bf041d56"}
{"province": "广东省", "distance": 115.42879512479762, "sametype": "same", "thirdId": "f9e0b38f-5de1-4f37-9862-015cddad29b5", "name": "顺德杏坛支行营业室", "city": "佛山市", "longitude": 113.1568, "score": "0.918352", "oldname": "中国银行常山县支行营业部", "address": "杏坛镇齐新路18号", "latitude": 22.78915, "guid": "21d06220-b3ee-11e7-977c-6c92bf041d56"}
{"province": "吉林省", "distance": 133.0658575544881, "sametype": "same", "thirdId": "2c61af53-5f7d-4c4c-942c-016252a3a850", "name": "辉南县支行营业室", "city": "通化市", "longitude": 126.033943, "score": "0.981986", "oldname": "中国银行泸州江城支行", "address": "朝阳镇爱国路28号", "latitude": 42.6845131, "guid": "2221b7a6-b3ee-11e7-8e10-6c92bf041d56"}
{"province": "云南省", "distance": 103.8042412984171, "sametype": "same", "thirdId": "3dee473e-f203-46d2-9e32-0162ee553fc6", "name": "勐腊县支行营业室", "city": "西双版纳傣族自治州", "longitude": 101.5627, "score": "0.976515", "oldname": "中国银行乐山市中区支行", "address": "景岗街1号", "latitude": 21.4555, "guid": "2222bc96-b3ee-11e7-9124-6c92bf041d56"}
{"province": "海南", "distance": 112.1494282117022, "sametype": "same", "thirdId": "8dd68614-461e-47ce-aa8f-0167091b81cd", "name": "万宁龙滚支行", "city": "万宁市", "longitude": 110.517929, "score": "0.996205", "oldname": "中国银行金堂支行营业部", "address": "海南省万宁市龙滚镇", "latitude": 19.059948, "guid": "2223b1a0-b3ee-11e7-982b-6c92bf041d56"}
{"province": "江苏省", "distance": 123.74237048487974, "sametype": "same", "thirdId": "feff6674-38be-421f-b7c6-016d2b06471a", "name": "常州华城支行", "city": "常州市", "longitude": 119.601791, "score": "0.995442", "oldname": "中国银行广安邻水支行", "address": "华城中路68号7-115", "latitude": 31.7424927, "guid": "22274932-b3ee-11e7-acbb-6c92bf041d56"}
{"province": "安徽省", "distance": 122.09587974494352, "sametype": "same", "thirdId": "fc487712-257e-4606-b58a-01708bc41013", "name": "定远东大街支行", "city": "滁州市", "longitude": 117.684326, "score": "0.995694", "oldname": "中国银行都江堰中山北路支行", "address": "东大街105号", "latitude": 32.5238876, "guid": "22285cb4-b3ee-11e7-8801-6c92bf041d56"}
{"province": "辽宁省", "distance": 130.6889890751302, "sametype": "same", "thirdId": "77e69eff-851c-4cc6-a489-01717da85b74", "name": "抚顺七百支行", "city": "抚顺市", "longitude": 123.807251, "score": "0.994560", "oldname": "中国银行达州国际新城支行", "address": "雷锋路东段57号", "latitude": 41.84945, "guid": "222a33ea-b3ee-11e7-93a0-6c92bf041d56"}
{"province": "江西省", "distance": 118.26835298293669, "sametype": "same", "thirdId": "8d90fa65-c601-4bd5-a604-017a24b92508", "name": "渝水支行营业室", "city": "新余市", "longitude": 114.954559, "score": "0.942935", "oldname": "中国银行嘉兴秀城支行", "address": "公园北路抱石名 居A栋一楼103-107号商铺", "latitude": 27.8002281, "guid": "21c4c0dc-b3ee-11e7-a4e9-6c92bf041d56"}
{"province": "甘肃省", "distance": 111.2718826643894, "sametype": "same", "thirdId": "11e6d80c-59c3-4e45-ae83-017a37f3779c", "name": "秦安县支行营业室", "city": "天水市", "longitude": 105.670876, "score": "0.961539", "oldname": "中国银行犍为广场支行", "address": "兴国镇11号", "latitude": 34.8582535, "guid": "2225028a-b3ee-11e7-a4d3-6c92bf041d56"}
{"province": "上海市", "distance": 125.46973091581341, "sametype": "same", "thirdId": "76650e77-b37a-4b5a-ba94-017ab31305d5", "name": "上海淞南支行", "city": "上海市", "longitude": 121.491188, "score": "0.996376", "oldname": "中国银行成都天府大道支行", "address": "淞南路350号", "latitude": 31.3455677, "guid": "222ef092-b3ee-11e7-b0f0-6c92bf041d56"}
{"province": "四川省", "distance": 108.53607966853706, "sametype": "same", "thirdId": "4a7c3ff2-a22d-4ad4-92ae-017d45472c8f", "name": "成都沙河堡支行", "city": "成都市", "longitude": 104.127258, "score": "0.983167", "oldname": "中国银行徐泾支行", "address": "上沙河堡街11号", "latitude": 30.6201687, "guid": "223ac76e-b3ee-11e7-9134-6c92bf041d56"}
{"province": "辽宁省", "distance": 130.52951077424447, "sametype": "same", "thirdId": "f0a2c156-aca8-4507-8c06-017f56502dbe", "name": "本溪合成支行", "city": "本溪市", "longitude": 123.8197, "score": "0.947166", "oldname": "中国银行宜宾翠屏支行", "address": "鑫丰小区1-2号楼一层", "latitude": 41.31144, "guid": "22100006-b3ee-11e7-8262-6c92bf041d56"}
{"province": "江苏省", "distance": 122.96900630679798, "sametype": "same", "thirdId": "c99a334d-7a33-4ec7-8aac-0185bcf49fe4", "name": "南京兴隆大街支行", "city": "南京市", "longitude": 118.727661, "score": "0.936808", "oldname": "中国银行太仓浏河支行", "address": "江东南路166号", "latitude": 32.01748, "guid": "2200a9e4-b3ee-11e7-924e-6c92bf041d56"}
{"province": "江苏省", "distance": 124.96152949928974, "sametype": "same", "thirdId": "2b0686c3-866a-4fd2-89d6-0186160a4e1b", "name": "昆山分行营业部营业室", "city": "苏州市", "longitude": 120.957184, "score": "0.898558", "oldname": "中国银行重庆重大支行", "address": "商厦内", "latitude": 31.3806229, "guid": "21957bc4-b3ee-11e7-b65e-6c92bf041d56"}
{"province": "河南省", "distance": 117.40585207146547, "sametype": "same", "thirdId": "94f845be-dcc3-4b70-b880-018fc9c032d5", "name": "新安县支行营业室", "city": "洛阳市", "longitude": 112.154274, "score": "0.977945", "oldname": "中国银行徐泾支行", "address": "慕蓉街78号", "latitude": 34.7210732, "guid": "223ac76e-b3ee-11e7-9134-6c92bf041d56"}
{"province": "广东省", "distance": 115.52137814375783, "sametype": "same", "thirdId": "3f4e81fd-17a2-49b4-ac45-01929c12267a", "name": "顺德桂洲支行", "city": "佛山市", "longitude": 113.258888, "score": "0.998199", "oldname": "中国银行张江高科技园区支行", "address": "容桂街道容桂大道中214号", "latitude": 22.751112, "guid": "223a22aa-b3ee-11e7-b7bc-6c92bf041d56"}
{"province": "内蒙古自治区", "distance": 126.47746069844288, "sametype": "same", "thirdId": "7905fedd-9a20-4fb5-bcdf-019424b70223", "name": "赤峰元宝山平庄支行", "city": "赤峰市", "longitude": 119.287292, "score": "0.999425", "oldname": "中国银行天钥桥路支行", "address": "平庄镇英河街西段", "latitude": 42.03677, "guid": "223bda96-b3ee-11e7-a9cb-6c92bf041d56"}
{"province": "河北省", "distance": 120.99457146054654, "sametype": "same", "thirdId": "5f8f9074-833b-4a60-9e10-01991aff8224", "name": "无极北苏分理处", "city": "石家庄市", "longitude": 114.820541, "score": "0.990511", "oldname": "中国银行桐乡支行营业部", "address": "北苏镇", "latitude": 38.1566467, "guid": "21b402f6-b3ee-11e7-a9f5-6c92bf041d56"}
{"province": "广东省", "distance": 116.24750660398139, "sametype": "same", "thirdId": "664dee41-f633-4083-9351-01a118e3060d", "name": "深圳新沙支行", "city": "深圳市", "longitude": 114.044456, "score": "0.991056", "oldname": "中国银行方舟支行", "address": "金地一路瑞丰园购物广场E05商铺", "latitude": 22.5243168, "guid": "2240c42a-b3ee-11e7-ad71-6c92bf041d56"}
{"province": "天津市", "distance": 123.83968785439222, "sametype": "same", "thirdId": "a198c153-e6d2-4093-aac4-01a26a41af04", "name": "天津田场支行", "city": "天津市", "longitude": 117.29538, "score": "0.967614", "oldname": "中国银行崇州支行营业部", "address": "进京路", "latitude": 39.72483, "guid": "222aef38-b3ee-11e7-9f09-6c92bf041d56"}
{"province": "陕西省", "distance": 114.30339140582026, "sametype": "same", "thirdId": "b759e665-36d8-4d61-bb85-01a9d3d86a8c", "name": "西安长安区引镇分理处", "city": "西安市", "longitude": 109.105606, "score": "0.992611", "oldname": "中国银行重庆学府路支行", "address": "引镇街办引驾街36号", "latitude": 34.0768547, "guid": "21976f6a-b3ee-11e7-8ecc-6c92bf041d56"}
{"province": "山西省", "distance": 119.9201881751931, "sametype": "same", "thirdId": "f77dcad7-8f5d-4f0b-a3f1-01abcc1fa90f", "name": "怀仁云中分理处", "city": "朔州市", "longitude": 113.115608, "score": "0.968271", "oldname": "中国银行重庆铜锣湾支行", "address": "迎宾西街南巷17号", "latitude": 39.8209839, "guid": "219a03d8-b3ee-11e7-896a-6c92bf041d56"}
{"province": "新疆维吾尔自治区", "distance": 90.23770860923553, "sametype": "same", "thirdId": "1e603892-68b9-47d1-bbca-01ad584f3ab4", "name": "阿克苏兵团支行营业室", "city": "阿克苏地区", "longitude": 80.29078, "score": "0.996260", "oldname": "中国银行重庆双龙路支行", "address": "迎宾路20号", "latitude": 41.18537, "guid": "219b4d7e-b3ee-11e7-80e6-6c92bf041d56"}
{"province": "山东省", "distance": 123.13268753120401, "sametype": "same", "thirdId": "a9422dad-ef50-4afe-9fb4-01ae8528f796", "name": "莱芜莱城支行营业室", "city": "莱芜市", "longitude": 117.683105, "score": "0.926934", "oldname": "中国银行成都万科支行", "address": "文化北路17-1号", "latitude": 36.22631, "guid": "222d210e-b3ee-11e7-b6a8-6c92bf041d56"}
{"province": "云南省", "distance": 104.12101524386968, "sametype": "same", "thirdId": "09897435-1198-4e21-8963-01b5815194f0", "name": "新平漠沙分理处", "city": "玉溪市", "longitude": 101.433556, "score": "0.950549", "oldname": "中国银行昆明市南市区支行", "address": "漠沙镇青年路23号", "latitude": 23.5036068, "guid": "21d710fc-b3ee-11e7-98a0-6c92bf041d56"}
{"province": "山东省", "distance": 121.83319867815952, "sametype": "same", "thirdId": "fca5b561-7805-4e7f-a787-01b63e1fb90e", "name": "济宁许庄分理处", "city": "济宁市", "longitude": 116.5836, "score": "0.923922", "oldname": "中国银行天津科贸街支行", "address": "白屯村", "latitude": 35.3778534, "guid": "21f09a9a-b3ee-11e7-b6e1-6c92bf041d56"}
{"province": "浙江省", "distance": 124.28307734917091, "sametype": "same", "thirdId": "10722571-423e-4928-add4-01b83d43c6a8", "name": "乐清宏源支行", "city": "温州市", "longitude": 121.0397, "score": "0.892609", "oldname": "中国银行天津河北路支行", "address": "虹桥镇新市街53-57号", "latitude": 28.2077, "guid": "21f5d140-b3ee-11e7-bff3-6c92bf041d56"}
{"province": "山西省", "distance": 117.2852900413297, "sametype": "same", "thirdId": "aa189b65-c877-422d-8ac2-01b850cd9b0c", "name": "中阳新城支行", "city": "吕梁市", "longitude": 111.173706, "score": "0.996627", "oldname": "中国银行重庆高新支行", "address": "滨河1号路中阳钢厂经营大楼", "latitude": 37.36638, "guid": "21a35636-b3ee-11e7-9ace-6c92bf041d56"}
{"province": "江苏省", "distance": 124.28217757683805, "sametype": "same", "thirdId": "563c6178-4f5f-460c-9942-01bac1dda5fa", "name": "无锡洛社支行", "city": "无锡市", "longitude": 120.187553, "score": "0.993855", "oldname": "中国银行重庆大渡口支行营业部", "address": "洛社镇徐贵桥", "latitude": 31.63877, "guid": "21a54388-b3ee-11e7-8ff4-6c92bf041d56"}
{"province": "黑龙江省", "distance": 135.74368084527381, "sametype": "same", "thirdId": "e87f4dab-b887-46d9-82c7-01c6f042056a", "name": "尚志中兴分理处", "city": "哈尔滨市", "longitude": 127.992264, "score": "0.871139", "oldname": "中国银行黄岩支行营业部", "address": "尚志镇尚志大街27号", "latitude": 45.2142372, "guid": "21c61dd8-b3ee-11e7-8e6d-6c92bf041d56"}
{"province": "云南省", "distance": 101.70863146114985, "sametype": "same", "thirdId": "914ef62a-a420-4e5d-9dd5-01c9a5f2e2b3", "name": "龙陵县支行营业室", "city": "保山市", "longitude": 98.6913, "score": "0.972603", "oldname": "中国银行虹桥开发区支行", "address": "远征路2号", "latitude": 24.5901, "guid": "223fab26-b3ee-11e7-ac32-6c92bf041d56"}
{"province": "黑龙江省", "distance": 133.52794045906288, "sametype": "same", "thirdId": "8b237bbd-8706-427d-8178-01cae5ce9f18", "name": "大庆开发区支行", "city": "大庆市", "longitude": 125.140121, "score": "0.991277", "oldname": "中国银行诸暨大唐支行", "address": "高新区新村建设路128号", "latitude": 46.57962, "guid": "21a98fce-b3ee-11e7-a89c-6c92bf041d56"}
{"province": "福建省", "distance": 122.45071668357029, "sametype": "same", "thirdId": "1386c6b7-0d1c-4f2e-9a21-01ce447292f1", "name": "罗源县支行营业室", "city": "福州市", "longitude": 119.5516, "score": "0.974477", "oldname": "中国银行大木桥路支行", "address": "凤山镇东环新村19号", "latitude": 26.4876, "guid": "22417d16-b3ee-11e7-bab5-6c92bf041d56"}
{"province": "天津市", "distance": 124.0693701592603, "sametype": "same", "thirdId": "c85dae0b-391b-4176-803c-01d06ff382d1", "name": "蓟县人民东路支行", "city": "天津市", "longitude": 117.430107, "score": "0.969624", "oldname": "中国银行义乌福通支行", "address": "人民东路", "latitude": 40.04221, "guid": "21acbea6-b3ee-11e7-a4f0-6c92bf041d56"}
{"province": "河北省", "distance": 122.96932764186239, "sametype": "same", "thirdId": "c3e6e5c8-8807-40a5-b2d9-01d22bd9d4ac", "name": "沽源县支行营业室", "city": "张家口市", "longitude": 115.694862, "score": "0.997036", "oldname": "中国银行义乌福通支行", "address": "平定堡镇桥西外贸大街", "latitude": 41.6671867, "guid": "21acbea6-b3ee-11e7-a4f0-6c92bf041d56"}
{"province": "广东省", "distance": 115.48603257321696, "sametype": "same", "thirdId": "45306948-7ba4-49dc-84a2-01d2bc9f3bef", "name": "顺德羊额支行", "city": "佛山市", "longitude": 113.198105, "score": "0.995079", "oldname": "中国银行仙居支行营业部", "address": "伦教街道羊额新塘新景路西侧地铺", "latitude": 22.8738441, "guid": "21adc0ee-b3ee-11e7-ab13-6c92bf041d56"}
{"province": "吉林", "distance": 131.66618322918012, "sametype": "same", "thirdId": "33384fce-8d1c-4f2e-b44e-01da430cb779", "name": "梨树十家堡支行", "city": "四平市", "longitude": 124.338539, "score": "0.994716", "oldname": "中国银行温州市瓯海区支行营业部", "address": "吉林省梨树县十家堡镇卫生院对过", "latitude": 43.3117943, "guid": "21af35f0-b3ee-11e7-87dc-6c92bf041d56"}
{"province": "河南省", "distance": 119.81594998684442, "sametype": "same", "thirdId": "769bbad3-3556-4d0f-ad6b-01daaf404a33", "name": "淮阳县鲁台分理处", "city": "周口市", "longitude": 115.037, "score": "0.992258", "oldname": "中国银行文成县支行营业部", "address": "鲁台镇南北大街", "latitude": 33.5015, "guid": "21ae7b1a-b3ee-11e7-9f8c-6c92bf041d56"}
{"province": "新疆维吾尔自治区", "distance": 91.47016458777617, "sametype": "same", "thirdId": "6ceeb90c-ebd7-4e19-a73b-01db3c4f8d19", "name": "伊犁七十六团支行", "city": "伊犁哈萨克自治州", "longitude": 80.7078857, "score": "0.995521", "oldname": "中国银行温州市瓯海区支行营业部", "address": "七十六团松柏西路1号", "latitude": 43.046814, "guid": "21af35f0-b3ee-11e7-87dc-6c92bf041d56"}
{"province": "河南省", "distance": 118.51774280830246, "sametype": "same", "thirdId": "f060c917-93f1-428f-bed8-01e0d4f2410a", "name": "信阳直属支行营业室", "city": "信阳市", "longitude": 114.085083, "score": "0.989977", "oldname": "中国银行武义县支行营业部", "address": "民权路29号", "latitude": 32.1099548, "guid": "21ae1e7c-b3ee-11e7-bf48-6c92bf041d56"}
{"province": "江西", "distance": 120.83671371674296, "sametype": "same", "thirdId": "16c98c87-9534-4c99-8549-01e290f8a0ab", "name": "浮梁平安分理处", "city": "景德镇市", "longitude": 117.218636, "score": "0.852047", "oldname": "中国银行巴音郭楞蒙古自治州分行营业部", "address": "江西省景德镇市浮梁县房地产税费征管中心", "latitude": 29.34796, "guid": "21e84f20-b3ee-11e7-aecf-6c92bf041d56"}
{"province": "福建", "distance": 121.18644569871253, "sametype": "same", "thirdId": "3a0c0aa5-c3c6-409a-9e0e-01e4012df0d5", "name": "丰泽支行营业室", "city": "泉州市", "longitude": 118.603333, "score": "0.991410", "oldname": "中国银行文成县支行营业部", "address": "泉州市丰泽区泉秀路运通大厦一层", "latitude": 24.8878288, "guid": "21ae7b1a-b3ee-11e7-9f8c-6c92bf041d56"}
{"province": "辽宁省", "distance": 130.32426957989168, "sametype": "same", "thirdId": "87b67df0-20ec-4bce-9cc6-01e65696d178", "name": "沈阳北街支行", "city": "沈阳市", "longitude": 123.416374, "score": "0.984596", "oldname": "中国银行成都东大街支行", "address": "黄河北大街74号", "latitude": 41.86662, "guid": "22378d60-b3ee-11e7-b026-6c92bf041d56"}
{"province": "江西省", "distance": 117.35100336951501, "sametype": "same", "thirdId": "ccad4503-c65e-4edd-a8a3-01e8a15dcba8", "name": "井冈山厦坪分理处", "city": "吉安市", "longitude": 114.268745, "score": "0.960698", "oldname": "中国银行杭州萧山瓜沥支行", "address": "厦坪镇厦坪街", "latitude": 26.71913, "guid": "21c85a6c-b3ee-11e7-9d8e-6c92bf041d56"}
{"province": "河南省", "distance": 118.8011882120734, "sametype": "same", "thirdId": "9878196c-f3c5-4850-8dfb-01eef029846d", "name": "许昌思故台分理处", "city": "许昌市", "longitude": 113.827629, "score": "0.928400", "oldname": "中国银行成都长城园支行", "address": "三八路33号", "latitude": 34.0146027, "guid": "222bac98-b3ee-11e7-87c7-6c92bf041d56"}
{"province": "广西壮族自治区", "distance": 112.08994424075213, "sametype": "same", "thirdId": "0ec0d0d5-8102-4816-b226-01f00945ccfb", "name": "融水香山分理处", "city": "柳州市", "longitude": 109.25177, "score": "0.996539", "oldname": "中国银行温岭支行营业部", "address": "寿星南路13号", "latitude": 25.064045, "guid": "21b3064e-b3ee-11e7-9721-6c92bf041d56"}
{"province": "山东省", "distance": 126.21906301002245, "sametype": "same", "thirdId": "65d4130f-76c1-4fa3-a4d8-01f09581136b", "name": "龙口南山支行", "city": "烟台市", "longitude": 120.488853, "score": "0.933985", "oldname": "中国银行成都高新技术产业开发区支行营业部", "address": "东江镇南山集团南山中路7号", "latitude": 37.5990448, "guid": "22373a18-b3ee-11e7-8566-6c92bf041d56"}
{"province": "四川省", "distance": 111.61933302768634, "sametype": "same", "thirdId": "26c9a1e5-0011-4fed-8b12-01f13d45bd0c", "name": "达州石梯分理处", "city": "达州市", "longitude": 107.16172, "score": "0.991803", "oldname": "中国银行温州蝉街支行", "address": "石梯镇四通街125号", "latitude": 31.2288532, "guid": "21b2b252-b3ee-11e7-8531-6c92bf041d56"}
{"province": "山东省", "distance": 126.63437493832741, "sametype": "same", "thirdId": "d2d3ed70-cd3b-412a-ba7c-01f41dd60471", "name": "海阳东村支行", "city": "烟台市", "longitude": 121.176208, "score": "0.900698", "oldname": "中国银行眉山东坡大道支行", "address": "方圆街道海政路", "latitude": 36.7775955, "guid": "222109e6-b3ee-11e7-ac20-6c92bf041d56"}
{"province": "西藏", "distance": 90.09717560202928, "sametype": "same", "thirdId": "e4e9ba2c-aa02-4e49-89a1-01f453ebeef8", "name": "吉隆口岸支行", "city": "日喀则市", "longitude": 85.50527, "score": "0.932206", "oldname": "中国银行杭州市庆春支行营业部", "address": "西藏日喀则地区吉隆县吉隆镇", "latitude": 28.3963, "guid": "21ca4458-b3ee-11e7-814c-6c92bf041d56"}
{"province": "福建省", "distance": 119.92121012379823, "sametype": "same", "thirdId": "11b3d400-4443-461a-8ad2-01f5b93e0f97", "name": "漳平桂林支行", "city": "龙岩市", "longitude": 117.250237, "score": "0.989657", "oldname": "中国银行昆明市崇仁支行", "address": "桂林林乡上桂林", "latitude": 25.169, "guid": "21dd5764-b3ee-11e7-8b7d-6c92bf041d56"}
{"province": "宁夏回族自治区", "distance": 113.31613051621451, "sametype": "same", "thirdId": "c713f7e6-f1bd-4c76-b694-01f6113f1bed", "name": "石嘴山建设东街分理处", "city": "石嘴山市", "longitude": 106.386696, "score": "0.997255", "oldname": "中国银行遂昌县支行营业部", "address": "建设东街128号", "latitude": 39.0181541, "guid": "21b6491c-b3ee-11e7-82e5-6c92bf041d56"}
{"province": "江苏省", "distance": 124.90493881593576, "sametype": "same", "thirdId": "a68890e0-54f3-4490-ab2c-01f75d866e5c", "name": "昆山巴城支行", "city": "苏州市", "longitude": 120.880013, "score": "0.996090", "oldname": "中国银行嵊州开发区支行", "address": "巴城镇湖滨商城1号3室", "latitude": 31.4526024, "guid": "21b7424a-b3ee-11e7-b3c1-6c92bf041d56"}
{"province": "广东", "distance": 115.67634890936003, "sametype": "same", "thirdId": "ce424c4f-73b3-44ae-9b5c-01f7830f8eda", "name": "广州东城支行营业室", "city": "广州市", "longitude": 113.336, "score": "0.993882", "oldname": "中国银行绍兴市分行营业部", "address": "广州市天河区东莞庄路26号之一", "latitude": 23.151, "guid": "21b83b14-b3ee-11e7-bb33-6c92bf041d56"}
{"province": "浙江", "distance": 125.17387462958891, "sametype": "same", "thirdId": "ac65bca3-dab8-4bdb-994f-01fa7bab7f9a", "name": "宁波中河支行", "city": "宁波市", "longitude": 121.569382, "score": "0.995402", "oldname": "中国银行攀枝花大河北路支行", "address": "宁波市鄞州区中河街道贸城东路683、685、687、689号", "latitude": 29.822546, "guid": "221c838a-b3ee-11e7-a1b3-6c92bf041d56"}
{"province": "上海市", "distance": 125.3775695293521, "sametype": "same", "thirdId": "e2d82d3a-6e6a-4e2a-bf71-01fdf0c625e2", "name": "上海陆家宅支行", "city": "上海市", "longitude": 121.423843, "score": "0.993737", "oldname": "中国银行绍兴百福园支行", "address": "武宁路101号", "latitude": 31.2375622, "guid": "21b9d8ac-b3ee-11e7-b1b0-6c92bf041d56"}
{"province": "浙江省", "distance": 125.68710901425361, "sametype": "same", "thirdId": "743c0b22-7e06-4d49-9aa2-01ff31aeaf69", "name": "舟山六横支行", "city": "舟山市", "longitude": 122.117432, "score": "0.994562", "oldname": "中国银行衢州衢化北苑支行", "address": "六横镇双屿路151号", "latitude": 29.7419262, "guid": "21bc18e2-b3ee-11e7-8bef-6c92bf041d56"}
{"province": "河南省", "distance": 119.18217292299667, "sametype": "same", "thirdId": "d9074d4d-2457-4363-8921-0201933c13df", "name": "鄢陵县张桥分理处", "city": "许昌市", "longitude": 114.239059, "score": "0.997997", "oldname": "中国银行青田温溪支行", "address": "张桥乡新张桥村", "latitude": 33.96804, "guid": "21bd0d6a-b3ee-11e7-ab65-6c92bf041d56"}
{"province": "四川省", "distance": 108.53774243374644, "sametype": "same", "thirdId": "2477bbb8-2425-45d9-80de-0203ca48c7d2", "name": "成都青龙支行", "city": "成都市", "longitude": 104.1051, "score": "0.960554", "oldname": "中国银行浦江县支行营业部", "address": "外北青龙场昭觉横路1号", "latitude": 30.7012978, "guid": "21bdb35a-b3ee-11e7-8d5c-6c92bf041d56"}
{"province": "湖南省", "distance": 116.6576811788517, "sametype": "same", "thirdId": "08f244cf-eafc-4d0c-aca2-0207a43a7975", "name": "长沙黄花支行", "city": "长沙市", "longitude": 113.189034, "score": "0.995294", "oldname": "中国银行磐安县支行营业部", "address": "黄花镇黄花路1号", "latitude": 28.2357426, "guid": "21beaa44-b3ee-11e7-bc36-6c92bf041d56"}
{"province": "新疆", "distance": 85.63768705682767, "sametype": "same", "thirdId": "108e1c6a-c968-4b6c-b74b-020876154b87", "name": "喀什迎宾大道支行", "city": "喀什地区", "longitude": 75.99241, "score": "0.990504", "oldname": "中国银行平湖乍浦支行", "address": "新疆喀什市机场路66号（喀什地区急救中心一楼大厅）", "latitude": 39.483757, "guid": "21be58a0-b3ee-11e7-a367-6c92bf041d56"}
{"province": "浙江省", "distance": 124.89143775583776, "sametype": "same", "thirdId": "388bc6ba-2378-4634-ab50-020fff14afad", "name": "余姚历山支行", "city": "宁波市", "longitude": 121.193367, "score": "0.998804", "oldname": "中国银行丽水莲都支行", "address": "低塘街道历山光明路34号", "latitude": 30.166853, "guid": "21c0e99e-b3ee-11e7-b01c-6c92bf041d56"}
{"province": "广东省", "distance": 115.43322184567019, "sametype": "same", "thirdId": "66f5fd36-f343-4a99-bd2f-0211f5abe5a2", "name": "佛山金兰支行", "city": "佛山市", "longitude": 113.115547, "score": "0.944951", "oldname": "中国银行昆明市白龙支行", "address": "普澜二路27号首层1号", "latitude": 23.01525, "guid": "21deb3e8-b3ee-11e7-bb83-6c92bf041d56"}
{"province": "重庆市", "distance": 110.26958616298802, "sametype": "same", "thirdId": "5288e5b4-9dd1-464b-b81f-021401ff64d2", "name": "璧山县支行营业室", "city": "重庆市", "longitude": 106.22583, "score": "0.926860", "oldname": "中国银行德阳分行营业部", "address": "璧城镇文风路140号", "latitude": 29.5880833, "guid": "22291596-b3ee-11e7-b22f-6c92bf041d56"}
{"province": "河北省", "distance": 120.67179782185914, "sametype": "same", "thirdId": "d1e2e53c-9b16-4c84-a2bf-0217d1c752eb", "name": "石家庄华兴支行营业室", "city": "石家庄市", "longitude": 114.511444, "score": "0.964406", "oldname": "中国银行重庆建国村支行", "address": "建设北大街230号", "latitude": 38.0632629, "guid": "21a166dc-b3ee-11e7-a332-6c92bf041d56"}
{"province": "安徽省", "distance": 120.19478218809073, "sametype": "same", "thirdId": "a06ac47b-b878-4c87-a5f5-02185bd2b434", "name": "金寨新城支行", "city": "六安市", "longitude": 115.935, "score": "0.987038", "oldname": "中国银行巴中东城支行", "address": "梅山镇新江路751号", "latitude": 31.7153187, "guid": "22392ae4-b3ee-11e7-b5d2-6c92bf041d56"}
{"province": "黑龙江省", "distance": 140.0889102031192, "sametype": "same", "thirdId": "eaf1dc69-51ce-4446-bacf-02187bfa864d", "name": "绥滨县支行营业室", "city": "鹤岗市", "longitude": 131.86676, "score": "0.997582", "oldname": "中国银行杭州萧山汽车城支行", "address": "松滨大街东段北侧", "latitude": 47.287, "guid": "21c7b5f8-b3ee-11e7-9e93-6c92bf041d56"}
{"province": "浙江省", "distance": 123.80069011806087, "sametype": "same", "thirdId": "7576b159-6592-42dd-bd62-0218d553e488", "name": "东阳上卢支行", "city": "金华市", "longitude": 120.283, "score": "0.987464", "oldname": "中国银行天津北辰开发区支行", "address": "江北街道上卢社区上卢小区大观街", "latitude": 29.3020611, "guid": "21faae54-b3ee-11e7-9a4b-6c92bf041d56"}
{"province": "浙江省", "distance": 123.26886124178394, "sametype": "same", "thirdId": "25cf8dd7-99ff-49f9-bf9f-021a768f3c7b", "name": "文成八达支行", "city": "温州市", "longitude": 120.095322, "score": "0.992548", "oldname": "中国银行杭州钱江新城支行", "address": "大学镇前街168号", "latitude": 27.79075, "guid": "21cbdbe2-b3ee-11e7-8165-6c92bf041d56"}
{"province": "辽宁", "distance": 129.68469689524252, "sametype": "same", "thirdId": "ebac3f60-5206-43a0-b821-021c0b0de6b6", "name": "鞍山银丰支行", "city": "鞍山市", "longitude": 122.995277, "score": "0.998136", "oldname": "中国银行杭州钱江新城支行", "address": "辽宁省鞍山市铁东区五道街59-51-2号", "latitude": 41.1130447, "guid": "21cbdbe2-b3ee-11e7-8165-6c92bf041d56"}
{"province": "吉林省", "distance": 131.04080815672162, "sametype": "same", "thirdId": "b600162d-cb77-4f6e-a66b-021f3fbc99a5", "name": "白城分行营业部营业室", "city": "白城市", "longitude": 122.842575, "score": "0.995105", "oldname": "中国银行杭州滨江支行营业部", "address": "中兴东大路1６号", "latitude": 45.62231, "guid": "21cdae90-b3ee-11e7-b4c7-6c92bf041d56"}
{"province": "上海市", "distance": 125.39374026443046, "sametype": "same", "thirdId": "abf5c632-ea62-42cc-8f14-021f75d74a12", "name": "上海长寿支行", "city": "上海市", "longitude": 121.439026, "score": "0.960231", "oldname": "中国银行泸州江城支行", "address": "常德路1223-1225号", "latitude": 31.2434483, "guid": "2221b7a6-b3ee-11e7-8e10-6c92bf041d56"}
{"province": "北京市", "distance": 123.04791668608475, "sametype": "same", "thirdId": "a0223b66-1bbd-4888-8fbc-0220a563eb5e", "name": "北京花园东路分理处", "city": "北京市", "longitude": 116.370049, "score": "0.994992", "oldname": "中国银行安吉县支行营业部", "address": "花园东路8号", "latitude": 39.9850159, "guid": "21d116d4-b3ee-11e7-b17f-6c92bf041d56"}
{"province": "山西省", "distance": 119.09232133569445, "sametype": "same", "thirdId": "1ecc3fba-d9ff-4fa6-b238-022c2dfe57b0", "name": "忻府支行营业室", "city": "忻州市", "longitude": 112.7244, "score": "0.983653", "oldname": "中国银行成都锦江支行营业部", "address": "利民西街20号", "latitude": 38.4212265, "guid": "22338dd2-b3ee-11e7-b6e4-6c92bf041d56"}
{"province": "江苏省", "distance": 121.53603226413796, "sametype": "same", "thirdId": "7e20ec31-d8d7-4c17-bb50-022ebd216716", "name": "丰县赵庄支行", "city": "徐州市", "longitude": 116.464828, "score": "0.982945", "oldname": "中国银行昆明市兴苑路支行", "address": "赵庄镇", "latitude": 34.7412, "guid": "21d47892-b3ee-11e7-9c80-6c92bf041d56"}
{"province": "天津市", "distance": 123.60870138462896, "sametype": "same", "thirdId": "c739200d-fded-4393-8ee6-022fbd311b6c", "name": "天津中山门支行", "city": "天津市", "longitude": 117.260674, "score": "0.996986", "oldname": "中国银行昆明市团源支行", "address": "中山门柏林公寓A座6号", "latitude": 39.10301, "guid": "21d5729c-b3ee-11e7-90ee-6c92bf041d56"}
{"province": "江苏省", "distance": 123.71274048287826, "sametype": "same", "thirdId": "ee8caa9e-d08c-49b0-a33b-02375bd6c8d0", "name": "常州金坛城西支行", "city": "常州市", "longitude": 119.5707, "score": "0.996541", "oldname": "中国银行昆明市南市区支行", "address": "西门大街22号", "latitude": 31.7441311, "guid": "21d710fc-b3ee-11e7-98a0-6c92bf041d56"}
{"province": "云南省", "distance": 102.33372852285261, "sametype": "same", "thirdId": "3bda24f1-3cff-457a-a6e0-02375c39d581", "name": "保山下村分理处", "city": "保山市", "longitude": 99.1976, "score": "0.992889", "oldname": "中国银行金山支行营业部", "address": "下村街320国道旁", "latitude": 25.14017, "guid": "223e40e2-b3ee-11e7-96ef-6c92bf041d56"}
{"province": "山东省", "distance": 123.92831389017545, "sametype": "same", "thirdId": "4874e4b3-0c90-48b1-95da-0241b4980e40", "name": "沂水城北分理处", "city": "临沂市", "longitude": 118.643707, "score": "0.923445", "oldname": "中国银行重庆渝州路支行", "address": "沂水镇长安中路13-1号", "latitude": 35.8036, "guid": "21962240-b3ee-11e7-b5cb-6c92bf041d56"}
{"province": "福建省", "distance": 121.37019589307693, "sametype": "same", "thirdId": "17cf9ed3-acaf-4510-8ca6-0243179f7f8d", "name": "建瓯芝城支行", "city": "南平市", "longitude": 118.321152, "score": "0.989037", "oldname": "中国银行昆明市崇仁支行", "address": "瓯宁路112号", "latitude": 27.0338573, "guid": "21dd5764-b3ee-11e7-8b7d-6c92bf041d56"}
{"province": "云南省", "distance": 101.38329324477235, "sametype": "same", "thirdId": "c8d2dd45-29bf-4fda-a07e-0244c59cad36", "name": "梁河县支行营业室", "city": "德宏傣族景颇族自治州", "longitude": 98.30073, "score": "0.934039", "oldname": "中国银行重庆沙坪坝支行营业部", "address": "遮岛镇先锋路38号", "latitude": 24.810051, "guid": "219c41ac-b3ee-11e7-97e2-6c92bf041d56"}
{"province": "陕西省", "distance": 113.7853293562232, "sametype": "same", "thirdId": "e35faa59-3f70-4647-9782-024816438b36", "name": "礼泉县建设路分理处", "city": "咸阳市", "longitude": 108.435677, "score": "0.977186", "oldname": "中国银行乌鲁木齐市经济技术开发区支行", "address": "市政街东段", "latitude": 34.4790535, "guid": "21e40776-b3ee-11e7-8261-6c92bf041d56"}
{"province": "内蒙古自治区", "distance": 127.85476536708555, "sametype": "same", "thirdId": "0c1beb9a-23e0-422e-a47a-024da60bf3a0", "name": "阿鲁科尔沁慧花园分理处", "city": "赤峰市", "longitude": 120.0899, "score": "0.868272", "oldname": "中国银行天津东丽开发区支行", "address": "天山镇汉林街中段", "latitude": 43.87775, "guid": "21f7c414-b3ee-11e7-bd27-6c92bf041d56"}
{"province": "四川省", "distance": 105.59772921323933, "sametype": "same", "thirdId": "f52ad380-e75a-4084-8fab-02503b38188d", "name": "米易河西分理处", "city": "攀枝花市", "longitude": 102.115784, "score": "0.999343", "oldname": "中国银行昌吉回族自治州分行营业部", "address": "攀莲镇桥西路25号", "latitude": 26.8932533, "guid": "21e79544-b3ee-11e7-ae07-6c92bf041d56"}
{"province": "陕西省", "distance": 112.51528930526032, "sametype": "same", "thirdId": "1ef3efc7-459e-4bdc-bcb5-0252efe4579f", "name": "宝鸡清姜路分理处", "city": "宝鸡市", "longitude": 107.140862, "score": "0.667905", "oldname": "中国银行重庆鸿恩寺支行", "address": "新宝路36号", "latitude": 34.3587837, "guid": "21a2b2ee-b3ee-11e7-8680-6c92bf041d56"}
{"province": "山东省", "distance": 121.55574023864432, "sametype": "same", "thirdId": "3000fcbe-30e5-42b4-abfa-0255509f129a", "name": "聊城新区分理处", "city": "聊城市", "longitude": 115.958626, "score": "0.996761", "oldname": "中国银行阿勒泰地区分行营业部", "address": "兴华西路303号", "latitude": 36.46087, "guid": "21e8ac4a-b3ee-11e7-a547-6c92bf041d56"}
{"province": "湖北省", "distance": 118.4078700427296, "sametype": "same", "thirdId": "99881fed-aa39-4b98-939c-02564c70a390", "name": "武汉滠口支行", "city": "武汉市", "longitude": 114.354256, "score": "0.914291", "oldname": "中国银行杭州市萧山支行营业部", "address": "滠口滠阳大道52号", "latitude": 30.716898, "guid": "21c9f34a-b3ee-11e7-a56d-6c92bf041d56"}
{"province": "辽宁省", "distance": 129.70102630936245, "sametype": "same", "thirdId": "c948270a-b588-4745-9a85-0256c47ea228", "name": "岫岩满族自治县支行营业室", "city": "鞍山市", "longitude": 123.288109, "score": "0.955532", "oldname": "中国银行武义县支行营业部", "address": "阜昌路64号", "latitude": 40.279007, "guid": "21ae1e7c-b3ee-11e7-bf48-6c92bf041d56"}
{"province": "贵州省", "distance": 111.19795922430117, "sametype": "same", "thirdId": "7cce3df9-0c0f-4743-8a9a-0257e9df3d66", "name": "凯里阳光支行", "city": "黔东南苗族侗族自治州", "longitude": 107.976143, "score": "0.996535", "oldname": "中国银行太仓沙溪支行", "address": "宁波西路", "latitude": 26.57327, "guid": "22005818-b3ee-11e7-b6d7-6c92bf041d56"}
{"province": "陕西省", "distance": 114.17951914127383, "sametype": "same", "thirdId": "0da1775e-4efe-439f-85af-0261bb969166", "name": "泾阳县泾干路分理处", "city": "咸阳市", "longitude": 108.832504, "score": "0.991857", "oldname": "中国银行天津武清支行营业部", "address": "泾干路中段", "latitude": 34.53185, "guid": "21ec2dca-b3ee-11e7-88eb-6c92bf041d56"}
{"province": "贵州省", "distance": 110.42197867819871, "sametype": "same", "thirdId": "35e2577e-7c31-47d2-98ea-02687465295f", "name": "金沙安底支行", "city": "毕节地区", "longitude": 106.437729, "score": "0.941908", "oldname": "中国银行重庆金通支行", "address": "安底镇牛市街", "latitude": 29.3942719, "guid": "219fcc28-b3ee-11e7-8364-6c92bf041d56"}
{"province": "广西壮族自治区", "distance": 110.08342891355291, "sametype": "same", "thirdId": "95b221e8-a329-425c-9dcb-026f7e2a73d7", "name": "平果县支行营业室", "city": "百色市", "longitude": 107.584442, "score": "0.946715", "oldname": "中国银行虹桥开发区支行", "address": "马头镇新兴路272号", "latitude": 23.3227177, "guid": "223fab26-b3ee-11e7-ac32-6c92bf041d56"}
{"province": "安徽省", "distance": 121.49781024320427, "sametype": "same", "thirdId": "e1721030-e59b-4544-8aad-027df7846ced", "name": "淮南淮滨支行", "city": "淮南市", "longitude": 117.026314, "score": "0.956533", "oldname": "中国银行临海支行营业部", "address": "淮舜北路147号", "latitude": 32.658226, "guid": "21bff336-b3ee-11e7-b310-6c92bf041d56"}
{"province": "河北省", "distance": 121.86641756183889, "sametype": "same", "thirdId": "6acacd16-33e9-404e-a802-027f769cc5ab", "name": "景县广川分理处", "city": "衡水市", "longitude": 115.932182, "score": "0.989194", "oldname": "中国银行天津山海天支行", "address": "广川镇", "latitude": 37.5653152, "guid": "21ee9fe2-b3ee-11e7-8a60-6c92bf041d56"}
{"province": "广东省", "distance": 119.01407613810859, "sametype": "same", "thirdId": "cdc906f1-7f35-4b01-8dcb-02801865942c", "name": "潮安城南支行", "city": "潮州市", "longitude": 116.677353, "score": "0.983083", "oldname": "中国银行天津山海天支行", "address": "庵埠镇大霞路中段", "latitude": 23.46797, "guid": "21ee9fe2-b3ee-11e7-8a60-6c92bf041d56"}
{"province": "吉林省", "distance": 132.58627228757214, "sametype": "same", "thirdId": "e1ca062b-9492-4edb-977a-028418c4a19d", "name": "通化县二密分理处", "city": "通化市", "longitude": 125.828339, "score": "0.991230", "oldname": "中国银行天津南开支行营业部", "address": "二密镇二密河西街31号", "latitude": 41.7893372, "guid": "21ef9f3c-b3ee-11e7-b0b8-6c92bf041d56"}
{"province": "广东省", "distance": 115.5943113401955, "sametype": "same", "thirdId": "595a8569-1a98-4836-b8d4-02881ac9fa64", "name": "广州美博城支行", "city": "广州市", "longitude": 113.251381, "score": "0.933202", "oldname": "中国银行重庆綦江支行营业部", "address": "广园西路121号广州美博城A附楼首层", "latitude": 23.1553345, "guid": "219d8b5c-b3ee-11e7-b8b0-6c92bf041d56"}
{"province": "广东省", "distance": 115.5231241747717, "sametype": "same", "thirdId": "ca17bdbe-53b8-4c50-8b8b-0291c14017fb", "name": "顺德青松支行", "city": "佛山市", "longitude": 113.258537, "score": "0.990834", "oldname": "中国银行周家渡支行", "address": "容桂街道容桂大道中92号", "latitude": 22.7617226, "guid": "2239d14c-b3ee-11e7-9084-6c92bf041d56"}
{"province": "天津市", "distance": 123.59985120555315, "sametype": "same", "thirdId": "c976abc0-e9a2-42c0-b935-0293472db807", "name": "天津红城支行", "city": "天津市", "longitude": 117.237595, "score": "0.998618", "oldname": "中国银行天津津钢支行营业部", "address": "卫国道133号", "latitude": 39.1442146, "guid": "21f23d96-b3ee-11e7-aa71-6c92bf041d56"}
{"province": "吉林", "distance": 131.911012283347, "sametype": "same", "thirdId": "2d860107-41e8-4067-a411-02968b6af709", "name": "梨树郭家店支行", "city": "四平市", "longitude": 124.583885, "score": "0.993990", "oldname": "中国银行天津蓟县支行营业部", "address": "吉林省梨树县郭家店镇道下街站台委", "latitude": 43.35171, "guid": "21f38cd2-b3ee-11e7-b583-6c92bf041d56"}
{"province": "安徽", "distance": 0.0, "sametype": "same", "thirdId": "c6d3b451-0b2d-4c74-a8ee-0297ef3e445c", "name": "六安城南支行", "city": "六安市", "longitude": 0, "score": "0.999318", "oldname": "中国银行天津福安支行", "address": "六安市六佛路与滨河路交叉口红达星河城3号楼1层110-117号商铺", "latitude": 0, "guid": "21f71ff0-b3ee-11e7-a45e-6c92bf041d56"}
{"province": "河北", "distance": 121.56473156188872, "sametype": "same", "thirdId": "ba6aa3b9-8fbd-4c35-8397-02989f5fbd14", "name": "清河连庄分理处", "city": "邢台市", "longitude": 115.759758, "score": "0.987329", "oldname": "中国银行天津汉沽支行营业部", "address": "河北省清河县连庄镇", "latitude": 37.1168747, "guid": "21f67a46-b3ee-11e7-8fce-6c92bf041d56"}
{"province": "河南", "distance": 120.84857489918716, "sametype": "same", "thirdId": "a16cac6b-a6e0-43ee-ae8d-029d5fd785f1", "name": "南乐县韩张支行", "city": "濮阳市", "longitude": 115.339607, "score": "0.990266", "oldname": "中国银行天津河东支行营业部", "address": "濮阳市南乐县韩张镇韩张", "latitude": 36.0715, "guid": "21f52bdc-b3ee-11e7-9a91-6c92bf041d56"}
{"province": "湖北省", "distance": 115.65046536009207, "sametype": "same", "thirdId": "9aef116b-2427-416b-b4b2-029e434a1cdc", "name": "三峡龙泉支行", "city": "宜昌市", "longitude": 111.494125, "score": "0.994946", "oldname": "中国银行天津和平支行营业部", "address": "龙泉镇龙镇村", "latitude": 30.7260513, "guid": "21f625e6-b3ee-11e7-96f0-6c92bf041d56"}
{"province": "天津市", "distance": 123.57942100562522, "sametype": "same", "thirdId": "3930b9bd-e202-4a12-98fc-02a153b6caa2", "name": "天津金丰支行", "city": "天津市", "longitude": 117.2099, "score": "0.996248", "oldname": "中国银行天津东丽开发区支行", "address": "中山路宇阳公寓底商", "latitude": 39.1626434, "guid": "21f7c414-b3ee-11e7-bd27-6c92bf041d56"}
{"province": "广西壮族自治区", "distance": 111.22602955557937, "sametype": "same", "thirdId": "9e7fe892-e85c-403b-929f-02a4f1d6ace2", "name": "城郊支行营业室", "city": "北海市", "longitude": 109.131737, "score": "0.992749", "oldname": "中国银行天津北城街支行", "address": "深圳路41号", "latitude": 21.4824028, "guid": "21fa080a-b3ee-11e7-9803-6c92bf041d56"}
{"province": "陕西省", "distance": 115.02647535606748, "sametype": "same", "thirdId": "39f977e7-aeb6-4521-834b-02a7fb48654c", "name": "商洛大荆分理处", "city": "商洛市", "longitude": 109.869, "score": "0.977249", "oldname": "中国银行张家港金港支行", "address": "大荆镇街道", "latitude": 34.0572, "guid": "21fcbd16-b3ee-11e7-9b4f-6c92bf041d56"}
{"province": "新疆维吾尔自治区", "distance": 98.05427279949254, "sametype": "same", "thirdId": "60203513-247b-4637-80d5-02aaa96bc33d", "name": "乌鲁木齐古牧地支行", "city": "乌鲁木齐市", "longitude": 87.64623, "score": "0.914760", "oldname": "中国银行昆明市呈贡支行营业部", "address": "古牧地中路164号", "latitude": 43.96338, "guid": "21ddb56a-b3ee-11e7-bad2-6c92bf041d56"}
{"province": "浙江省", "distance": 123.99828969647065, "sametype": "same", "thirdId": "e7cfd8c5-8f74-4574-8e7a-02acd6c593c5", "name": "湖州红丰支行", "city": "湖州市", "longitude": 120.09668, "score": "0.995723", "oldname": "中国银行吴江芦墟支行", "address": "龙溪南路243-251号", "latitude": 30.860384, "guid": "21fefa68-b3ee-11e7-99c0-6c92bf041d56"}
{"province": "安徽", "distance": 121.50706237510028, "sametype": "same", "thirdId": "b504d328-f5fc-4525-88e4-02ad6b5a2613", "name": "庐江龙桥支行", "city": "合肥市", "longitude": 117.448914, "score": "0.991623", "oldname": "中国银行吴江分行营业部", "address": "庐江县龙桥镇缺口街道裴桂路东侧", "latitude": 31.1403084, "guid": "21ffb192-b3ee-11e7-bdaa-6c92bf041d56"}
{"province": "广西壮族自治区", "distance": 112.88510908566109, "sametype": "same", "thirdId": "d12750b7-3752-4e4e-b0ad-02b2b445d054", "name": "永福苏桥支行", "city": "桂林市", "longitude": 110.0588, "score": "0.997966", "oldname": "中国银行太仓分行营业部", "address": "苏桥镇荣镇路", "latitude": 25.10196, "guid": "22014dae-b3ee-11e7-9824-6c92bf041d56"}
{"province": "河北省", "distance": 120.94293293289458, "sametype": "same", "thirdId": "faec432d-510d-4ccc-9bbc-02b52171762a", "name": "新乐长寿分理处", "city": "石家庄市", "longitude": 114.702751, "score": "0.999431", "oldname": "中国银行苏州吴中经济技术开发区支行", "address": "新开东路49号", "latitude": 38.3467331, "guid": "22038ea2-b3ee-11e7-88b5-6c92bf041d56"}
{"province": "辽宁省", "distance": 128.80845232279557, "sametype": "same", "thirdId": "0333847e-1f50-43ab-9a22-02b5b0dfc383", "name": "辽河支行营业室", "city": "盘锦市", "longitude": 122.0677, "score": "0.978757", "oldname": "中国银行眉山东坡大道支行", "address": "石油大街152号", "latitude": 41.1229134, "guid": "222109e6-b3ee-11e7-ac20-6c92bf041d56"}
{"province": "内蒙古自治区", "distance": 118.9161845538754, "sametype": "same", "thirdId": "8d88fc15-aa71-4210-b817-02b5e69d2268", "name": "呼和浩特奈伦支行", "city": "呼和浩特市", "longitude": 111.689445, "score": "0.985111", "oldname": "中国银行天津士英路支行", "address": "新城南街", "latitude": 40.8231163, "guid": "21ee4b1e-b3ee-11e7-9fb5-6c92bf041d56"}
{"province": "吉林", "distance": 131.66388432981256, "sametype": "same", "thirdId": "9a4f22d1-2d05-4ad5-a120-02b814e26cb1", "name": "四平北一支行", "city": "四平市", "longitude": 124.385155, "score": "0.887374", "oldname": "中国银行周家渡支行", "address": "吉林省四平市铁东区北一经街98号", "latitude": 43.1707268, "guid": "2239d14c-b3ee-11e7-9084-6c92bf041d56"}
{"province": "山东省", "distance": 123.52828859663805, "sametype": "same", "thirdId": "313fbc89-0d03-420f-bbc3-02b83963b859", "name": "淄博淄城分理处", "city": "淄博市", "longitude": 117.966339, "score": "0.994655", "oldname": "中国银行常熟东南开发区支行", "address": "华洋街南首", "latitude": 36.6494331, "guid": "220cf4f6-b3ee-11e7-835a-6c92bf041d56"}
{"province": "江苏省", "distance": 124.38479622019727, "sametype": "same", "thirdId": "9f8a95cc-1688-4e1f-a930-02badb16873d", "name": "泰兴河失支行", "city": "泰州市", "longitude": 120.1435, "score": "0.998042", "oldname": "中国银行资阳分行营业部", "address": "河失镇河头庄五二队", "latitude": 32.2043, "guid": "220eaec2-b3ee-11e7-a094-6c92bf041d56"}
{"province": "北京市", "distance": 123.14978878686142, "sametype": "same", "thirdId": "9b89ba89-db26-43db-ac93-02bb71441484", "name": "北京来广营支行", "city": "北京市", "longitude": 116.46537, "score": "0.966024", "oldname": "中国银行眉山东坡大道支行", "address": "小营路25号楼1层101室 ", "latitude": 40.0210953, "guid": "222109e6-b3ee-11e7-ac20-6c92bf041d56"}
{"province": "甘肃省", "distance": 106.21508677273724, "sametype": "same", "thirdId": "378eeacd-cd47-46f6-873d-02bc1703c9b9", "name": "酒泉雄关路分理处", "city": "酒泉市", "longitude": 98.49776, "score": "0.951512", "oldname": "中国银行苏州园区行政中心支行", "address": "雄关路7号", "latitude": 39.74715, "guid": "22019f8e-b3ee-11e7-a9ea-6c92bf041d56"}
{"province": "重庆市", "distance": 110.18680439060705, "sametype": "same", "thirdId": "4da1abd0-d945-4a12-85b4-02c2b4e606c7", "name": "铜梁安居支行", "city": "重庆市", "longitude": 106.027351, "score": "0.987647", "oldname": "中国银行双流工业新城支行", "address": "西街1号", "latitude": 29.9888763, "guid": "221646aa-b3ee-11e7-8dba-6c92bf041d56"}
{"province": "湖北省", "distance": 118.04537271625057, "sametype": "same", "thirdId": "398cdad3-5f57-4a0b-88a9-02c345170a7a", "name": "孝感环城支行", "city": "孝感市", "longitude": 113.921478, "score": "0.996538", "oldname": "中国银行双流分行营业部", "address": "城站路97号", "latitude": 30.9290619, "guid": "22169a1a-b3ee-11e7-9d40-6c92bf041d56"}
{"province": "山东省", "distance": 123.64972564503698, "sametype": "same", "thirdId": "797774d9-11f1-4b7e-bff3-02c5d0c4b9c8", "name": "淄博人民路分理处", "city": "淄博市", "longitude": 118.042091, "score": "0.994985", "oldname": "中国银行郫县犀浦支行", "address": "人民路与步行街交叉路口", "latitude": 36.8146629, "guid": "2219d342-b3ee-11e7-b39b-6c92bf041d56"}
{"province": "广东省", "distance": 112.41159155672227, "sametype": "same", "thirdId": "122bb078-5fb6-4846-aff9-02c7ec405080", "name": "湛江解放西支行", "city": "湛江市", "longitude": 110.3958, "score": "0.997074", "oldname": "中国银行攀枝花分行营业部", "address": "华欣路3号", "latitude": 21.1927643, "guid": "221c275a-b3ee-11e7-9023-6c92bf041d56"}
{"province": "山西", "distance": 118.87662156939965, "sametype": "same", "thirdId": "de37721b-bed8-47fe-be53-02c8d02ccddb", "name": "晋中大学城支行营业室", "city": "晋中市", "longitude": 112.727684, "score": "0.998358", "oldname": "中国银行绵阳永兴支行", "address": "晋中市榆次区定阳路万科朗润园商业广场1号4-7框", "latitude": 37.73752, "guid": "221f705e-b3ee-11e7-8e53-6c92bf041d56"}
{"province": "甘肃省", "distance": 111.47119519236078, "sametype": "same", "thirdId": "8621e951-315c-4da9-8ef3-02c9cbc6e7f5", "name": "天水社棠支行", "city": "天水市", "longitude": 105.979073, "score": "0.992045", "oldname": "中国银行台州市椒江支行营业部", "address": "社棠镇", "latitude": 34.5581169, "guid": "21b5a43a-b3ee-11e7-873d-6c92bf041d56"}
{"province": "黑龙江省", "distance": 134.7017382580425, "sametype": "same", "thirdId": "45483573-0ab6-44b9-80c9-02ca92b0a655", "name": "哈尔滨红旗大街支行", "city": "哈尔滨市", "longitude": 126.695267, "score": "0.998789", "oldname": "中国银行眉山分行营业部", "address": "闽江路202号", "latitude": 45.74787, "guid": "2220b8e2-b3ee-11e7-b1f1-6c92bf041d56"}
{"province": "湖北省", "distance": 116.55330965565112, "sametype": "same", "thirdId": "1db57d90-0854-48ad-8b42-02ce428b6c42", "name": "襄阳石桥支行", "city": "襄樊市", "longitude": 111.974136, "score": "0.931646", "oldname": "中国银行宜宾翠屏支行", "address": "石桥镇银河大道", "latitude": 32.34914, "guid": "22100006-b3ee-11e7-8262-6c92bf041d56"}
{"province": "湖北省", "distance": 115.82365334514066, "sametype": "same", "thirdId": "25108aaa-e12d-42b6-ac24-02d01cc9a026", "name": "枝江民主大道分理处", "city": "宜昌市", "longitude": 111.75634, "score": "0.988709", "oldname": "中国银行乐山分行营业部", "address": "民主大道34号", "latitude": 30.4243183, "guid": "22230eb2-b3ee-11e7-bddc-6c92bf041d56"}
{"province": "湖南省", "distance": 114.97208550662005, "sametype": "same", "thirdId": "d5aad49e-cdae-4292-81db-02d24d101b29", "name": "祁阳黎家坪支行", "city": "永州市", "longitude": 111.830093, "score": "0.976900", "oldname": "中国银行达州张家湾支行", "address": "黎家坪镇东正街", "latitude": 26.69477, "guid": "2229d8dc-b3ee-11e7-9172-6c92bf041d56"}
{"province": "湖南省", "distance": 115.44510058937338, "sametype": "same", "thirdId": "11d34e2a-c0da-4203-a594-02d334279eec", "name": "澧县王家厂分理处", "city": "常德市", "longitude": 111.543167, "score": "0.998900", "oldname": "中国银行广元北街支行", "address": "王家厂镇", "latitude": 29.7605972, "guid": "2226a068-b3ee-11e7-ac48-6c92bf041d56"}
{"province": "河北省", "distance": 125.49781683651186, "sametype": "same", "thirdId": "f92a435f-2f1e-48d4-bfc8-02d41e0c36ad", "name": "乐亭姜各庄分理处", "city": "唐山市", "longitude": 119.136909, "score": "0.987396", "oldname": "中国银行广安金安大道支行", "address": "姜各庄镇", "latitude": 39.44742, "guid": "22279eaa-b3ee-11e7-9c48-6c92bf041d56"}
{"province": "云南省", "distance": 101.66832827303742, "sametype": "same", "thirdId": "83b45683-beb1-43ae-9b92-02d4b312bb1b", "name": "腾冲滇滩支行", "city": "保山市", "longitude": 98.4131, "score": "0.972009", "oldname": "中国银行都江堰中山北路支行", "address": "滇滩镇滇滩街", "latitude": 25.52079, "guid": "22285cb4-b3ee-11e7-8801-6c92bf041d56"}
{"province": "内蒙古自治区", "distance": 120.32969097676893, "sametype": "same", "thirdId": "c2cacd70-cb78-48b8-b79b-02d97750c02f", "name": "乌兰察布民建路分理处", "city": "乌兰察布市", "longitude": 113.117249, "score": "0.993069", "oldname": "中国银行大邑支行营业部", "address": "民建路96号", "latitude": 41.0331879, "guid": "22297824-b3ee-11e7-9ba7-6c92bf041d56"}
{"province": "江西省", "distance": 117.63942557634843, "sametype": "same", "thirdId": "c92e3bf1-2556-4847-a0a4-02da6e13db1c", "name": "万安潞田分理处", "city": "吉安市", "longitude": 114.608093, "score": "0.923435", "oldname": "中国银行重庆金开支行", "address": "潞田镇", "latitude": 26.5333652, "guid": "21a0207e-b3ee-11e7-9346-6c92bf041d56"}
{"province": "吉林省", "distance": 132.74306148002364, "sametype": "same", "thirdId": "3c72d526-773a-438c-9968-02dc3ce31979", "name": "松原宁江支行营业室", "city": "松原市", "longitude": 124.820717, "score": "0.969311", "oldname": "中国银行云南省分行营业部", "address": "长宁南街2099号", "latitude": 45.1719933, "guid": "21d1d434-b3ee-11e7-8aa5-6c92bf041d56"}
{"province": "山东省", "distance": 125.16277078772191, "sametype": "same", "thirdId": "d774d5ed-9258-4d81-921e-02dcb1531177", "name": "高密供销大厦分理处", "city": "潍坊市", "longitude": 119.758308, "score": "0.984585", "oldname": "中国银行成都棕南支行", "address": "供销大厦北侧", "latitude": 36.3822327, "guid": "222b4d48-b3ee-11e7-8bed-6c92bf041d56"}
{"province": "山东省", "distance": 124.67508847359639, "sametype": "same", "thirdId": "c40ee08d-d1da-43fb-82f4-02ddb77a285f", "name": "潍坊坊子支行营业室", "city": "潍坊市", "longitude": 119.166092, "score": "0.889936", "oldname": "中国银行乌鲁木齐市南湖路支行", "address": "凤凰街办凤凰大街70号", "latitude": 36.6513329, "guid": "21e36230-b3ee-11e7-b958-6c92bf041d56"}
{"province": "山西省", "distance": 118.74839003771443, "sametype": "same", "thirdId": "64ae99ce-3120-4860-b599-02de7f5589a7", "name": "学府支行营业室", "city": "太原市", "longitude": 112.56517, "score": "0.875034", "oldname": "中国银行徐汇支行营业部", "address": "学府街106号", "latitude": 37.8188133, "guid": "223b2510-b3ee-11e7-bf3f-6c92bf041d56"}
{"province": "贵州", "distance": 110.20261063999602, "sametype": "same", "thirdId": "5250b85e-0f7c-4032-a3b8-02e0cae61016", "name": "龙里金龙分理处", "city": "黔南布依族苗族自治州", "longitude": 106.980118, "score": "0.914630", "oldname": "中国银行金山支行营业部", "address": "贵州省黔南州龙里县龙城国际广场1-2号", "latitude": 26.4550514, "guid": "223e40e2-b3ee-11e7-96ef-6c92bf041d56"}
{"province": "江西省", "distance": 119.72515641835666, "sametype": "same", "thirdId": "bd1082d0-6d65-4d3c-bc97-02e15a0c41c0", "name": "九江龙开河支行", "city": "九江市", "longitude": 115.979454, "score": "0.997734", "oldname": "中国银行成都长城园支行", "address": "九龙街", "latitude": 29.7132854, "guid": "222bac98-b3ee-11e7-87c7-6c92bf041d56"}
{"province": "山东省", "distance": 122.57357117012089, "sametype": "same", "thirdId": "4f8082d1-8f2e-40fc-9d92-02e745223689", "name": "泗水县支行营业室", "city": "济宁市", "longitude": 117.274612, "score": "0.997961", "oldname": "中国银行成都万科支行", "address": "光明路018号", "latitude": 35.6503258, "guid": "222d210e-b3ee-11e7-b6a8-6c92bf041d56"}
{"province": "内蒙古", "distance": 127.1391405634394, "sametype": "same", "thirdId": "8845eb41-f82d-4032-b6d1-02ec1c62c132", "name": "敖汉旗新洲支行", "city": "赤峰市", "longitude": 119.9, "score": "0.967091", "oldname": "中国银行天津津钢支行营业部", "address": "赤峰市敖汉旗新惠镇", "latitude": 42.2889, "guid": "21f23d96-b3ee-11e7-aa71-6c92bf041d56"}
{"province": "河北省", "distance": 121.00654255851853, "sametype": "same", "thirdId": "5b4a80f0-2cb7-4f9b-84b4-02ec49bdf31a", "name": "阳原昌盛街分理处", "city": "张家口市", "longitude": 114.163704, "score": "0.996996", "oldname": "中国银行成都双顺路支行", "address": "西城镇昌盛西街", "latitude": 40.1152344, "guid": "222f4d80-b3ee-11e7-bd36-6c92bf041d56"}
{"province": "贵州省", "distance": 110.45138292249955, "sametype": "same", "thirdId": "e480fcfa-fc66-472b-b195-02f4e309d64b", "name": "新华支行营业室", "city": "遵义市", "longitude": 106.924927, "score": "0.992385", "oldname": "中国银行成都实业街支行", "address": "凤凰路1号", "latitude": 27.686964, "guid": "2230bbde-b3ee-11e7-bfaf-6c92bf041d56"}
{"province": "河南省", "distance": 119.21818659751621, "sametype": "same", "thirdId": "09c079b0-3ac0-482c-8021-02f76235562e", "name": "新乡汇通支行", "city": "新乡市", "longitude": 113.873566, "score": "0.986704", "oldname": "中国银行成都龙泉驿支行营业部", "address": "文化街61-21号", "latitude": 35.2957077, "guid": "22322186-b3ee-11e7-b6e5-6c92bf041d56"}
{"province": "西藏自治区", "distance": 97.19988685541895, "sametype": "same", "thirdId": "a1e781e3-4beb-4313-a218-02fbc8e36723", "name": "安多县支行营业室", "city": "那曲地区", "longitude": 91.6876, "score": "0.995098", "oldname": "中国银行成都丽都支行", "address": "沈阳南路42号", "latitude": 32.267662, "guid": "2232d824-b3ee-11e7-ad89-6c92bf041d56"}
{"province": "河南省", "distance": 118.88959841262499, "sametype": "same", "thirdId": "61e69c60-f5d1-4b05-88eb-0300112e79f5", "name": "郑州中州大道支行", "city": "郑州市", "longitude": 113.712463, "score": "0.990597", "oldname": "中国银行东阳支行营业部", "address": "中州大道与南三环交叉口东南角", "latitude": 34.7017632, "guid": "21cf5d26-b3ee-11e7-98f4-6c92bf041d56"}
{"province": "河北省", "distance": 122.39658850865399, "sametype": "same", "thirdId": "691700f3-942e-4e35-9f1a-030011e5a93e", "name": "任丘市支行营业室", "city": "沧州市", "longitude": 116.114021, "score": "0.970263", "oldname": "中国银行新津支行营业部", "address": "裕华中路16号", "latitude": 38.7099342, "guid": "2210fd08-b3ee-11e7-8ca0-6c92bf041d56"}
{"province": "云南省", "distance": 107.06631937582993, "sametype": "same", "thirdId": "ec3fe5de-496f-4158-a4f5-03021ccea2ea", "name": "鲁甸县支行营业室", "city": "昭通市", "longitude": 103.556343, "score": "0.973744", "oldname": "中国银行梅川路支行", "address": "文屏镇世纪大道", "latitude": 27.1897144, "guid": "223cebde-b3ee-11e7-9db6-6c92bf041d56"}
{"province": "湖北省", "distance": 119.5886338887187, "sametype": "same", "thirdId": "110a1f21-eff0-47ba-8818-0308cba516a7", "name": "黄梅蔡山支行", "city": "黄冈市", "longitude": 115.7956, "score": "0.990262", "oldname": "中国银行昆明市民族村支行", "address": "蔡山镇胡世柏街4号", "latitude": 29.8801, "guid": "21d763b8-b3ee-11e7-92f4-6c92bf041d56"}
{"province": "河北省", "distance": 120.69874852214501, "sametype": "same", "thirdId": "f0b0a83f-ce22-4940-a999-030c0919b7fd", "name": "曲周县支行营业室", "city": "邯郸市", "longitude": 114.960152, "score": "0.983226", "oldname": "中国银行重庆璧山支行营业部", "address": "振兴路中段路南", "latitude": 36.77433, "guid": "21a5f878-b3ee-11e7-a587-6c92bf041d56"}
{"province": "江苏省", "distance": 125.00546578017939, "sametype": "same", "thirdId": "c658cc71-6251-4525-b555-031196e67ee4", "name": "常熟任阳支行", "city": "苏州市", "longitude": 120.961662, "score": "0.979986", "oldname": "中国银行苏州科技城支行", "address": "任阳镇", "latitude": 31.5379581, "guid": "22057d84-b3ee-11e7-9910-6c92bf041d56"}
{"province": "四川", "distance": 107.36016142090476, "sametype": "same", "thirdId": "8bb4c66d-40a4-4ba7-9827-0316912e3da1", "name": "雷波锦城支行", "city": "凉山彝族自治州", "longitude": 103.573265, "score": "0.984338", "oldname": "中国银行成都金牛万达广场支行", "address": "四川省雷波县锦城镇老街保健站一楼", "latitude": 28.26275, "guid": "2234ddc2-b3ee-11e7-ab6f-6c92bf041d56"}
{"province": "江苏省", "distance": 124.7445430982048, "sametype": "same", "thirdId": "3c005294-4ff2-4470-a3eb-0318e95c988d", "name": "张家港西张支行", "city": "苏州市", "longitude": 120.625587, "score": "0.968471", "oldname": "中国银行温岭泽国支行", "address": "凤凰镇西张办事处双龙路18号", "latitude": 31.7910175, "guid": "21b359b4-b3ee-11e7-964d-6c92bf041d56"}
{"province": "辽宁省", "distance": 129.3489307696698, "sametype": "same", "thirdId": "a2f8f83a-38fc-4dca-b13e-031cd55a5d63", "name": "海城惠海支行", "city": "鞍山市", "longitude": 122.722656, "score": "0.991189", "oldname": "中国银行成都双顺路支行", "address": "兴海大街102-s3", "latitude": 40.86925, "guid": "222f4d80-b3ee-11e7-bd36-6c92bf041d56"}
{"province": "山东省", "distance": 122.30435898068478, "sametype": "same", "thirdId": "9235960b-16cd-4ce6-8ee0-0320628a162a", "name": "枣庄汇丰支行", "city": "枣庄市", "longitude": 117.168953, "score": "0.989080", "oldname": "中国银行重庆金开支行", "address": "善国南路", "latitude": 35.0684, "guid": "21a0207e-b3ee-11e7-9346-6c92bf041d56"}
{"province": "山东省", "distance": 123.89015877403966, "sametype": "same", "thirdId": "200d3633-b8e0-4f33-9fa8-03287e8496d9", "name": "沂水龙家圈分理处", "city": "临沂市", "longitude": 118.608566, "score": "0.996352", "oldname": "中国银行重庆火车北站支行", "address": "龙家圈乡驻地", "latitude": 35.78798, "guid": "21a20dbc-b3ee-11e7-927d-6c92bf041d56"}
{"province": "山东省", "distance": 124.88188599500552, "sametype": "same", "thirdId": "a1ee6015-1895-448c-aa4c-0329372e49a3", "name": "潍坊眉村分理处", "city": "潍坊市", "longitude": 119.359245, "score": "0.988392", "oldname": "中国银行富阳支行营业部", "address": "九龙街办眉南路北段", "latitude": 36.7267761, "guid": "21cf0826-b3ee-11e7-aaa2-6c92bf041d56"}
{"province": "江苏", "distance": 124.50460905706417, "sametype": "same", "thirdId": "e7424bf7-b405-40c3-8d17-032b66eb881c", "name": "兴化荻垛支行", "city": "泰州市", "longitude": 120.091011, "score": "0.992280", "oldname": "中国银行达州张家湾支行", "address": "江苏省兴化市荻垛镇幸福路中段", "latitude": 32.8564568, "guid": "2229d8dc-b3ee-11e7-9172-6c92bf041d56"}
{"province": "青海省", "distance": 108.0234431818221, "sametype": "same", "thirdId": "8ff6e527-f2b8-441d-9413-032e893ead13", "name": "同仁县支行营业室", "city": "黄南藏族自治州", "longitude": 102.01844, "score": "0.913290", "oldname": "中国银行重庆金通支行", "address": "隆务镇中山路1号", "latitude": 35.5148163, "guid": "219fcc28-b3ee-11e7-8364-6c92bf041d56"}
{"province": "湖北省", "distance": 116.27884475115403, "sametype": "same", "thirdId": "4f3c415a-f39c-4d79-8cbc-03328c22601e", "name": "老河口城区支行", "city": "襄樊市", "longitude": 111.677391, "score": "0.938324", "oldname": "中国银行昆明市金碧支行", "address": "中山路", "latitude": 32.38719, "guid": "21d96e74-b3ee-11e7-9625-6c92bf041d56"}
{"province": "河南省", "distance": 118.17175743644552, "sametype": "same", "thirdId": "4cf0aaac-21f0-4d1f-9fd3-0333842b9dad", "name": "登封市支行营业室", "city": "郑州市", "longitude": 113.036133, "score": "0.978534", "oldname": "中国银行温州市南城支行营业部", "address": "中岳大街73号", "latitude": 34.4586258, "guid": "21af955e-b3ee-11e7-baa6-6c92bf041d56"}
{"province": "江西省", "distance": 120.0558851611733, "sametype": "same", "thirdId": "d192ed61-7b86-4ab5-a8a4-033655968db6", "name": "黎川县支行营业室", "city": "抚州市", "longitude": 116.912918, "score": "0.995979", "oldname": "中国银行温州市分行营业部", "address": "日峰路116号", "latitude": 27.2907524, "guid": "21b0ab2e-b3ee-11e7-9f2e-6c92bf041d56"}
{"province": "湖北省", "distance": 116.12983840064933, "sametype": "same", "thirdId": "5598ec0e-65a3-4e9e-b730-0337dfca2500", "name": "公安闸口支行", "city": "荆州市", "longitude": 112.210037, "score": "0.963700", "oldname": "中国银行乐山柏杨西路支行", "address": "闸口镇前进路98号", "latitude": 29.9173355, "guid": "22236010-b3ee-11e7-9690-6c92bf041d56"}
{"province": "江苏省", "distance": 124.1965234786692, "sametype": "same", "thirdId": "8ebc4275-a8f5-4d11-8533-033a81b3a652", "name": "无锡胡埭支行", "city": "无锡市", "longitude": 120.123253, "score": "0.987827", "oldname": "中国银行天津天山路支行", "address": "胡埭镇振胡路21号", "latitude": 31.5464821, "guid": "21ed9d72-b3ee-11e7-b077-6c92bf041d56"}
{"province": "广东省", "distance": 115.63048255600151, "sametype": "same", "thirdId": "6b3ea9d0-7654-41c1-8573-033b7c1512b5", "name": "广州庙前直街支行", "city": "广州市", "longitude": 113.295158, "score": "0.895284", "oldname": "中国银行成都双林路支行", "address": "庙前直街45-47号", "latitude": 23.1217575, "guid": "222fab90-b3ee-11e7-b12b-6c92bf041d56"}
{"province": "山东省", "distance": 126.9582556497337, "sametype": "same", "thirdId": "628c943a-b920-42ec-ab14-033d43a5ddb1", "name": "烟台经济技术开发区支行营业室", "city": "烟台市", "longitude": 121.274567, "score": "0.997239", "oldname": "中国银行瑞安市支行营业部", "address": "泰山路98号", "latitude": 37.561657, "guid": "21bacff0-b3ee-11e7-9d1e-6c92bf041d56"}
{"province": "安徽省", "distance": 119.97179596292509, "sametype": "same", "thirdId": "5011da24-8bdf-4f41-94b5-033f77297d0d", "name": "宿松县支行营业室", "city": "安庆市", "longitude": 116.119621, "score": "0.993264", "oldname": "中国银行青田县支行营业部", "address": "人民路164号", "latitude": 30.1573448, "guid": "21bcbc3e-b3ee-11e7-8e32-6c92bf041d56"}
{"province": "吉林", "distance": 132.05986747263532, "sametype": "same", "thirdId": "be6ceba8-b50a-4975-b541-033f9d32fb4b", "name": "公主岭秦家屯支行", "city": "四平市", "longitude": 124.5883, "score": "0.993819", "oldname": "中国银行衢州衢化北苑支行", "address": "吉林省公主岭市秦家屯镇", "latitude": 43.79, "guid": "21bc18e2-b3ee-11e7-8bef-6c92bf041d56"}
{"province": "广东省", "distance": 115.49656842601632, "sametype": "same", "thirdId": "47bda920-65c9-49ab-a464-033fe65c402a", "name": "南海联安支行", "city": "佛山市", "longitude": 113.162613, "score": "0.983263", "oldname": "中国银行简阳东升路支行", "address": "盐步联安综合楼首层1-8号铺", "latitude": 23.1015224, "guid": "2224ad44-b3ee-11e7-bc85-6c92bf041d56"}
{"province": "湖北", "distance": 117.44332532046869, "sametype": "same", "thirdId": "a9d81f83-e422-4e81-9f2a-0342a1d6a7f2", "name": "仙桃爱民路支行", "city": "仙桃市", "longitude": 113.448021, "score": "0.981098", "oldname": "中国银行天津西康路支行", "address": "湖北省仙桃市复州大道", "latitude": 30.3723755, "guid": "21ebd0a0-b3ee-11e7-a34f-6c92bf041d56"}
{"province": "江西省", "distance": 119.36044778086601, "sametype": "same", "thirdId": "16bd36fb-87fc-43cd-b0e6-0346c139ab31", "name": "南昌经开支行", "city": "南昌市", "longitude": 115.849594, "score": "0.984987", "oldname": "中国银行内江东兴支行", "address": "昌北经济技术开发区枫庐新天地B3栋102-104", "latitude": 28.7365284, "guid": "221d3366-b3ee-11e7-a260-6c92bf041d56"}
{"province": "福建省", "distance": 120.77683282897199, "sametype": "same", "thirdId": "bd6729d2-1c89-4693-b0de-0348d38c6c35", "name": "安溪金谷支行", "city": "泉州市", "longitude": 118.125084, "score": "0.999257", "oldname": "中国银行丽水莲都支行", "address": "金谷镇金谷街", "latitude": 25.1695824, "guid": "21c0e99e-b3ee-11e7-b01c-6c92bf041d56"}
{"province": "甘肃", "distance": 109.90969185054283, "sametype": "same", "thirdId": "a703c4f8-bbc3-426a-b678-034c9a16a839", "name": "甘肃省分行营业部营业室", "city": "兰州市", "longitude": 103.826591, "score": "0.993180", "oldname": "中国银行兰溪支行营业部", "address": "甘肃省兰州市城关区酒泉路408号", "latitude": 36.058, "guid": "21c1dfc0-b3ee-11e7-8295-6c92bf041d56"}
{"province": "安徽省", "distance": 119.94307238835762, "sametype": "same", "thirdId": "716a158b-06ef-4578-b1f6-034d23b13828", "name": "宿松二郎分理处", "city": "安庆市", "longitude": 116.058762, "score": "0.977557", "oldname": "中国银行天津南丰路支行", "address": "二郎镇", "latitude": 30.2771263, "guid": "21f04680-b3ee-11e7-b867-6c92bf041d56"}
{"province": "内蒙古自治区", "distance": 124.13640167913802, "sametype": "same", "thirdId": "bdda8a28-b29e-4d27-8f38-035101e3d6b7", "name": "锡林浩特阿拉坦分理处", "city": "锡林郭勒盟", "longitude": 116.099548, "score": "0.980680", "oldname": "中国银行杭州余杭宝塔支行", "address": "华油大街7号", "latitude": 43.9402, "guid": "21c76512-b3ee-11e7-9773-6c92bf041d56"}
{"province": "江苏省", "distance": 121.9793694129173, "sametype": "same", "thirdId": "5234a357-60fe-4c03-8a86-0351e4f45048", "name": "沛县张寨支行", "city": "徐州市", "longitude": 116.962212, "score": "0.983653", "oldname": "中国银行杭州双菱支行", "address": "张寨市场北侧", "latitude": 34.6238, "guid": "21c95016-b3ee-11e7-8c85-6c92bf041d56"}
{"province": "黑龙江省", "distance": 139.9981930211756, "sametype": "same", "thirdId": "b79862bf-c9a1-41bc-80a0-0357af3565e5", "name": "宝泉岭绥滨分理处", "city": "鹤岗市", "longitude": 131.685471, "score": "0.928023", "oldname": "中国银行射洪支行营业部", "address": "绥滨农场和平路北侧", "latitude": 47.52295, "guid": "2218360e-b3ee-11e7-9a63-6c92bf041d56"}
{"province": "新疆维吾尔自治区", "distance": 85.44073260060274, "sametype": "same", "thirdId": "9460e8dd-00d4-4dc7-a013-035e8b06dec9", "name": "阿克陶县支行营业室", "city": "克孜勒苏柯尔克孜自治州", "longitude": 75.94619, "score": "0.974469", "oldname": "中国银行都江堰中山北路支行", "address": "南大街9号", "latitude": 39.14454, "guid": "22285cb4-b3ee-11e7-8801-6c92bf041d56"}
{"province": "重庆市", "distance": 109.97307829567748, "sametype": "same", "thirdId": "09fa93dd-c828-400f-a075-0361b4e22ac7", "name": "潼南塘坝支行", "city": "重庆市", "longitude": 105.7975, "score": "0.992076", "oldname": "中国银行安吉县支行营业部", "address": "塘坝镇人民街171号", "latitude": 30.0161114, "guid": "21d116d4-b3ee-11e7-b17f-6c92bf041d56"}
{"province": "四川省", "distance": 111.56701242135553, "sametype": "same", "thirdId": "1944c1db-6ad2-4dab-880e-03680c55fc8d", "name": "大竹乌木分理处", "city": "达州市", "longitude": 107.247864, "score": "0.991991", "oldname": "中国银行普洱市分行营业部", "address": "东柳镇柳柏路2-8号", "latitude": 30.74238, "guid": "21d37b9a-b3ee-11e7-8a78-6c92bf041d56"}
{"province": "湖南省", "distance": 113.14701819066276, "sametype": "same", "thirdId": "363244ef-2759-4000-a94a-0368619ee71c", "name": "洪江支行营业室", "city": "怀化市", "longitude": 109.8297, "score": "0.990551", "oldname": "中国银行昆明市金碧支行", "address": "黔城镇开元大道", "latitude": 27.1971455, "guid": "21d96e74-b3ee-11e7-9625-6c92bf041d56"}
{"province": "内蒙古自治区", "distance": 121.45157744730759, "sametype": "same", "thirdId": "517a2a42-a395-42a9-932e-03704bfe1b6a", "name": "化德长青支行", "city": "乌兰察布市", "longitude": 113.996536, "score": "0.996912", "oldname": "中国银行昆明市东郊支行", "address": "长顺镇人民街", "latitude": 41.8960075, "guid": "21dbfeaa-b3ee-11e7-97ae-6c92bf041d56"}
{"province": "河南省", "distance": 116.61125081084708, "sametype": "same", "thirdId": "3b4d52d6-52ce-4391-8157-03714755da96", "name": "栾川县支行营业室", "city": "洛阳市", "longitude": 111.609566, "score": "0.977979", "oldname": "中国银行昆明市八一支行", "address": "兴华西路", "latitude": 33.785923, "guid": "21df06fe-b3ee-11e7-bb9c-6c92bf041d56"}
{"province": "湖南省", "distance": 115.7809225657613, "sametype": "same", "thirdId": "5f038a9c-1a61-4200-b309-0373c3fc5659", "name": "衡阳中山路支行", "city": "衡阳市", "longitude": 112.6124, "score": "0.990972", "oldname": "中国银行迪庆州分行", "address": "中山北路58号", "latitude": 26.901104, "guid": "21e0c926-b3ee-11e7-897b-6c92bf041d56"}
{"province": "河北省", "distance": 122.56071788441086, "sametype": "same", "thirdId": "784af0fa-ab7d-41bc-af2b-0373d8d21c2c", "name": "东光东环路分理处", "city": "沧州市", "longitude": 116.559296, "score": "0.982826", "oldname": "中国银行双流白河路支行", "address": "新开发区", "latitude": 37.8821869, "guid": "2216ec36-b3ee-11e7-9d4a-6c92bf041d56"}
{"province": "天津市", "distance": 123.75108304232437, "sametype": "same", "thirdId": "4c93fbaf-254b-4427-ad73-03758fdb8952", "name": "天津大口屯支行", "city": "天津市", "longitude": 117.248581, "score": "0.998527", "oldname": "中国银行吐鲁番地区分行营业部", "address": "大口屯镇", "latitude": 39.5866241, "guid": "21e500ae-b3ee-11e7-bb01-6c92bf041d56"}
{"province": "吉林", "distance": 133.60324359384674, "sametype": "same", "thirdId": "02e2fef5-d901-4c87-8933-03769a705e16", "name": "九台城子街支行", "city": "长春市", "longitude": 126.021729, "score": "0.997192", "oldname": "中国银行石河子市分行营业部", "address": "吉林省九台市城子街镇街道", "latitude": 44.3660965, "guid": "21e5a590-b3ee-11e7-a734-6c92bf041d56"}
{"province": "云南省", "distance": 105.71453287836574, "sametype": "same", "thirdId": "f2b14930-be94-4aa9-97d9-0377d0243635", "name": "金平苗族瑶族傣族自治县支行营业室", "city": "红河哈尼族彝族自治州", "longitude": 103.23011, "score": "0.951146", "oldname": "中国银行成都长城园支行", "address": "金河镇金穗路2号", "latitude": 22.7839165, "guid": "222bac98-b3ee-11e7-87c7-6c92bf041d56"}
{"province": "四川省", "distance": 108.49612091056827, "sametype": "same", "thirdId": "d638d9af-88ba-4a22-86ed-037a3d72be13", "name": "成都蓉城支行营业室", "city": "成都市", "longitude": 104.071068, "score": "0.998445", "oldname": "中国银行北京中路支行", "address": "二环路北二段4号", "latitude": 30.6695461, "guid": "21e9b28e-b3ee-11e7-af92-6c92bf041d56"}
{"province": "云南省", "distance": 107.92559285893026, "sametype": "same", "thirdId": "b9ee8c5a-9540-4353-b032-037a4d7a704f", "name": "盐津普洱支行", "city": "昭通市", "longitude": 104.164757, "score": "0.994263", "oldname": "中国银行北京中路支行", "address": "普洱镇小河中街61号", "latitude": 28.2424679, "guid": "21e9b28e-b3ee-11e7-af92-6c92bf041d56"}
{"province": "吉林省", "distance": 133.83217307067747, "sametype": "same", "thirdId": "d4909435-29d0-4427-a379-037abb898b80", "name": "扶余市支行营业室", "city": "松原市", "longitude": 126.046135, "score": "0.847630", "oldname": "中国银行遂宁南津北路支行", "address": "兴华路1737号", "latitude": 44.9824677, "guid": "22140296-b3ee-11e7-a2f0-6c92bf041d56"}
{"province": "江苏省", "distance": 123.11153086677137, "sametype": "same", "thirdId": "8fa3270c-25a3-4ddf-9106-037b5b5e5f95", "name": "南京洪蓝分理处", "city": "南京市", "longitude": 118.9856, "score": "0.985735", "oldname": "中国银行天津长江道支行", "address": "洪蓝镇洪溪街13号", "latitude": 31.605, "guid": "21ea052c-b3ee-11e7-abcc-6c92bf041d56"}
{"province": "安徽省", "distance": 122.38446953050902, "sametype": "same", "thirdId": "f960cb77-cc4e-439c-995b-037bd2a02fee", "name": "全椒二郎分理处", "city": "滁州市", "longitude": 118.1349, "score": "0.980806", "oldname": "中国银行重庆前进路支行", "address": "二郎口镇", "latitude": 31.9703579, "guid": "219d3936-b3ee-11e7-be2b-6c92bf041d56"}
{"province": "河北省", "distance": 120.2225296527695, "sametype": "same", "thirdId": "1aa4fa5e-69e7-4bbc-894d-03800697a649", "name": "邯郸联纺西路分理处", "city": "邯郸市", "longitude": 114.507271, "score": "0.996488", "oldname": "中国银行天津山海天支行", "address": "联纺东路296号", "latitude": 36.62706, "guid": "21ee9fe2-b3ee-11e7-8a60-6c92bf041d56"}
{"province": "广东", "distance": 116.00730083626904, "sametype": "same", "thirdId": "b3bf2ea9-b9e9-4abe-a584-038e12d9e5bf", "name": "广州从化雅居乐支行", "city": "广州市", "longitude": 113.594078, "score": "0.991662", "oldname": "中国银行天津金钟支行", "address": "从化市江埔街沿江南路121、122、123、124、125号", "latitude": 23.5388889, "guid": "21f290fc-b3ee-11e7-b00d-6c92bf041d56"}
{"province": "广西壮族自治区", "distance": 110.8490604193269, "sametype": "same", "thirdId": "dcbbb337-df4d-402c-8924-039091bd591e", "name": "河池金城支行", "city": "河池市", "longitude": 108.063736, "score": "0.977299", "oldname": "中国银行昆明市华山西路支行", "address": "新建路43号", "latitude": 24.6929779, "guid": "21da8520-b3ee-11e7-9d07-6c92bf041d56"}
{"province": "湖南省", "distance": 113.61199486442251, "sametype": "same", "thirdId": "66ace8cd-dabe-438e-a66c-03912a2e76dd", "name": "古丈支行营业室", "city": "湘西土家族苗族自治州", "longitude": 109.949394, "score": "0.990508", "oldname": "中国银行天津河北路支行", "address": "古阳镇正街一号", "latitude": 28.6149635, "guid": "21f5d140-b3ee-11e7-bff3-6c92bf041d56"}
{"province": "内蒙古自治区", "distance": 120.17591248565195, "sametype": "same", "thirdId": "362777a4-d28d-4423-a488-03a155015555", "name": "丰镇解放路分理处", "city": "乌兰察布市", "longitude": 113.166161, "score": "0.995641", "oldname": "中国银行天津福安支行", "address": "城关镇马桥街解放路", "latitude": 40.4434166, "guid": "21f71ff0-b3ee-11e7-a45e-6c92bf041d56"}
{"province": "四川省", "distance": 111.41406177295434, "sametype": "same", "thirdId": "91513c3c-4974-4c31-9f0e-03a206e5f296", "name": "巴中南泉支行", "city": "巴中市", "longitude": 106.764091, "score": "0.980913", "oldname": "中国银行天津大港支行营业部", "address": "巴州镇南泉街27号", "latitude": 31.8515625, "guid": "21f8bbbc-b3ee-11e7-9d83-6c92bf041d56"}
{"province": "湖南省", "distance": 116.37497228551169, "sametype": "same", "thirdId": "0b3cbe02-d1eb-4a4a-bad8-03a29222454c", "name": "华容中心分理处", "city": "岳阳市", "longitude": 112.567787, "score": "0.998111", "oldname": "中国银行天津宝坻支行营业部", "address": "城关镇北正街", "latitude": 29.5233383, "guid": "21fb021e-b3ee-11e7-9e4b-6c92bf041d56"}
{"province": "西藏自治区", "distance": 103.02918724818689, "sametype": "same", "thirdId": "6c44cc82-724f-46c5-acf2-03a3534d89c3", "name": "芒康老然营业所", "city": "昌都地区", "longitude": 98.60828, "score": "0.958923", "oldname": "中国银行成都成华支行营业部", "address": "老然乡", "latitude": 29.8566666, "guid": "22388620-b3ee-11e7-82f3-6c92bf041d56"}
{"province": "湖南省", "distance": 115.92452200891552, "sametype": "same", "thirdId": "41f33069-b746-4b95-8351-03a5341f3899", "name": "郴州燕泉支行", "city": "郴州市", "longitude": 113.021713, "score": "0.993598", "oldname": "中国银行苏州阳澄湖支行", "address": "国庆南路21号", "latitude": 25.7795887, "guid": "2201f312-b3ee-11e7-946a-6c92bf041d56"}
{"province": "安徽省", "distance": 121.32829537728952, "sametype": "same", "thirdId": "eb5df10d-9dce-4f15-ae6f-03aaac955195", "name": "濉溪临涣支行", "city": "淮北市", "longitude": 116.557167, "score": "0.997640", "oldname": "中国银行苏州平江支行", "address": "临涣镇", "latitude": 33.6894951, "guid": "220432bc-b3ee-11e7-a0fd-6c92bf041d56"}
{"province": "黑龙江省", "distance": 135.99930192335762, "sametype": "same", "thirdId": "7deb07b0-dc0d-45f1-a51b-03ad0d2a1aa0", "name": "宾县胜利分理处", "city": "哈尔滨市", "longitude": 128.056717, "score": "0.976703", "oldname": "中国银行福州路支行", "address": "胜利镇中心街", "latitude": 45.79615, "guid": "2240079c-b3ee-11e7-990b-6c92bf041d56"}
{"province": "浙江省", "distance": 122.66237815563463, "sametype": "same", "thirdId": "ebbeb96e-39df-4b5a-818e-03ad640491d2", "name": "龙游县支行营业室", "city": "衢州市", "longitude": 119.178604, "score": "0.997453", "oldname": "中国银行苏州工业园区支行营业部", "address": "龙洲街道太平东路108号", "latitude": 29.0261841, "guid": "22071a4a-b3ee-11e7-9e81-6c92bf041d56"}
{"province": "江苏省", "distance": 123.02623674765476, "sametype": "same", "thirdId": "45c85b70-35d3-4f23-a384-03ae8b3f94e8", "name": "南京玉兰路支行", "city": "南京市", "longitude": 118.7973, "score": "0.957144", "oldname": "中国银行衢州市分行营业部", "address": "宁南大道20号01幢115室", "latitude": 31.979, "guid": "21bbc75c-b3ee-11e7-b3d3-6c92bf041d56"}
{"province": "新疆维吾尔自治区", "distance": 98.05704251371355, "sametype": "same", "thirdId": "69beb386-4212-4e44-ac51-03b17b53ed70", "name": "五家渠市兵团支行营业室", "city": "自治区直辖县级行政区划", "longitude": 87.5472946, "score": "0.926637", "oldname": "中国银行金华市金东支行营业部", "address": "天山南路158号", "latitude": 44.1662178, "guid": "21c378ee-b3ee-11e7-85de-6c92bf041d56"}
{"province": "浙江省", "distance": 123.87658851087787, "sametype": "same", "thirdId": "207954e6-4653-426b-9247-03b838dd1f69", "name": "温州中山支行营业室", "city": "温州市", "longitude": 120.666969, "score": "0.995389", "oldname": "中国银行五通桥支行营业部", "address": "飞霞北路175号", "latitude": 28.01592, "guid": "2212b454-b3ee-11e7-aeb3-6c92bf041d56"}
{"province": "辽宁省", "distance": 127.54336424802082, "sametype": "same", "thirdId": "86180b20-b2a0-4301-965f-03b8c71cbfb1", "name": "葫芦岛中兴支行", "city": "葫芦岛市", "longitude": 120.855804, "score": "0.989426", "oldname": "中国银行乌鲁木齐市南湖路支行", "address": "兴工路2-2号", "latitude": 40.75763, "guid": "21e36230-b3ee-11e7-b958-6c92bf041d56"}
{"province": "湖北省", "distance": 115.44086536534189, "sametype": "same", "thirdId": "50357bba-9792-4c87-ba99-03ba5b781bfe", "name": "三峡西陵支行营业室", "city": "宜昌市", "longitude": 111.285088, "score": "0.989301", "oldname": "中国银行遂宁分行营业部", "address": "云集路43号", "latitude": 30.6956444, "guid": "221456a6-b3ee-11e7-8d70-6c92bf041d56"}
{"province": "云南省", "distance": 101.37879153708528, "sametype": "same", "thirdId": "782815d5-7e02-4926-ac4d-03bd2bed8d93", "name": "梁河振兴路分理处", "city": "德宏傣族景颇族自治州", "longitude": 98.29724, "score": "0.993330", "oldname": "中国银行双流蛟龙港支行", "address": "遮岛镇振兴路15号", "latitude": 24.8054829, "guid": "22154f70-b3ee-11e7-a832-6c92bf041d56"}
{"province": "上海市", "distance": 125.32178295950851, "sametype": "same", "thirdId": "fd3b0147-202a-4363-ad84-03c0ad9813b2", "name": "上海北新泾支行", "city": "上海市", "longitude": 121.371521, "score": "0.975511", "oldname": "中国银行苏州黄埭支行", "address": "天山西路205号", "latitude": 31.2170334, "guid": "220623c4-b3ee-11e7-a68b-6c92bf041d56"}
{"province": "辽宁", "distance": 130.22599005385595, "sametype": "same", "thirdId": "2cc1a642-ff18-494c-8c67-03c1601e8e3e", "name": "沈阳兴盛支行", "city": "沈阳市", "longitude": 123.3312, "score": "0.997281", "oldname": "中国银行双流分行营业部", "address": "沈阳市铁西区北四西路15-1号12门、13门、14门、15门", "latitude": 41.8117638, "guid": "22169a1a-b3ee-11e7-9d40-6c92bf041d56"}
{"province": "辽宁省", "distance": 127.80306283566331, "sametype": "same", "thirdId": "a4341660-6d55-475f-b517-03cec1a323be", "name": "北票转盘街支行", "city": "朝阳市", "longitude": 120.771049, "score": "0.996530", "oldname": "中国银行省分行营业部", "address": "南山街三段1-1号", "latitude": 41.80881, "guid": "22179190-b3ee-11e7-925a-6c92bf041d56"}
{"province": "河北省", "distance": 121.33181725997159, "sametype": "same", "thirdId": "f5f4c5f2-a071-488f-9920-03d884541651", "name": "蔚县支行营业室", "city": "张家口市", "longitude": 114.587921, "score": "0.997517", "oldname": "中国银行郫县红光支行", "address": "蔚州镇人民路78号", "latitude": 39.88757, "guid": "221a24c8-b3ee-11e7-bc85-6c92bf041d56"}
{"province": "广西壮族自治区", "distance": 112.49768528106134, "sametype": "same", "thirdId": "b10df6ce-3957-4124-bd1e-03d958b4e789", "name": "陆川中心支行", "city": "玉林市", "longitude": 110.261932, "score": "0.935525", "oldname": "中国银行昆山金浦支行", "address": "温泉镇新洲中路28号", "latitude": 22.31671, "guid": "220a1b78-b3ee-11e7-a856-6c92bf041d56"}
{"province": "四川省", "distance": 111.86706124706953, "sametype": "same", "thirdId": "e557bdf8-4303-4e6e-8140-03db962c2093", "name": "通江新城分理处", "city": "巴中市", "longitude": 107.215782, "score": "0.973942", "oldname": "中国银行南充龙门支行", "address": "诺江镇诺江东路8号", "latitude": 31.9220219, "guid": "221dd852-b3ee-11e7-9a81-6c92bf041d56"}
{"province": "河北省", "distance": 126.08370202406303, "sametype": "same", "thirdId": "0e0e64b2-c4f0-48af-8190-03e236900bad", "name": "秦皇岛世纪星园分理处", "city": "秦皇岛市", "longitude": 119.589767, "score": "0.992115", "oldname": "中国银行南部支行营业部", "address": "建设大街世纪星园小区", "latitude": 39.9423027, "guid": "221e7b86-b3ee-11e7-88ca-6c92bf041d56"}
{"province": "四川省", "distance": 111.1164282114652, "sametype": "same", "thirdId": "164e480c-ae4e-472c-b618-03e2448630c6", "name": "营山骆市分理处", "city": "南充市", "longitude": 106.686127, "score": "0.915979", "oldname": "中国银行宣威支行营业部", "address": "骆市镇正街35号", "latitude": 31.0633373, "guid": "21e010bc-b3ee-11e7-af2e-6c92bf041d56"}
{"province": "上海市", "distance": 125.45325787114807, "sametype": "same", "thirdId": "3f93ef73-53cb-4b2a-9535-03e2dadff18d", "name": "上海曲阳支行", "city": "上海市", "longitude": 121.493874, "score": "0.749325", "oldname": "中国银行乐清市支行营业部", "address": "虹口区曲阳路2号", "latitude": 31.26913, "guid": "21c18e62-b3ee-11e7-ad5f-6c92bf041d56"}
{"province": "陕西省", "distance": 115.03227109762383, "sametype": "same", "thirdId": "a8451fe2-51c1-412d-bdf0-03e30356eed4", "name": "蒲城县朝阳街分理处", "city": "渭南市", "longitude": 109.593163, "score": "0.960543", "oldname": "中国银行吴江盛泽广场支行", "address": "红旗路文庙对面", "latitude": 34.9537125, "guid": "21fea856-b3ee-11e7-8e6b-6c92bf041d56"}
{"province": "新疆维吾尔自治区", "distance": 90.20613354831532, "sametype": "same", "thirdId": "077bd289-bec1-445a-b87e-03e957ac3fb7", "name": "阿克苏依杆旗乡支行", "city": "阿克苏地区", "longitude": 80.27129, "score": "0.981640", "oldname": "中国银行重庆巴南支行营业部", "address": "南大街71号", "latitude": 41.15418, "guid": "21a81e3c-b3ee-11e7-b512-6c92bf041d56"}
{"province": "河南省", "distance": 117.85624866682129, "sametype": "same", "thirdId": "d5e5aa37-da4e-431f-9315-03f05fa6b63c", "name": "济源思礼支行", "city": "省直辖县级行政区划", "longitude": 112.508362, "score": "0.893807", "oldname": "中国银行巴音郭楞蒙古自治州分行营业部", "address": "思礼镇三河水库北", "latitude": 35.0993423, "guid": "21e84f20-b3ee-11e7-aecf-6c92bf041d56"}
{"province": "黑龙江省", "distance": 138.27307406668973, "sametype": "same", "thirdId": "b8cc192b-113a-497c-8e94-03f5be63ade7", "name": "伊春乌伊岭支行营业室", "city": "伊春市", "longitude": 129.451126, "score": "0.998019", "oldname": "中国银行会理支行营业部", "address": "友谊路育林街道16号", "latitude": 48.5988579, "guid": "222555c8-b3ee-11e7-97d9-6c92bf041d56"}
{"province": "河南", "distance": 1.4142135623730951, "sametype": "same", "thirdId": "58c5b35f-2ab2-4800-a53e-03f7eb9126d0", "name": "虞城县站集分理处", "city": "商丘市", "longitude": -1, "score": "0.998303", "oldname": "中国银行都江堰中山北路支行", "address": "虞城县站集镇", "latitude": -1, "guid": "22285cb4-b3ee-11e7-8801-6c92bf041d56"}
{"province": "四川省", "distance": 108.40454072585233, "sametype": "same", "thirdId": "3807fcf7-00ec-4d67-b28e-03fb836cd432", "name": "彭州通济分理处", "city": "成都市", "longitude": 103.829582, "score": "0.885238", "oldname": "中国银行天津新港支行", "address": "通济镇金融街", "latitude": 31.1602688, "guid": "21eb12dc-b3ee-11e7-99ca-6c92bf041d56"}
{"province": "广西壮族自治区", "distance": 110.71664599578428, "sametype": "same", "thirdId": "11f45438-d8c3-41b8-8777-03fd6e844971", "name": "南宁建园支行", "city": "南宁市", "longitude": 108.338737, "score": "0.949453", "oldname": "中国银行成都逸都支行", "address": "建政路12-13号", "latitude": 22.8230972, "guid": "222c0b34-b3ee-11e7-b4dd-6c92bf041d56"}
{"province": "西藏", "distance": 94.46418819828232, "sametype": "same", "thirdId": "ca86ae91-62f5-462a-acf2-03fd7a02cd17", "name": "南木林芒热营业所", "city": "日喀则市", "longitude": 89.67639, "score": "0.987873", "oldname": "中国银行成都沙湾支行", "address": "西藏日喀则地区南木林县芒热乡石木村", "latitude": 29.69222, "guid": "223110fc-b3ee-11e7-992e-6c92bf041d56"}
{"province": "天津市", "distance": 123.69135709603967, "sametype": "same", "thirdId": "c51575a4-9184-4da5-9b0d-03fd9d14e10c", "name": "天津咸水沽支行", "city": "天津市", "longitude": 117.3849, "score": "0.997476", "oldname": "中国银行成都丽都支行", "address": "咸水沽镇育才楼", "latitude": 38.9915, "guid": "2232d824-b3ee-11e7-ad89-6c92bf041d56"}
{"province": "河南省", "distance": 118.69852580231182, "sametype": "same", "thirdId": "71b62f0a-cf62-449c-9b5c-03fdce5ec3b6", "name": "罗山县灵山分理处", "city": "信阳市", "longitude": 114.313072, "score": "0.994041", "oldname": "中国银行成都江汉路支行", "address": "涩港镇街", "latitude": 31.96657, "guid": "2235d90c-b3ee-11e7-8775-6c92bf041d56"}
{"province": "新疆维吾尔自治区", "distance": 98.98097519129261, "sametype": "same", "thirdId": "e48cfb58-cd66-4810-84a8-03feae7836ae", "name": "阜康大黄山支行", "city": "昌吉回族自治州", "longitude": 88.6412048, "score": "0.996669", "oldname": "中国银行巴中东城支行", "address": "大黄山煤矿迎宾路１６７号", "latitude": 44.0450935, "guid": "22392ae4-b3ee-11e7-b5d2-6c92bf041d56"}
{"province": "四川省", "distance": 111.78217489414187, "sametype": "same", "thirdId": "89a36d31-140f-4799-9dcd-04014bddbc16", "name": "达州赵家支行", "city": "达州市", "longitude": 107.408989, "score": "0.967433", "oldname": "中国银行金华市婺城支行营业部", "address": "赵家镇老街171号", "latitude": 30.96068, "guid": "21c2d5ec-b3ee-11e7-b464-6c92bf041d56"}
{"province": "江西省", "distance": 117.06313046031747, "sametype": "same", "thirdId": "0ccf0815-752c-4b46-80db-04026f47087d", "name": "湘东支行营业室", "city": "萍乡市", "longitude": 113.753662, "score": "0.864860", "oldname": "中国银行昆明市丹霞路支行", "address": "泉湖南路97号", "latitude": 27.6383953, "guid": "21dcfb52-b3ee-11e7-96dd-6c92bf041d56"}
{"province": "内蒙古自治区", "distance": 118.88077508565982, "sametype": "same", "thirdId": "95304318-5e6e-4cd1-83f3-0402cb623c68", "name": "新华桥支行营业室", "city": "呼和浩特市", "longitude": 111.653275, "score": "0.994565", "oldname": "中国银行天钥桥路支行", "address": "新华西街7号", "latitude": 40.8189278, "guid": "223bda96-b3ee-11e7-a9cb-6c92bf041d56"}
{"province": "山东省", "distance": 126.0000282592509, "sametype": "same", "thirdId": "0200fe5d-595e-408b-a1c3-0403cb1a9998", "name": "招远道头分理处", "city": "烟台市", "longitude": 120.370323, "score": "0.981385", "oldname": "中国银行金山支行营业部", "address": "齐山镇政府驻地", "latitude": 37.2423477, "guid": "223e40e2-b3ee-11e7-96ef-6c92bf041d56"}
{"province": "天津市", "distance": 123.54866295425698, "sametype": "same", "thirdId": "9aa00562-bb93-4d75-9f01-04045fccef84", "name": "天津信济里支行", "city": "天津市", "longitude": 117.199577, "score": "0.963759", "oldname": "中国银行重庆玉清寺支行", "address": "佟楼宾友道16号", "latitude": 39.0964355, "guid": "2195cf7a-b3ee-11e7-a513-6c92bf041d56"}
{"province": "浙江省", "distance": 124.02191751243842, "sametype": "same", "thirdId": "750fd207-ce70-426e-b826-0405853e23ea", "name": "湖州菰城支行", "city": "湖州市", "longitude": 120.11998, "score": "0.993746", "oldname": "中国银行方舟支行", "address": "外环东路374号", "latitude": 30.8646469, "guid": "2240c42a-b3ee-11e7-ad71-6c92bf041d56"}
{"province": "山东省", "distance": 124.37110460333633, "sametype": "same", "thirdId": "affc0dd8-af23-4bc5-b38a-040ad4cbb75b", "name": "昌乐红河分理处", "city": "潍坊市", "longitude": 118.923737, "score": "0.993697", "oldname": "中国银行方舟支行", "address": "红河镇政府东邻", "latitude": 36.4048958, "guid": "2240c42a-b3ee-11e7-ad71-6c92bf041d56"}
{"province": "安徽省", "distance": 120.61972201732786, "sametype": "same", "thirdId": "677c198b-141b-42e5-ad4e-040e5c3f78f6", "name": "颍上耿棚支行", "city": "阜阳市", "longitude": 116.119507, "score": "0.997171", "oldname": "中国银行大华支行", "address": "耿棚镇", "latitude": 32.64012, "guid": "2241daae-b3ee-11e7-b3c7-6c92bf041d56"}
{"province": "山东省", "distance": 124.28105021853179, "sametype": "same", "thirdId": "03c37bf9-6e3f-4e96-84c9-040f83f321c5", "name": "东营五台山路分理处", "city": "东营市", "longitude": 118.503761, "score": "0.947731", "oldname": "中国银行建德支行营业部", "address": "西三路159-4号", "latitude": 37.45181, "guid": "21c46e7a-b3ee-11e7-9741-6c92bf041d56"}
{"province": "西藏", "distance": 99.97583336676918, "sametype": "same", "thirdId": "eb7f0927-38a9-43e3-b825-0411f7b67044", "name": "米林派营业所", "city": "林芝市", "longitude": 95.4173, "score": "0.993925", "oldname": "中国银行重庆永川支行营业部", "address": "林芝市米林县派镇", "latitude": 29.8447, "guid": "219675c4-b3ee-11e7-90ee-6c92bf041d56"}
{"province": "安徽", "distance": 121.45197091209394, "sametype": "same", "thirdId": "941da5e6-949b-4f4a-9edd-0412e7098a16", "name": "合肥桃花工业园区支行", "city": "合肥市", "longitude": 117.221405, "score": "0.939690", "oldname": "中国银行苏州阳澄湖支行", "address": "安徽省肥西县桃花镇民营企业区", "latitude": 31.7761459, "guid": "2201f312-b3ee-11e7-946a-6c92bf041d56"}
{"province": "广东省", "distance": 112.42117374522427, "sametype": "same", "thirdId": "fe05e67f-9757-4a79-b4ed-0415f3e6888b", "name": "湛江人民支行", "city": "湛江市", "longitude": 110.404648, "score": "0.986679", "oldname": "中国银行天津津玉大厦支行", "address": "人民南路53号3幢一层53号商铺", "latitude": 21.1975, "guid": "21f141f2-b3ee-11e7-ad88-6c92bf041d56"}
{"province": "广西壮族自治区", "distance": 109.24882807476425, "sametype": "same", "thirdId": "aa97e798-5f77-4ef7-a6ca-04179e100f94", "name": "百色城西分理处", "city": "百色市", "longitude": 106.604836, "score": "0.993913", "oldname": "中国银行重庆铜锣湾支行", "address": "中山二路尾", "latitude": 23.88965, "guid": "219a03d8-b3ee-11e7-896a-6c92bf041d56"}
{"province": "贵州省", "distance": 108.6607718504011, "sametype": "same", "thirdId": "e2c5ce50-e273-4ef2-a991-0418292a19f0", "name": "贞丰县支行营业室", "city": "黔西南布依族苗族自治州", "longitude": 105.654686, "score": "0.992666", "oldname": "中国银行杭州市余杭支行营业部", "address": "珉谷镇水井巷44号", "latitude": 25.3820934, "guid": "21c9a1ba-b3ee-11e7-99e0-6c92bf041d56"}
{"province": "西藏", "distance": 92.33371118307765, "sametype": "same", "thirdId": "b3ab3ee9-d451-4659-a6e8-0418dc129cf8", "name": "拉孜曲下营业所", "city": "日喀则市", "longitude": 87.6322, "score": "0.998899", "oldname": "中国银行重庆回兴支行", "address": "西藏日喀则地区拉孜县曲下镇", "latitude": 29.088, "guid": "21a25f60-b3ee-11e7-a3ac-6c92bf041d56"}
{"province": "山西省", "distance": 119.69406048089873, "sametype": "same", "thirdId": "be662103-8137-458b-bce6-041e74393eaf", "name": "阳泉新世纪分理处", "city": "阳泉市", "longitude": 113.544212, "score": "0.942644", "oldname": "中国银行海宁袁花支行", "address": "桃北中路1号", "latitude": 37.87321, "guid": "21ceb218-b3ee-11e7-9e15-6c92bf041d56"}
{"province": "河北省", "distance": 124.61030169086929, "sametype": "same", "thirdId": "62a33610-dfe2-4bc3-8c84-041fbbd102f8", "name": "唐山新华西道支行营业室", "city": "唐山市", "longitude": 118.141953, "score": "0.968026", "oldname": "中国银行重庆宝圣湖支行", "address": "新华西道61号", "latitude": 39.6258278, "guid": "21a7c13a-b3ee-11e7-bdc9-6c92bf041d56"}
{"province": "吉林省", "distance": 136.77393944163632, "sametype": "same", "thirdId": "1cc79e3b-4cce-4874-9d85-04244361ce91", "name": "图们市支行营业室", "city": "延边朝鲜族自治州", "longitude": 129.84938, "score": "0.829902", "oldname": "中国银行重庆爱都会支行", "address": "图们大路1115号", "latitude": 42.968, "guid": "21a87a4e-b3ee-11e7-bde1-6c92bf041d56"}
{"province": "新疆维吾尔自治区", "distance": 95.74596469391416, "sametype": "same", "thirdId": "9ae59526-f46e-4991-a07f-042661c7e89d", "name": "克拉玛依独山子支行营业室", "city": "克拉玛依市", "longitude": 84.86833, "score": "0.981149", "oldname": "中国银行武义县支行营业部", "address": "大庆路31号", "latitude": 44.3244438, "guid": "21ae1e7c-b3ee-11e7-bf48-6c92bf041d56"}
{"province": "陕西省", "distance": 114.14702985553205, "sametype": "same", "thirdId": "e597703a-3c37-4bfd-a17d-0429421d11bb", "name": "西安国亨市场支行", "city": "西安市", "longitude": 108.875465, "score": "0.927402", "oldname": "中国银行天津士英路支行", "address": "邓六路国亨市场东门内侧", "latitude": 34.2881546, "guid": "21ee4b1e-b3ee-11e7-9fb5-6c92bf041d56"}
{"province": "河北省", "distance": 120.35855656830547, "sametype": "same", "thirdId": "d0b7b9aa-19a1-471e-af78-0429a919e1f2", "name": "邢台清风分理处", "city": "邢台市", "longitude": 114.508751, "score": "0.980703", "oldname": "中国银行温岭泽国支行", "address": "府前东街1号", "latitude": 37.0665359, "guid": "21b359b4-b3ee-11e7-964d-6c92bf041d56"}
{"province": "四川省", "distance": 110.93435268196637, "sametype": "same", "thirdId": "f308f46b-b4ce-4562-8376-0432543bb6b5", "name": "蓬安罗家分理处", "city": "南充市", "longitude": 106.5635, "score": "0.996730", "oldname": "中国银行温岭大溪支行", "address": "罗家镇东街68号", "latitude": 30.83263, "guid": "21b3ad4c-b3ee-11e7-8421-6c92bf041d56"}
{"province": "江苏省", "distance": 123.87422983553964, "sametype": "same", "thirdId": "db695571-94c4-4b65-9f23-0436c83ffb67", "name": "高邮兴晨支行", "city": "扬州市", "longitude": 119.4618, "score": "0.994963", "oldname": "中国银行桐庐支行营业部", "address": "高邮镇武安路8号", "latitude": 32.76741, "guid": "21b4a882-b3ee-11e7-987a-6c92bf041d56"}
{"province": "山东省", "distance": 123.38274457011563, "sametype": "same", "thirdId": "55b9f864-13e0-469c-9609-0439c2b701f0", "name": "邹平黄山支行", "city": "滨州市", "longitude": 117.747, "score": "0.949266", "oldname": "中国银行成都簇锦支行", "address": "月河一路106号", "latitude": 36.86388, "guid": "2237e0b2-b3ee-11e7-a6e3-6c92bf041d56"}
{"province": "广东省", "distance": 116.51922812885158, "sametype": "same", "thirdId": "223bc892-9829-4a21-90aa-043a640c46ac", "name": "深圳新生支行", "city": "深圳市", "longitude": 114.27713, "score": "0.961683", "oldname": "中国银行成都天府广场支行营业部", "address": "新城路水岸新都花园一期商铺14栋109-111号一、二楼", "latitude": 22.7479248, "guid": "222e91e2-b3ee-11e7-a2ca-6c92bf041d56"}
{"province": "广西壮族自治区", "distance": 113.72419742359743, "sametype": "same", "thirdId": "838cdd3c-b4ec-4f09-8c03-043c80ccc2a0", "name": "梧州金祥支行", "city": "梧州市", "longitude": 111.274261, "score": "0.992805", "oldname": "中国银行凉山分行营业部", "address": "新兴三路金祥花园行政办公楼地层5-8门面", "latitude": 23.4783287, "guid": "22226886-b3ee-11e7-999b-6c92bf041d56"}
{"province": "广西壮族自治区", "distance": 0.0, "sametype": "same", "thirdId": "d4d7084a-63fb-43c9-8976-043d251cd007", "name": "南宁武鸣支行营业室", "city": "南宁市", "longitude": 0, "score": "0.923110", "oldname": "中国银行会德丰广场支行", "address": "城厢镇灵源路西段7号", "latitude": 0, "guid": "223ef276-b3ee-11e7-9df9-6c92bf041d56"}
{"province": "福建", "distance": 118.96820258981937, "sametype": "same", "thirdId": "6c4d831c-261f-4091-97f9-0441f56ca623", "name": "武平上中支行", "city": "龙岩市", "longitude": 116.269363, "score": "0.994544", "oldname": "中国银行绍兴市分行营业部", "address": "武平县中堡镇朱坊村", "latitude": 25.1965961, "guid": "21b83b14-b3ee-11e7-bb33-6c92bf041d56"}
{"province": "河南省", "distance": 118.5054090660122, "sametype": "same", "thirdId": "9fcd5910-feab-4980-a20f-0442505492c6", "name": "信阳行政区分理处", "city": "信阳市", "longitude": 114.068672, "score": "0.968213", "oldname": "中国银行彭州金彭东路支行", "address": "东方红大道", "latitude": 32.1227341, "guid": "221b7ee0-b3ee-11e7-ad61-6c92bf041d56"}
{"province": "海南省", "distance": 112.42823149739445, "sametype": "same", "thirdId": "8ab9691f-3fd1-4a5e-a2b5-044550e00e70", "name": "文昌会文分理处", "city": "省直辖县级行政区划", "longitude": 110.730888, "score": "0.990231", "oldname": "中国银行瑞安市支行营业部", "address": "会文镇华侨新街", "latitude": 19.4622116, "guid": "21bacff0-b3ee-11e7-9d1e-6c92bf041d56"}
{"province": "湖南省", "distance": 115.87209757032139, "sametype": "same", "thirdId": "ee640b8e-2f82-456d-a887-0446854a90e5", "name": "永兴马田支行", "city": "郴州市", "longitude": 112.893745, "score": "0.949008", "oldname": "中国银行上虞松厦支行", "address": "马田镇和平路82号", "latitude": 26.1025925, "guid": "21ba2b22-b3ee-11e7-99a9-6c92bf041d56"}
{"province": "湖南省", "distance": 116.78919964126713, "sametype": "same", "thirdId": "cb5f1ff7-0452-4c9e-8a27-044908b072d4", "name": "醴陵泗汾分理处", "city": "株洲市", "longitude": 113.501938, "score": "0.674899", "oldname": "中国银行昆明市美璟欣城支行", "address": "泗汾镇", "latitude": 27.5141277, "guid": "21d807d2-b3ee-11e7-a72f-6c92bf041d56"}
{"province": "重庆市", "distance": 110.53659792370114, "sametype": "same", "thirdId": "1fabf79d-c94a-4bac-bf42-0450566101d4", "name": "重庆渝北龙湖支行", "city": "重庆市", "longitude": 106.499329, "score": "0.957654", "oldname": "中国银行天津北城街支行", "address": "龙溪镇新南路6号附2号", "latitude": 29.601223, "guid": "21fa080a-b3ee-11e7-9803-6c92bf041d56"}
{"province": "浙江省", "distance": 124.75316068669153, "sametype": "same", "thirdId": "4124fd5d-2246-493b-95f8-04541eb9a786", "name": "台州葭沚支行", "city": "台州市", "longitude": 121.41333, "score": "0.915960", "oldname": "中国银行绵阳永兴支行", "address": "葭沚街道集圣庙老年活动中心", "latitude": 28.6732349, "guid": "221f705e-b3ee-11e7-8e53-6c92bf041d56"}
{"province": "重庆市", "distance": 112.06384070485022, "sametype": "same", "thirdId": "8985e867-11a4-41f5-a136-045581e662cf", "name": "忠县白石支行", "city": "重庆市", "longitude": 107.885979, "score": "0.985568", "oldname": "中国银行平湖乍浦支行", "address": "白石镇白石铺37号", "latitude": 30.3136921, "guid": "21be58a0-b3ee-11e7-a367-6c92bf041d56"}
{"province": "河北省", "distance": 121.04899061962672, "sametype": "same", "thirdId": "58827743-306e-43a6-a16c-0455fc359d3c", "name": "宁晋大陆村支行", "city": "邢台市", "longitude": 115.038963, "score": "0.983991", "oldname": "中国银行苏州相城支行营业部", "address": "大陆村镇赵南村村南", "latitude": 37.6682243, "guid": "2202e86c-b3ee-11e7-8db5-6c92bf041d56"}
{"province": "贵州省", "distance": 109.89741925302246, "sametype": "same", "thirdId": "e3f0ec8f-dfe6-413c-a60e-04562e91bc0b", "name": "贵阳碧海支行", "city": "贵阳市", "longitude": 106.62233, "score": "0.998786", "oldname": "中国银行丽水市分行营业部", "address": "金阳新区金阳南路碧海花园丽阳天下B3栋负2层9-11号", "latitude": 26.6293354, "guid": "21c097f0-b3ee-11e7-b28d-6c92bf041d56"}
{"province": "江西省", "distance": 118.1254492873999, "sametype": "same", "thirdId": "e5831aee-abd4-407b-8e23-0459cae848de", "name": "吉安禾埠支行", "city": "吉安市", "longitude": 114.976944, "score": "0.959642", "oldname": "中国银行天津津塘路支行", "address": "井岗山大道52号", "latitude": 27.0910339, "guid": "21f194fe-b3ee-11e7-8ee8-6c92bf041d56"}
{"province": "山西省", "distance": 116.78173814398372, "sametype": "same", "thirdId": "53baae3e-1e76-472d-a3b1-045afc7bab4a", "name": "新绛城关分理处", "city": "运城市", "longitude": 111.215691, "score": "0.976517", "oldname": "中国银行成都城北支行", "address": "龙兴街105号", "latitude": 35.62365, "guid": "223833fa-b3ee-11e7-8b68-6c92bf041d56"}
{"province": "天津", "distance": 123.99099763853826, "sametype": "same", "thirdId": "c5e3659d-9cdd-4668-8bf8-045c8f48067f", "name": "天津紫云分理处", "city": "天津市", "longitude": 117.6944, "score": "0.995442", "oldname": "中国银行金华市金东支行营业部", "address": "天津市塘沽区馨苑新城2-2-A-01号", "latitude": 39.0102, "guid": "21c378ee-b3ee-11e7-85de-6c92bf041d56"}
{"province": "甘肃省", "distance": 113.84631430021308, "sametype": "same", "thirdId": "f0cab7e6-e104-4042-b2b3-045ce588725f", "name": "宁县平子支行", "city": "庆阳市", "longitude": 108.186249, "score": "0.995261", "oldname": "中国银行建德支行营业部", "address": "平子镇平子街2号", "latitude": 35.45023, "guid": "21c46e7a-b3ee-11e7-9741-6c92bf041d56"}
{"province": "湖北省", "distance": 115.10524030429585, "sametype": "same", "thirdId": "b29e9e35-7264-4a28-99d2-045d894f551a", "name": "兴山县支行营业室", "city": "宜昌市", "longitude": 110.7547, "score": "0.975884", "oldname": "中国银行长兴县支行营业部", "address": "古夫镇昭君路15号", "latitude": 31.3466549, "guid": "21aaa544-b3ee-11e7-a55d-6c92bf041d56"}
{"province": "广东", "distance": 116.06392469209453, "sametype": "same", "thirdId": "2c80bdb6-fb5c-48cf-bea0-045e2f9fb07e", "name": "东莞会展支行", "city": "东莞市", "longitude": 113.758919, "score": "0.952319", "oldname": "中国银行杭州浙大支行", "address": "东莞市南城区新城市中心区会展中心北侧东莞市会展国际大酒店首层西区", "latitude": 23.0161457, "guid": "21c6c1fc-b3ee-11e7-be37-6c92bf041d56"}
{"province": "广西壮族自治区", "distance": 111.49079715375143, "sametype": "same", "thirdId": "33870031-6283-4141-820f-045ee58f204b", "name": "横县陶圩分理处", "city": "南宁市", "longitude": 109.129395, "score": "0.994501", "oldname": "中国银行杭州萧山汽车城支行", "address": "陶圩镇南街", "latitude": 22.8248329, "guid": "21c7b5f8-b3ee-11e7-9e93-6c92bf041d56"}
{"province": "广东省", "distance": 114.87667678908873, "sametype": "same", "thirdId": "ff8191a2-937c-4cc5-9eb6-046478a8d7b0", "name": "开平新华支行", "city": "江门市", "longitude": 112.680344, "score": "0.956040", "oldname": "中国银行昆明市金碧支行", "address": "祥龙中路15号A地下", "latitude": 22.3560047, "guid": "21d96e74-b3ee-11e7-9625-6c92bf041d56"}
{"province": "山东省", "distance": 123.6478441807334, "sametype": "same", "thirdId": "05c9063e-5739-44b6-89cb-0466985b7e65", "name": "临沂汤头支行", "city": "临沂市", "longitude": 118.511841, "score": "0.904627", "oldname": "中国银行绍兴皋埠支行", "address": "汤头街道办事处", "latitude": 35.2665977, "guid": "21b9865e-b3ee-11e7-af15-6c92bf041d56"}
{"province": "山东省", "distance": 122.2047783207367, "sametype": "same", "thirdId": "4a89f94d-28e3-42ee-a58e-046e6fa52932", "name": "邹城城北支行", "city": "济宁市", "longitude": 116.960106, "score": "0.992615", "oldname": "中国银行杭州市城东支行营业部", "address": "龙山路北首路西", "latitude": 35.4166832, "guid": "21cb38f4-b3ee-11e7-bfcf-6c92bf041d56"}
{"province": "陕西省", "distance": 114.8462672374109, "sametype": "same", "thirdId": "c888c4b9-72e0-43e1-ad35-046e961eba26", "name": "渭南乐天花园分理处", "city": "渭南市", "longitude": 109.53878, "score": "0.993098", "oldname": "中国银行杭州市城北支行营业部", "address": "乐天大街中段", "latitude": 34.50972, "guid": "21cb89e4-b3ee-11e7-85d5-6c92bf041d56"}
{"province": "山西省", "distance": 118.77402128302467, "sametype": "same", "thirdId": "e99a8864-8642-4bba-b693-046f5bdc783e", "name": "太原双塔支行", "city": "太原市", "longitude": 112.583145, "score": "0.994631", "oldname": "中国银行杭州滨江支行营业部", "address": "双塔西街37号", "latitude": 37.845787, "guid": "21cdae90-b3ee-11e7-b4c7-6c92bf041d56"}
{"province": "江西省", "distance": 118.1003605585915, "sametype": "same", "thirdId": "00ba3261-cd9a-4dae-a4ec-04775c9934b3", "name": "安远县支行营业室", "city": "赣州市", "longitude": 115.394951, "score": "0.997451", "oldname": "中国银行昭通市分行营业部", "address": "欣山镇龙泉路12号", "latitude": 25.1336517, "guid": "21d1776e-b3ee-11e7-883d-6c92bf041d56"}
{"province": "山西省", "distance": 117.29004520447397, "sametype": "same", "thirdId": "54962b5b-26b5-4e26-962d-0484241d9290", "name": "翼城红旗分理处", "city": "临汾市", "longitude": 111.712357, "score": "0.994149", "oldname": "中国银行西双版纳州分行营业部", "address": "农机公司门前", "latitude": 35.73939, "guid": "21d28122-b3ee-11e7-b302-6c92bf041d56"}
{"province": "山东省", "distance": 124.04448032789568, "sametype": "same", "thirdId": "07b17b09-b0c0-4b7f-8c98-0486ca95afbf", "name": "临朐朐山分理处", "city": "潍坊市", "longitude": 118.55336, "score": "0.992859", "oldname": "中国银行双流分行营业部", "address": "临朐南路59号", "latitude": 36.49841, "guid": "22169a1a-b3ee-11e7-9d40-6c92bf041d56"}
{"province": "河北省", "distance": 125.14296336047441, "sametype": "same", "thirdId": "b56a953d-44f6-4071-9471-048841e7159d", "name": "迁安滨河分理处", "city": "唐山市", "longitude": 118.580406, "score": "0.989803", "oldname": "中国银行南浔区支行营业部", "address": "滨河村", "latitude": 39.9931068, "guid": "21befc60-b3ee-11e7-ae28-6c92bf041d56"}
{"province": "湖南省", "distance": 115.12419431319228, "sametype": "same", "thirdId": "47d2224c-c8bf-4a6b-806a-048b032a5406", "name": "祁阳金洞营业所", "city": "永州市", "longitude": 112.088112, "score": "0.880271", "oldname": "中国银行昆明市东风支行营业部", "address": "金洞镇金洞街6号", "latitude": 26.2647152, "guid": "21dc5526-b3ee-11e7-b8dd-6c92bf041d56"}
{"province": "广东省", "distance": 115.42837908633214, "sametype": "same", "thirdId": "8da3c0c8-7f29-4950-b6a7-048c039dcc42", "name": "佛山龙角支行", "city": "佛山市", "longitude": 113.11676, "score": "0.910048", "oldname": "中国银行台州市椒江支行营业部", "address": "普澜路石头管理区南方不锈钢市场16号铺", "latitude": 22.98498, "guid": "21b5a43a-b3ee-11e7-873d-6c92bf041d56"}
{"province": "广西壮族自治区", "distance": 110.74308608246709, "sametype": "same", "thirdId": "403e9be5-b1c7-4c5b-a972-048c3e2e6f6a", "name": "南宁迎宾支行", "city": "南宁市", "longitude": 108.366508, "score": "0.936619", "oldname": "中国银行天津南丰路支行", "address": "迎宾路1号", "latitude": 22.8195324, "guid": "21f04680-b3ee-11e7-b867-6c92bf041d56"}
{"province": "江苏省", "distance": 124.43632764796821, "sametype": "same", "thirdId": "4f399d9a-1db0-44f3-96ba-048c762a5ed5", "name": "无锡太科园支行", "city": "无锡市", "longitude": 120.3877, "score": "0.995222", "oldname": "中国银行昆明市莲花池支行", "address": "新区新安街道中心街20号", "latitude": 31.48335, "guid": "21d9123a-b3ee-11e7-916f-6c92bf041d56"}
{"province": "甘肃省", "distance": 110.50415209600914, "sametype": "same", "thirdId": "0253220d-7ad8-47c1-829b-0490b35340c3", "name": "定西友谊路分理处", "city": "定西市", "longitude": 104.618767, "score": "0.992733", "oldname": "中国银行昆明市环南支行", "address": "友谊北路104号6", "latitude": 35.5820351, "guid": "21da27c4-b3ee-11e7-b3d6-6c92bf041d56"}
{"province": "甘肃省", "distance": 106.22857607482509, "sametype": "same", "thirdId": "e48d7c83-96da-4f14-a5ba-0494257a6a8b", "name": "酒泉肃州支行营业室", "city": "酒泉市", "longitude": 98.513, "score": "0.918028", "oldname": "中国银行武义县支行营业部", "address": "盘旋东路2号", "latitude": 39.74543, "guid": "21ae1e7c-b3ee-11e7-bf48-6c92bf041d56"}
{"province": "四川省", "distance": 109.81691097825893, "sametype": "same", "thirdId": "6f8ec97a-7dcf-4114-aef5-049850f7b9c0", "name": "梓潼南门分理处", "city": "绵阳市", "longitude": 105.163612, "score": "0.923816", "oldname": "中国银行杭州钱江新城支行", "address": "文昌路中段30、32号", "latitude": 31.6286049, "guid": "21cbdbe2-b3ee-11e7-8165-6c92bf041d56"}
{"province": "江苏省", "distance": 124.60257035615159, "sametype": "same", "thirdId": "274129a4-a247-40a4-a269-04a72b1980f6", "name": "苏州石路支行", "city": "苏州市", "longitude": 120.603516, "score": "0.976656", "oldname": "中国银行新津武阳路支行", "address": "广济路小商品市场内", "latitude": 31.3144131, "guid": "2211501e-b3ee-11e7-ac3f-6c92bf041d56"}
{"province": "安徽", "distance": 121.7416509269685, "sametype": "same", "thirdId": "4661a933-45fd-4c3f-afac-04aa2ba95279", "name": "铜陵南区支行", "city": "铜陵市", "longitude": 117.772209, "score": "0.966267", "oldname": "中国银行昆明市安宁支行营业部", "address": "安徽省铜陵市郊区民主安置点2号网点", "latitude": 30.834013, "guid": "21df59ba-b3ee-11e7-9070-6c92bf041d56"}
{"province": "广东", "distance": 115.66151002662899, "sametype": "same", "thirdId": "d36690e1-90be-4038-bcd2-04b0b3b290b0", "name": "广州花城支行", "city": "广州市", "longitude": 113.326, "score": "0.987705", "oldname": "中国银行楚雄州分行营业部", "address": "广州市天河区珠江新城珠江东路32号利通广场规划设计楼层5层02单元（自编楼层5层02单元）", "latitude": 23.1258, "guid": "21e1c5ba-b3ee-11e7-aa12-6c92bf041d56"}
{"province": "辽宁", "distance": 129.37351438693892, "sametype": "same", "thirdId": "10c561ed-15cf-43ee-a6df-04b12a198f5f", "name": "海城海洲支行", "city": "鞍山市", "longitude": 122.75679, "score": "0.995791", "oldname": "中国银行泸州江城支行", "address": "辽宁省海城市海州管理区东关街东风委", "latitude": 40.8445435, "guid": "2221b7a6-b3ee-11e7-8e10-6c92bf041d56"}
{"province": "河南省", "distance": 118.83846775728162, "sametype": "same", "thirdId": "a24f8915-0656-47e6-b7a4-04b135b5ac06", "name": "正阳县陡沟分理处", "city": "驻马店市", "longitude": 114.343269, "score": "0.982429", "oldname": "中国银行天津滨湖路支行", "address": "陡沟镇北街", "latitude": 32.37589, "guid": "21f962ce-b3ee-11e7-b3a2-6c92bf041d56"}
{"province": "河北", "distance": 123.19274149450024, "sametype": "same", "thirdId": "571c2baf-0c05-42a6-a0ae-04b3faaa9b51", "name": "廊坊西大街支行", "city": "廊坊市", "longitude": 116.684181, "score": "0.984774", "oldname": "中国银行吐鲁番地区分行营业部", "address": "河北省廊坊市安次区永兴路88号蓝波湾小区D区16号", "latitude": 39.5127, "guid": "21e500ae-b3ee-11e7-bb01-6c92bf041d56"}
{"province": "贵州省", "distance": 110.67861973448498, "sametype": "same", "thirdId": "2618327a-1ad6-4d6b-8cd2-04bad649c046", "name": "都匀龙山支行", "city": "黔南布依族苗族自治州", "longitude": 107.514687, "score": "0.993703", "oldname": "中国银行石河子市分行营业部", "address": "开发区黔玥公寓1号楼2号门面", "latitude": 26.2744923, "guid": "21e5a590-b3ee-11e7-a734-6c92bf041d56"}
{"province": "四川省", "distance": 110.46672960738326, "sametype": "same", "thirdId": "2d7487e0-ce99-4754-aaf3-04beb71908bf", "name": "南充潆溪支行", "city": "南充市", "longitude": 106.064018, "score": "0.957463", "oldname": "中国银行遂宁分行营业部", "address": "潆溪镇禹王街36号", "latitude": 30.87592, "guid": "221456a6-b3ee-11e7-8d70-6c92bf041d56"}
{"province": "河南省", "distance": 120.86775841248972, "sametype": "same", "thirdId": "6d420b33-7f5d-478a-ae91-04bff40b1b20", "name": "虞城县振华分理处", "city": "商丘市", "longitude": 115.871811, "score": "0.975843", "oldname": "中国银行宜宾五粮液大道支行", "address": "人民路南段", "latitude": 34.3909645, "guid": "220f585e-b3ee-11e7-9b69-6c92bf041d56"}
{"province": "山西省", "distance": 120.18579730375765, "sametype": "same", "thirdId": "a00b1db1-172b-43ec-9b36-04c267ab03d3", "name": "大同苹果园分理处", "city": "大同市", "longitude": 113.293747, "score": "0.993715", "oldname": "中国银行阿克苏地区分行营业部", "address": "东花园里11排1号", "latitude": 40.1142464, "guid": "21e908ac-b3ee-11e7-aa88-6c92bf041d56"}
{"province": "安徽省", "distance": 120.97682674785625, "sametype": "same", "thirdId": "60c130fa-5387-46ed-b104-04c277a74f8c", "name": "安庆华中路分理处", "city": "安庆市", "longitude": 117.067017, "score": "0.994208", "oldname": "中国银行北京中路支行", "address": "华中西路106号", "latitude": 30.5074768, "guid": "21e9b28e-b3ee-11e7-af92-6c92bf041d56"}
{"province": "山东省", "distance": 122.64679140813188, "sametype": "same", "thirdId": "fec7004d-24ce-4f77-900a-04c284f7d885", "name": "济南文苑支行", "city": "济南市", "longitude": 117.04129, "score": "0.989505", "oldname": "中国银行天津武清支行营业部", "address": "文化东路88-1号", "latitude": 36.6547661, "guid": "21ec2dca-b3ee-11e7-88eb-6c92bf041d56"}
{"province": "安徽省", "distance": 121.8962795587321, "sametype": "same", "thirdId": "b303168a-7b8d-40d2-bab3-04c3690dd675", "name": "蚌埠蓝天分理处", "city": "蚌埠市", "longitude": 117.364822, "score": "0.998460", "oldname": "中国银行天津南开支行营业部", "address": "南山古玩市场内", "latitude": 32.9272156, "guid": "21ef9f3c-b3ee-11e7-b0b8-6c92bf041d56"}
{"province": "甘肃省", "distance": 111.39097584536246, "sametype": "same", "thirdId": "b1c72f78-de9a-4708-96f4-04c3f9019b6e", "name": "天水南滨河支行", "city": "天水市", "longitude": 105.895805, "score": "0.996277", "oldname": "中国银行天津南丰路支行", "address": "埠南路25号", "latitude": 34.55471, "guid": "21f04680-b3ee-11e7-b867-6c92bf041d56"}
{"province": "青海省", "distance": 107.94069624944107, "sametype": "same", "thirdId": "fbabe4f1-b5ab-462a-a324-04cddafd69ed", "name": "湟中县新墩支行", "city": "西宁市", "longitude": 101.5297, "score": "0.998416", "oldname": "中国银行天津津塘路支行", "address": "多巴镇新墩村", "latitude": 36.64579, "guid": "21f194fe-b3ee-11e7-8ee8-6c92bf041d56"}
{"province": "重庆市", "distance": 111.55851093874335, "sametype": "same", "thirdId": "431c207c-db8f-43cb-a06d-04cebd17788d", "name": "垫江桂东支行", "city": "重庆市", "longitude": 107.356857, "score": "0.985271", "oldname": "中国银行天津津钢支行营业部", "address": "桂溪镇石岩路1号", "latitude": 30.3283138, "guid": "21f23d96-b3ee-11e7-aa71-6c92bf041d56"}
{"province": "江苏省", "distance": 124.22081345675453, "sametype": "same", "thirdId": "bf83448c-2a05-4762-bcf5-04d9ebd0ca83", "name": "泰州江洲路支行", "city": "泰州市", "longitude": 119.902847, "score": "0.993879", "oldname": "中国银行天津河北支行营业部", "address": "扬州路201号", "latitude": 32.46718, "guid": "21f57db2-b3ee-11e7-8b8d-6c92bf041d56"}
{"province": "四川省", "distance": 108.50786337437145, "sametype": "same", "thirdId": "d11821d3-8db3-4cc0-89ff-04dbc1f471d1", "name": "成都太升支行", "city": "成都市", "longitude": 104.082619, "score": "0.997154", "oldname": "中国银行天津汉沽支行营业部", "address": "太升北路56号江信大厦底楼", "latitude": 30.67189, "guid": "21f67a46-b3ee-11e7-8fce-6c92bf041d56"}
{"province": "吉林", "distance": 132.48568056450478, "sametype": "same", "thirdId": "df6cee7d-cb9a-4b60-8008-04de4f3d45ca", "name": "公主岭范家屯支行", "city": "四平市", "longitude": 125.0658, "score": "0.989318", "oldname": "中国银行成都金域蓝湾支行", "address": "吉林省公主岭市范家屯镇", "latitude": 43.715, "guid": "2234364c-b3ee-11e7-9287-6c92bf041d56"}
{"province": "湖南省", "distance": 116.91384356620563, "sametype": "same", "thirdId": "c22fe13f-9ae3-438d-a5d8-04e3a7462aff", "name": "岳阳太阳桥分理处", "city": "岳阳市", "longitude": 113.167854, "score": "0.995334", "oldname": "中国银行天津大港支行营业部", "address": "巴陵中路614号岳阳市房产大厦一楼", "latitude": 29.3578548, "guid": "21f8bbbc-b3ee-11e7-9d83-6c92bf041d56"}
{"province": "山西省", "distance": 118.18911239485851, "sametype": "same", "thirdId": "2887eb20-1094-46b4-8b40-04e55be22333", "name": "泽州大东沟分理处", "city": "晋城市", "longitude": 112.71122, "score": "0.990959", "oldname": "中国银行天津滨海分行营业部", "address": "大东沟镇大东沟村", "latitude": 35.56469, "guid": "21f9b4f4-b3ee-11e7-9559-6c92bf041d56"}
{"province": "山东省", "distance": 122.29887030905243, "sametype": "same", "thirdId": "e784ab76-b2bf-4dab-ac4a-04e6f41fb7d1", "name": "滕州善国支行", "city": "枣庄市", "longitude": 117.159805, "score": "0.885569", "oldname": "中国银行重庆龙脊支行", "address": "荆河中路84号", "latitude": 35.07982, "guid": "219ed5f2-b3ee-11e7-8baa-6c92bf041d56"}
{"province": "河南", "distance": 1.4142135623730951, "sametype": "same", "thirdId": "d487366f-efd9-4582-a465-04eeaa915181", "name": "睢县蓼堤分理处", "city": "商丘市", "longitude": -1, "score": "0.979200", "oldname": "中国银行青田江南支行", "address": "河南省睢县蓼堤镇", "latitude": -1, "guid": "21bd6062-b3ee-11e7-9021-6c92bf041d56"}
{"province": "浙江省", "distance": 124.51322554924171, "sametype": "same", "thirdId": "31260240-560b-4cb3-b3ab-04f14db87574", "name": "临海东湖支行", "city": "台州市", "longitude": 121.126488, "score": "0.984915", "oldname": "中国银行眉山东坡大道支行", "address": "回浦路34号", "latitude": 28.8429756, "guid": "222109e6-b3ee-11e7-ac20-6c92bf041d56"}
{"province": "辽宁省", "distance": 127.70909775459884, "sametype": "same", "thirdId": "2dcda49d-3827-49e0-aafd-04f1d57c41ee", "name": "大连青春街分理处", "city": "大连市", "longitude": 121.645172, "score": "0.991292", "oldname": "中国银行天津白堤路支行", "address": "八一路122号", "latitude": 38.88529, "guid": "21fb54d0-b3ee-11e7-ab3f-6c92bf041d56"}
{"province": "宁夏回族自治区", "distance": 112.95062914239742, "sametype": "same", "thirdId": "7a58f868-f474-4b2d-be22-04f3117ba5d7", "name": "灵武市支行营业室", "city": "银川市", "longitude": 106.332886, "score": "0.957207", "oldname": "中国银行南溪支行营业部", "address": "西街", "latitude": 38.09412, "guid": "221d853c-b3ee-11e7-83db-6c92bf041d56"}
{"province": "江苏省", "distance": 124.36570712246173, "sametype": "same", "thirdId": "1b9917ce-8422-407a-8df2-04f4631ebd5e", "name": "无锡西门支行", "city": "无锡市", "longitude": 120.291077, "score": "0.991910", "oldname": "中国银行吴江盛泽支行", "address": "五爱路17-2号", "latitude": 31.5735, "guid": "21fe55fe-b3ee-11e7-8c9c-6c92bf041d56"}
{"province": "新疆维吾尔自治区", "distance": 95.16119844698311, "sametype": "same", "thirdId": "e6c90069-0c96-4805-9be4-04f90c09615b", "name": "塔城163团支行", "city": "塔城地区", "longitude": 82.89974, "score": "0.997762", "oldname": "中国银行吴江开发区支行", "address": "阿克桥镇", "latitude": 46.7256546, "guid": "21ff5486-b3ee-11e7-ae8a-6c92bf041d56"}
{"province": "河南省", "distance": 117.64559191304023, "sametype": "same", "thirdId": "42ba6350-8475-4f02-888a-04faf998051a", "name": "方城县赵河支行", "city": "南阳市", "longitude": 112.8652, "score": "0.933032", "oldname": "中国银行苏州浒关开发区支行", "address": "赵河镇赵河街", "latitude": 33.19536, "guid": "22067626-b3ee-11e7-8eae-6c92bf041d56"}
{"province": "湖南省", "distance": 115.46107799070094, "sametype": "same", "thirdId": "9be6a325-f3f0-4631-be41-04fbbc069269", "name": "临澧支行营业室", "city": "常德市", "longitude": 111.643112, "score": "0.991394", "oldname": "中国银行青田温溪支行", "address": "城关镇55号", "latitude": 29.4461555, "guid": "21bd0d6a-b3ee-11e7-ab65-6c92bf041d56"}
{"province": "新疆维吾尔自治区", "distance": 92.23481086299938, "sametype": "same", "thirdId": "f5b3c4b8-36dd-4e49-a777-050283e8c34b", "name": "察布查尔县支行营业室", "city": "伊犁哈萨克自治州", "longitude": 81.1505356, "score": "0.953310", "oldname": "中国银行温州瑞安长春支行", "address": "杜林拜街", "latitude": 43.83892, "guid": "21b10718-b3ee-11e7-bdc6-6c92bf041d56"}
{"province": "山东省", "distance": 123.58520639425974, "sametype": "same", "thirdId": "f547c5a8-d558-4ef5-a5e1-05032f03fefe", "name": "沂源县支行营业室", "city": "淄博市", "longitude": 118.168159, "score": "0.998409", "oldname": "中国银行苏州吴中支行营业部", "address": "胜利路15号", "latitude": 36.18825, "guid": "22033ad8-b3ee-11e7-abc7-6c92bf041d56"}
{"province": "山东省", "distance": 123.55823440353265, "sametype": "same", "thirdId": "65e33e54-4834-47f7-97ba-05037cee849c", "name": "高青县支行营业室", "city": "淄博市", "longitude": 117.836273, "score": "0.905360", "oldname": "中国银行天津宁河支行营业部", "address": "高苑路13号", "latitude": 37.1651726, "guid": "21ef4ae6-b3ee-11e7-9d5d-6c92bf041d56"}
{"province": "云南省", "distance": 107.29671420514237, "sametype": "same", "thirdId": "a3febe27-6318-45a2-9421-050f498374a9", "name": "富源老厂分理处", "city": "曲靖市", "longitude": 104.3119, "score": "0.981894", "oldname": "中国银行苏州甪直支行", "address": "老厂乡红旗街80号", "latitude": 25.1319, "guid": "22052afa-b3ee-11e7-b002-6c92bf041d56"}
{"province": "山东省", "distance": 121.28729089366028, "sametype": "same", "thirdId": "b35b63a1-c5b4-438c-ad72-051190e59365", "name": "菏泽水浒支行", "city": "菏泽市", "longitude": 115.945747, "score": "0.977760", "oldname": "中国银行重庆弹子石支行", "address": "东门街中段", "latitude": 35.5976219, "guid": "21a4f054-b3ee-11e7-b731-6c92bf041d56"}
{"province": "北京市", "distance": 123.04149116305899, "sametype": "same", "thirdId": "ac2e52d9-3576-4b9b-807f-0515b6e6673b", "name": "北京新外支行", "city": "北京市", "longitude": 116.371185, "score": "0.963608", "oldname": "中国银行重庆南岸支行营业部", "address": "新外大街K8号", "latitude": 39.96193, "guid": "219e30f2-b3ee-11e7-903e-6c92bf041d56"}
{"province": "新疆维吾尔自治区", "distance": 96.2616245892574, "sametype": "same", "thirdId": "0cf914ca-f065-4614-bd06-0516f0521ed9", "name": "石河子桃花镇支行", "city": "自治区直辖县级行政区划", "longitude": 85.271225, "score": "0.998133", "oldname": "中国银行苏州枫桥支行", "address": "农八师133团团部", "latitude": 44.66675, "guid": "2207be96-b3ee-11e7-8d2b-6c92bf041d56"}
{"province": "河北省", "distance": 121.89150870056535, "sametype": "same", "thirdId": "ab330f26-59ab-4ff0-8381-0517bd44d8bb", "name": "武邑建设西路分理处", "city": "衡水市", "longitude": 115.8823, "score": "0.993869", "oldname": "中国银行苏州沧浪支行", "address": "西环路东侧腾达南大街13号、15号", "latitude": 37.7999, "guid": "22086274-b3ee-11e7-bf87-6c92bf041d56"}
{"province": "福建省", "distance": 120.49173149038066, "sametype": "same", "thirdId": "7d2552c5-330b-4979-a8a0-0518ced71d2b", "name": "厦门自贸试验区港区支行", "city": "厦门市", "longitude": 117.982758, "score": "0.989716", "oldname": "中国银行昆山周市支行", "address": "海沧镇海沧街大路头15号", "latitude": 24.4607067, "guid": "22090594-b3ee-11e7-8422-6c92bf041d56"}
{"province": "辽宁省", "distance": 127.02841722857166, "sametype": "same", "thirdId": "db18fd4b-c4cb-4f99-8256-05191409b0b3", "name": "兴城东辛庄支行", "city": "葫芦岛市", "longitude": 120.443924, "score": "0.998570", "oldname": "中国银行昆山金浦支行", "address": "东辛镇镇本街", "latitude": 40.3668175, "guid": "220a1b78-b3ee-11e7-a856-6c92bf041d56"}
{"province": "北京市", "distance": 123.20262376516578, "sametype": "same", "thirdId": "941094d4-18d4-4ac6-9357-051a5bf2d2ec", "name": "北京定福庄支行", "city": "北京市", "longitude": 116.557388, "score": "0.996194", "oldname": "中国银行姑苏支行营业部", "address": "北京市朝阳区定福庄东街1号", "latitude": 39.9156837, "guid": "220beebc-b3ee-11e7-81af-6c92bf041d56"}
{"province": "天津", "distance": 123.56612541079345, "sametype": "same", "thirdId": "45b7489e-0c9f-44de-a713-051bff6b5fd3", "name": "天津第六田园支行", "city": "天津市", "longitude": 117.230942, "score": "0.996568", "oldname": "中国银行资阳世纪广场支行", "address": "天津市河西区解放南路468号增2号", "latitude": 39.0575676, "guid": "220e5a76-b3ee-11e7-b5ed-6c92bf041d56"}
{"province": "四川", "distance": 106.00342595094517, "sametype": "same", "thirdId": "95a95e04-9273-4311-8c92-051ec6ad8200", "name": "会东新马分理处", "city": "凉山彝族自治州", "longitude": 102.675392, "score": "0.993334", "oldname": "中国银行宜宾翠屏支行", "address": "四川省会东县新马乡麻栎树村2组（新马乡政府大院内）", "latitude": 26.3531818, "guid": "22100006-b3ee-11e7-8262-6c92bf041d56"}
{"province": "浙江", "distance": 123.99587798247813, "sametype": "same", "thirdId": "eaf72853-20b1-436b-b70e-051f266b5010", "name": "杭州萧山分行营业部营业室", "city": "杭州市", "longitude": 120.272057, "score": "0.919723", "oldname": "中国银行大木桥路支行", "address": "浙江省杭州市萧山区人民路156号", "latitude": 30.1597424, "guid": "22417d16-b3ee-11e7-bab5-6c92bf041d56"}
{"province": "内蒙古自治区", "distance": 116.98579803120423, "sametype": "same", "thirdId": "bd8fb177-b9a8-4a45-898d-0521130a7221", "name": "鄂尔多斯东胜民生广场支行", "city": "鄂尔多斯市", "longitude": 110.0023, "score": "0.998054", "oldname": "中国银行苏州吴中支行营业部", "address": "民生广场C区23号", "latitude": 39.8142052, "guid": "22033ad8-b3ee-11e7-abc7-6c92bf041d56"}
{"province": "山东省", "distance": 125.17806884726382, "sametype": "same", "thirdId": "cbf0f770-5ced-4f81-b9d9-052598e54182", "name": "高密市支行营业室", "city": "潍坊市", "longitude": 119.774689, "score": "0.887613", "oldname": "中国银行柯桥支行营业部", "address": "夷安大道128号", "latitude": 36.38094, "guid": "21c23236-b3ee-11e7-b65c-6c92bf041d56"}
{"province": "贵州省", "distance": 108.77684288809314, "sametype": "same", "thirdId": "4c806727-8190-4fac-b0d0-0525b6f85826", "name": "毕节麻园支行", "city": "毕节地区", "longitude": 105.295135, "score": "0.967896", "oldname": "中国银行遂宁船山支行", "address": "麻园路地区政法委宿舍1-2号门面", "latitude": 27.3008442, "guid": "2214aa34-b3ee-11e7-b247-6c92bf041d56"}
{"province": "浙江省", "distance": 122.88599139788617, "sametype": "same", "thirdId": "3d555c2f-e2e9-412d-a141-052706a45269", "name": "金华汤溪支行", "city": "金华市", "longitude": 119.403038, "score": "0.996938", "oldname": "中国银行遂宁城北开发区支行", "address": "汤溪镇护城路18号", "latitude": 29.0496368, "guid": "2214fcd2-b3ee-11e7-a3fb-6c92bf041d56"}
{"province": "内蒙古自治区", "distance": 126.2394406799639, "sametype": "same", "thirdId": "85b9661a-f3b5-479d-a423-05275395efeb", "name": "赤峰松山钢铁支行", "city": "赤峰市", "longitude": 118.954445, "score": "0.991254", "oldname": "中国银行双流华阳支行", "address": "军分区十字路口南", "latitude": 42.26389, "guid": "2215a240-b3ee-11e7-bb8a-6c92bf041d56"}
{"province": "河北省", "distance": 120.61394266406731, "sametype": "same", "thirdId": "fb88403a-fcf4-43e8-a65a-052829677e12", "name": "石家庄西清分理处", "city": "石家庄市", "longitude": 114.460854, "score": "0.897959", "oldname": "中国银行乌鲁木齐市克拉玛依东路支行", "address": "工农路455号", "latitude": 38.03204, "guid": "21e3b492-b3ee-11e7-a91c-6c92bf041d56"}
{"province": "西藏自治区", "distance": 92.84720111194119, "sametype": "same", "thirdId": "bf8969b1-b71a-4f6f-8c23-05287323b0b2", "name": "尼玛县支行营业室", "city": "那曲地区", "longitude": 87.2365646, "score": "0.996324", "oldname": "中国银行射洪支行营业部", "address": "建设东路86号", "latitude": 31.7865467, "guid": "2218360e-b3ee-11e7-9a63-6c92bf041d56"}
{"province": "山东省", "distance": 123.63228900770916, "sametype": "same", "thirdId": "8bee0ad6-66c4-48a0-8f5e-0528f81aa620", "name": "淄博新村西路分理处", "city": "淄博市", "longitude": 118.027596, "score": "0.995459", "oldname": "中国银行青白江支行营业部", "address": "新村西路省水利学院对过", "latitude": 36.8025742, "guid": "22192d98-b3ee-11e7-9389-6c92bf041d56"}
{"province": "广东省", "distance": 114.25769855942426, "sametype": "same", "thirdId": "d430e8f5-e532-4e44-bf54-052a23b886a8", "name": "新兴天堂支行", "city": "云浮市", "longitude": 112.00882, "score": "0.992263", "oldname": "中国银行郫县红光支行", "address": "天堂镇解放南路7－9号", "latitude": 22.5576134, "guid": "221a24c8-b3ee-11e7-bc85-6c92bf041d56"}
{"province": "河北省", "distance": 122.38996037158711, "sametype": "same", "thirdId": "af6301a6-fc98-4f33-8129-0534bdf4f340", "name": "任丘裕华支行", "city": "沧州市", "longitude": 116.106804, "score": "0.984902", "oldname": "中国银行大华支行", "address": "裕华路百货商场一楼", "latitude": 38.7106247, "guid": "2241daae-b3ee-11e7-b3c7-6c92bf041d56"}
{"province": "山东省", "distance": 121.36472831670609, "sametype": "same", "thirdId": "12177a54-9791-404d-9e84-053b52c78257", "name": "巨野银星分理处", "city": "菏泽市", "longitude": 116.089691, "score": "0.997190", "oldname": "中国银行攀枝花大河北路支行", "address": "人民路中段路南", "latitude": 35.39182, "guid": "221c838a-b3ee-11e7-a1b3-6c92bf041d56"}
{"province": "广东省", "distance": 118.21718528186256, "sametype": "same", "thirdId": "3fe6bbe4-df27-4090-a087-0544206baa50", "name": "兴宁市支行营业室", "city": "梅州市", "longitude": 115.726173, "score": "0.992785", "oldname": "中国银行南充分行营业部", "address": "兴城镇兴华路16号", "latitude": 24.1403351, "guid": "221e2a14-b3ee-11e7-b133-6c92bf041d56"}
{"province": "内蒙古", "distance": 114.85258365757325, "sametype": "same", "thirdId": "9097e566-ebad-490a-8e99-0547abcc976c", "name": "巴彦淖尔丰河路支行", "city": "巴彦淖尔市", "longitude": 107.376869, "score": "0.996072", "oldname": "中国银行广元人民路支行", "address": "巴彦淖尔市临河区丰河路临河区财政局楼下", "latitude": 40.7593422, "guid": "2225fb9a-b3ee-11e7-a9cf-6c92bf041d56"}
{"province": "海南省", "distance": 111.79051375825189, "sametype": "same", "thirdId": "bb09d23d-1c16-444b-a09d-054a11ccc255", "name": "万宁三更罗支行", "city": "省直辖县级行政区划", "longitude": 110.189095, "score": "0.996976", "oldname": "中国银行泸州江城支行", "address": "新中农场", "latitude": 18.8542385, "guid": "2221b7a6-b3ee-11e7-8e10-6c92bf041d56"}
{"province": "广东省", "distance": 115.56536050020568, "sametype": "same", "thirdId": "86cf0441-8c16-401d-a942-054b6d86c0c7", "name": "中山世纪新城支行", "city": "中山市", "longitude": 113.3528, "score": "0.962465", "oldname": "中国银行嘉兴秀城支行", "address": "西区翠景花园46幢地下3--4卡", "latitude": 22.50545, "guid": "21c4c0dc-b3ee-11e7-a4e9-6c92bf041d56"}
{"province": "黑龙江省", "distance": 138.60235993864228, "sametype": "same", "thirdId": "e06512e5-81d9-4067-9111-0558190cc7d5", "name": "鹤岗中心分理处", "city": "鹤岗市", "longitude": 130.2736, "score": "0.982965", "oldname": "中国银行徐汇支行营业部", "address": "内环路五号楼1楼", "latitude": 47.3223343, "guid": "223b2510-b3ee-11e7-bf3f-6c92bf041d56"}
{"province": "福建省", "distance": 119.11214164713411, "sametype": "same", "thirdId": "ad66b636-51c9-4fdd-b22b-055a79a23133", "name": "长汀濯田支行", "city": "龙岩市", "longitude": 116.33812, "score": "0.999077", "oldname": "中国银行江油金轮支行", "address": "濯田镇街上村", "latitude": 25.5566845, "guid": "2224589e-b3ee-11e7-a4f6-6c92bf041d56"}
{"province": "湖南省", "distance": 113.58009670580493, "sametype": "same", "thirdId": "e5d19100-87e5-407f-b892-055b2d4f6e48", "name": "隆回司门前支行", "city": "邵阳市", "longitude": 110.1307, "score": "0.993567", "oldname": "中国银行广元分行营业部", "address": "司门前镇兴隆居委会1组", "latitude": 27.7789, "guid": "22264dde-b3ee-11e7-9076-6c92bf041d56"}
{"province": "河南省", "distance": 118.29199202483288, "sametype": "same", "thirdId": "e3cad476-3bab-462c-9609-055d89b7d9e8", "name": "登封市卢店分理处", "city": "郑州市", "longitude": 113.161415, "score": "0.971541", "oldname": "中国银行广安邻水支行", "address": "卢店镇迎宾路", "latitude": 34.45997, "guid": "22274932-b3ee-11e7-acbb-6c92bf041d56"}
{"province": "吉林省", "distance": 134.62624406835508, "sametype": "same", "thirdId": "b0f94fcf-fe12-4f18-aa85-05620f1a54f0", "name": "榆树泗河支行", "city": "长春市", "longitude": 126.890953, "score": "0.995283", "oldname": "中国银行都江堰大道支行", "address": "泗河镇供销社相邻", "latitude": 44.97679, "guid": "2228bb64-b3ee-11e7-bf0e-6c92bf041d56"}
{"province": "辽宁省", "distance": 127.63579034707436, "sametype": "same", "thirdId": "74de9e88-5499-4e0b-9fdd-0562bb59a72b", "name": "大连西南路支行", "city": "大连市", "longitude": 121.562561, "score": "0.965048", "oldname": "中国银行临安支行营业部", "address": "西南路352号", "latitude": 38.90294, "guid": "21c04534-b3ee-11e7-a59a-6c92bf041d56"}
{"province": "云南省", "distance": 103.43893244560219, "sametype": "same", "thirdId": "ae1da4c3-3edc-48a6-890a-05634fdaefdf", "name": "大理鸳浦街分理处", "city": "大理白族自治州", "longitude": 100.226479, "score": "0.926395", "oldname": "中国银行张家港城东支行", "address": "下关镇鸳浦街中心广场415号", "latitude": 25.5786171, "guid": "21fdb31a-b3ee-11e7-b11b-6c92bf041d56"}
{"province": "重庆市", "distance": 110.65420051666527, "sametype": "same", "thirdId": "3ac0da50-22ff-4865-bdc8-0563faea4791", "name": "重庆合川双槐支行", "city": "重庆市", "longitude": 106.458611, "score": "0.914820", "oldname": "中国银行嘉兴秀城支行", "address": "渭溪文明街9号", "latitude": 30.1813889, "guid": "21c4c0dc-b3ee-11e7-a4e9-6c92bf041d56"}
{"province": "广东省", "distance": 113.31647619374732, "sametype": "same", "thirdId": "43e3e0af-0968-4335-869f-0564fd02aa3e", "name": "信宜白石支行", "city": "茂名市", "longitude": 111.088242, "score": "0.997451", "oldname": "中国银行成都同和路支行", "address": "白石镇墟尾", "latitude": 22.3612671, "guid": "222ddb62-b3ee-11e7-a9f4-6c92bf041d56"}
{"province": "山西省", "distance": 118.72582730634151, "sametype": "same", "thirdId": "85cf3983-b270-4b1c-ae3e-056546a2b12e", "name": "太原晋祠路支行", "city": "太原市", "longitude": 112.529877, "score": "0.998218", "oldname": "中国银行成都天府广场支行营业部", "address": "晋祠路一段9号", "latitude": 37.85299, "guid": "222e91e2-b3ee-11e7-a2ca-6c92bf041d56"}
{"province": "山东省", "distance": 124.22539605503849, "sametype": "same", "thirdId": "9d1c3a4a-34bf-404b-9a5f-05661bba598f", "name": "利津盐窝分理处", "city": "东营市", "longitude": 118.383347, "score": "0.977787", "oldname": "中国银行新都支行营业部", "address": "盐窝镇新世纪商贸城北首", "latitude": 37.6474724, "guid": "2211a3c0-b3ee-11e7-a0d6-6c92bf041d56"}
{"province": "四川省", "distance": 108.40449315415852, "sametype": "same", "thirdId": "da7ab83f-d950-4532-8b25-056d0b40e243", "name": "成都簇锦南路支行", "city": "成都市", "longitude": 103.996, "score": "0.993012", "oldname": "中国银行成都沙湾支行", "address": "簇锦南路13－23号", "latitude": 30.6001, "guid": "223110fc-b3ee-11e7-992e-6c92bf041d56"}
{"province": "湖南省", "distance": 115.38495516729077, "sametype": "same", "thirdId": "2d2e6df1-f8b9-4800-81fa-0578f7b12d86", "name": "常德鼎城善卷分理处", "city": "常德市", "longitude": 111.68116, "score": "0.997288", "oldname": "中国银行成都罗浮支行", "address": "武陵镇仿古城", "latitude": 29.00011, "guid": "2231c344-b3ee-11e7-893e-6c92bf041d56"}
{"province": "山东省", "distance": 123.13675314327047, "sametype": "same", "thirdId": "8e219bf4-d621-4921-adc5-058137d4a0d2", "name": "章丘绣惠支行", "city": "济南市", "longitude": 117.504723, "score": "0.995884", "oldname": "中国银行成都开发西区支行营业部", "address": "绣惠镇城关", "latitude": 36.8144, "guid": "223336de-b3ee-11e7-bcb1-6c92bf041d56"}
{"province": "黑龙江省", "distance": 135.7785750599468, "sametype": "same", "thirdId": "e02aa865-d1fd-4260-a3eb-05814b0cfb66", "name": "绥棱上集支行", "city": "绥化市", "longitude": 127.328239, "score": "0.980082", "oldname": "中国银行金华市金东支行营业部", "address": "上集镇政府对面", "latitude": 47.152317, "guid": "21c378ee-b3ee-11e7-85de-6c92bf041d56"}
{"province": "江苏省", "distance": 124.06612820673499, "sametype": "same", "thirdId": "3de29f93-27f1-4fe4-bb83-0582521a5816", "name": "扬中城西支行", "city": "镇江市", "longitude": 119.805, "score": "0.911699", "oldname": "中国银行温岭泽国支行", "address": "开发区新扬路18号", "latitude": 32.2361, "guid": "21b359b4-b3ee-11e7-964d-6c92bf041d56"}
{"province": "广东省", "distance": 118.95924420365418, "sametype": "same", "thirdId": "71d31f41-48bb-4965-a554-0583813a76f3", "name": "潮安浮洋支行", "city": "潮州市", "longitude": 116.59716, "score": "0.996336", "oldname": "中国银行成都火车南站支行", "address": "浮洋镇公路旁", "latitude": 23.5882187, "guid": "22362d4e-b3ee-11e7-9533-6c92bf041d56"}
{"province": "四川省", "distance": 105.13189235050012, "sametype": "same", "thirdId": "7cd98b74-fdee-4095-83de-0586050b6f6a", "name": "攀枝花新华街支行", "city": "攀枝花市", "longitude": 101.716194, "score": "0.952714", "oldname": "中国银行太仓沙溪支行", "address": "炳草岗大街93号", "latitude": 26.5806446, "guid": "22005818-b3ee-11e7-b6d7-6c92bf041d56"}
{"province": "湖北省", "distance": 118.8814321198246, "sametype": "same", "thirdId": "d78f9cb8-c46c-4569-a276-058849d26f97", "name": "武汉文昌支行", "city": "武汉市", "longitude": 114.812019, "score": "0.996429", "oldname": "中国银行成都簇锦支行", "address": "齐安大道大街口", "latitude": 30.83821, "guid": "2237e0b2-b3ee-11e7-a6e3-6c92bf041d56"}
{"province": "山东省", "distance": 122.50495506755848, "sametype": "same", "thirdId": "d748263b-bbcd-4f33-a285-058d34369846", "name": "泰安岱岳支行营业室", "city": "泰安市", "longitude": 117.0388, "score": "0.969573", "oldname": "中国银行天津大桥道支行", "address": "泰山大街西段", "latitude": 36.1854019, "guid": "21f869e6-b3ee-11e7-a541-6c92bf041d56"}
{"province": "湖南省", "distance": 114.93301795167832, "sametype": "same", "thirdId": "abd3155e-a487-4b40-b284-058df068a4b9", "name": "宁远柏家坪支行", "city": "永州市", "longitude": 111.9906, "score": "0.998165", "oldname": "中国银行张江高科技园区支行", "address": "柏家坪镇柏家坪村", "latitude": 25.8399715, "guid": "223a22aa-b3ee-11e7-b7bc-6c92bf041d56"}
{"province": "江苏省", "distance": 123.69633788080591, "sametype": "same", "thirdId": "63c7b47d-661f-416c-a388-058e25f485e7", "name": "东海石榴支行", "city": "连云港市", "longitude": 118.76709, "score": "0.995532", "oldname": "中国银行眉山东坡大道支行", "address": "石榴镇政府驻地", "latitude": 34.57112, "guid": "222109e6-b3ee-11e7-ac20-6c92bf041d56"}
{"province": "江苏省", "distance": 124.23384080343085, "sametype": "same", "thirdId": "215cb55a-21bf-4eb7-80fe-05910d21d98c", "name": "阜宁益林支行", "city": "盐城市", "longitude": 119.606949, "score": "0.985790", "oldname": "中国银行重庆重大支行", "address": "益林镇人民中路175号", "latitude": 33.58906, "guid": "21957bc4-b3ee-11e7-b65e-6c92bf041d56"}
{"province": "河北省", "distance": 119.93826371328518, "sametype": "same", "thirdId": "82976fe1-14f5-4cc4-9c15-05923881697b", "name": "武安新华北大街分理处", "city": "邯郸市", "longitude": 114.184929, "score": "0.994115", "oldname": "中国银行天津新港支行", "address": "新华北大街金色花园门口北侧", "latitude": 36.70135, "guid": "21eb12dc-b3ee-11e7-99ca-6c92bf041d56"}
{"province": "江苏省", "distance": 124.95518192379758, "sametype": "same", "thirdId": "8778b4f1-8eb6-4003-8883-0592458426fd", "name": "盐城金穗支行", "city": "盐城市", "longitude": 120.464943, "score": "0.994085", "oldname": "中国银行新天地支行", "address": "黄海西路79号", "latitude": 33.19631, "guid": "223b841a-b3ee-11e7-8177-6c92bf041d56"}
{"province": "吉林", "distance": 132.71800561161143, "sametype": "same", "thirdId": "34107643-b8e3-4c49-9909-059562010f95", "name": "农安隆兴支行", "city": "长春市", "longitude": 125.194115, "score": "0.942446", "oldname": "中国银行东阳横店支行", "address": "吉林省长春市农安县合隆镇长农大街鑫海蓝城小区正门北侧厢房1-2层6-9号", "latitude": 44.051136, "guid": "21cfb532-b3ee-11e7-9d7a-6c92bf041d56"}
{"province": "甘肃省", "distance": 109.74270978576307, "sametype": "same", "thirdId": "cb95c547-8fbe-40f8-8039-0598003202af", "name": "兰州先锋路分理处", "city": "兰州市", "longitude": 103.638374, "score": "0.928641", "oldname": "中国银行昆明市马街支行", "address": "庄浪东路334号", "latitude": 36.0908546, "guid": "21d85aa2-b3ee-11e7-8053-6c92bf041d56"}
{"province": "天津市", "distance": 123.49274711856752, "sametype": "same", "thirdId": "601a7ff7-61d1-4200-81fd-059fa39b29ef", "name": "天津阳光支行", "city": "天津市", "longitude": 117.148888, "score": "0.857779", "oldname": "中国银行新都石油大学支行", "address": "港宁西路27号", "latitude": 39.0716858, "guid": "2211ff64-b3ee-11e7-b491-6c92bf041d56"}
{"province": "云南省", "distance": 103.15428931930072, "sametype": "same", "thirdId": "4d2cfec0-c874-4ffc-89b4-05a4080d852f", "name": "景洪城西支行", "city": "西双版纳傣族自治州", "longitude": 100.7809, "score": "0.966736", "oldname": "中国银行文成县支行营业部", "address": "宣慰大道170号", "latitude": 22.0004, "guid": "21ae7b1a-b3ee-11e7-9f8c-6c92bf041d56"}
{"province": "河北省", "distance": 123.21457763456304, "sametype": "same", "thirdId": "4765bbba-6fca-4f44-b454-05a97d4a1f92", "name": "廊坊银河支行", "city": "廊坊市", "longitude": 116.697258, "score": "0.983405", "oldname": "中国银行天津津玉大厦支行", "address": "银河北路181号农行廊坊分行培训学校西门南侧", "latitude": 39.5421562, "guid": "21f141f2-b3ee-11e7-ad88-6c92bf041d56"}
{"province": "江苏省", "distance": 123.55256082162968, "sametype": "same", "thirdId": "ee4fca24-3152-496e-ade1-05a9d480a6a2", "name": "溧阳城中支行", "city": "常州市", "longitude": 119.4886, "score": "0.995141", "oldname": "中国银行重庆玉清寺支行", "address": "西大街37号", "latitude": 31.42785, "guid": "2195cf7a-b3ee-11e7-a513-6c92bf041d56"}
{"province": "湖北省", "distance": 116.12245001421002, "sametype": "same", "thirdId": "e0b223e5-c0fb-4fc4-ab07-05b28685658b", "name": "荆州太湖支行", "city": "荆州市", "longitude": 112.075439, "score": "0.956292", "oldname": "中国银行奉贤支行营业部", "address": "太湖农场太东路54号", "latitude": 30.3894615, "guid": "224066c4-b3ee-11e7-89e8-6c92bf041d56"}
{"province": "四川省", "distance": 112.2278876520894, "sametype": "same", "thirdId": "be52e3f3-fb6f-421d-8e58-05b611f2df78", "name": "开江普安分理处", "city": "达州市", "longitude": 107.8339, "score": "0.997020", "oldname": "中国银行重庆学府路支行", "address": "普安镇十字街68号", "latitude": 31.0958, "guid": "21976f6a-b3ee-11e7-8ecc-6c92bf041d56"}
{"province": "江苏省", "distance": 122.98911476502674, "sametype": "same", "thirdId": "3b49783d-7679-4c31-ba90-05bac19f2a98", "name": "南京华茂大厦支行", "city": "南京市", "longitude": 118.739128, "score": "0.936419", "oldname": "中国银行闸北支行营业部", "address": "江东北路269号", "latitude": 32.0521736, "guid": "223a757a-b3ee-11e7-85cf-6c92bf041d56"}
{"province": "广东省", "distance": 115.56899520819262, "sametype": "same", "thirdId": "a09cad5e-f5b4-46de-bae6-05bb1810cac1", "name": "广州芳城支行", "city": "广州市", "longitude": 113.237068, "score": "0.995347", "oldname": "中国银行重庆铜锣湾支行", "address": "芳村区陆居路19号", "latitude": 23.0988979, "guid": "219a03d8-b3ee-11e7-896a-6c92bf041d56"}
{"province": "陕西省", "distance": 113.3846121111601, "sametype": "same", "thirdId": "2b76be35-6ed7-493c-84d9-05bd2684c46e", "name": "杨凌示范区康乐路分理处", "city": "咸阳市", "longitude": 108.081032, "score": "0.865101", "oldname": "中国银行天津南开支行营业部", "address": "康乐路8号", "latitude": 34.2718658, "guid": "21ef9f3c-b3ee-11e7-b0b8-6c92bf041d56"}
{"province": "云南省", "distance": 100.83702490968123, "sametype": "same", "thirdId": "10b69332-6c73-47b6-8d2b-05bfd802a03b", "name": "陇川景罕分理处", "city": "德宏傣族景颇族自治州", "longitude": 97.87804, "score": "0.949919", "oldname": "中国银行十陵支行", "address": "景罕镇", "latitude": 24.2486057, "guid": "22173fb0-b3ee-11e7-ba03-6c92bf041d56"}
{"province": "江苏省", "distance": 123.83549787550628, "sametype": "same", "thirdId": "f7b22d57-e4ca-47ed-8e17-05c07524e1c6", "name": "宜兴西郊支行", "city": "无锡市", "longitude": 119.799332, "score": "0.998592", "oldname": "中国银行重庆上清寺支行", "address": "环科园丰泽苑一幢15-17号", "latitude": 31.3584213, "guid": "219bf044-b3ee-11e7-aede-6c92bf041d56"}
{"province": "重庆市", "distance": 110.49671963957104, "sametype": "same", "thirdId": "fb5fc5b1-0004-4f92-9a73-05c8e7332110", "name": "重庆沙坪坝汉渝路支行", "city": "重庆市", "longitude": 106.469612, "score": "0.994715", "oldname": "中国银行重庆綦江支行营业部", "address": "汉渝路一巷8-9号", "latitude": 29.5592079, "guid": "219d8b5c-b3ee-11e7-b8b0-6c92bf041d56"}
{"province": "黑龙江省", "distance": 133.5572622908716, "sametype": "same", "thirdId": "fbd3ab0b-1ed0-476f-8e8c-05ca0a5624ae", "name": "大庆卧里屯支行营业室", "city": "大庆市", "longitude": 125.213013, "score": "0.908423", "oldname": "中国银行大木桥路支行", "address": "卧里屯大街52号", "latitude": 46.4676628, "guid": "22417d16-b3ee-11e7-bab5-6c92bf041d56"}
{"province": "青海省", "distance": 109.03679758739688, "sametype": "same", "thirdId": "6916ea11-03ae-4c91-bfbe-05cfdd8bbb7c", "name": "民和县川口支行", "city": "海东地区", "longitude": 102.8069, "score": "0.997027", "oldname": "中国银行重庆金通支行", "address": "川口镇东大街8-11号", "latitude": 36.3285637, "guid": "219fcc28-b3ee-11e7-8364-6c92bf041d56"}
{"province": "吉林", "distance": 131.66079553149154, "sametype": "same", "thirdId": "6fbacf0b-fe60-4904-b2a0-05d2c53e4e38", "name": "梨树大马路支行", "city": "四平市", "longitude": 124.335075, "score": "0.996534", "oldname": "中国银行重庆解放西路支行", "address": "吉林省梨树县梨树镇梨树南大路56号", "latitude": 43.30536, "guid": "21a07182-b3ee-11e7-9269-6c92bf041d56"}
{"province": "浙江省", "distance": 124.39851604313127, "sametype": "same", "thirdId": "3621aedd-f52d-407e-91db-05d3aad1e8fd", "name": "嵊州临城支行", "city": "绍兴市", "longitude": 120.831215, "score": "0.930900", "oldname": "中国银行重庆建国村支行", "address": "惠民街468号", "latitude": 29.577158, "guid": "21a166dc-b3ee-11e7-a332-6c92bf041d56"}
{"province": "浙江省", "distance": 123.79798032323632, "sametype": "same", "thirdId": "57da7fef-521c-434b-9012-05db06be65a6", "name": "东阳横店支行", "city": "金华市", "longitude": 120.316673, "score": "0.963022", "oldname": "中国银行天津福安支行", "address": "横店镇万盛街56号", "latitude": 29.1519833, "guid": "21f71ff0-b3ee-11e7-a45e-6c92bf041d56"}
{"province": "重庆", "distance": 0.0, "sametype": "same", "thirdId": "91ee1721-575c-467d-bf03-05de41aad3b3", "name": "重庆南川西外支行", "city": "重庆市", "longitude": 0, "score": "0.996577", "oldname": "中国银行重庆回兴支行", "address": "重庆市南川区西城街道办事处西大街居委西大街13号", "latitude": 0, "guid": "21a25f60-b3ee-11e7-a3ac-6c92bf041d56"}
{"province": "福建省", "distance": 121.13984125193782, "sametype": "same", "thirdId": "e6e702f6-5e66-4fad-9d7d-05df45cd65af", "name": "晋江市支行营业室", "city": "泉州市", "longitude": 118.573349, "score": "0.975558", "oldname": "中国银行乐山分行营业部", "address": "青阳街道办事处曾井金融小区银星大厦", "latitude": 24.80367, "guid": "22230eb2-b3ee-11e7-bddc-6c92bf041d56"}
{"province": "安徽", "distance": 121.50958719382095, "sametype": "same", "thirdId": "16f23abb-0965-47de-b1a5-05dfdb33e1e6", "name": "合肥滨湖支行营业室", "city": "合肥市", "longitude": 117.289879, "score": "0.972631", "oldname": "中国银行昆山分行营业部", "address": "合肥市滨湖新区徽州大道与紫云路交口世纪金源购物中心S2~125-129室", "latitude": 31.7437248, "guid": "220ad554-b3ee-11e7-9a89-6c92bf041d56"}
